[{"id": "01becbba29c24f87a7451bc62c94d35a.16", "url": "https://lh3.googleusercontent.com/sHgBAQJfa2wNzNM9NWGBHIpqsBcGj6WeQ304XRKuwsLm-86al-0HEQFftgxaKZvN6UJz0nhGB4FEoYpHl_vbWeQ2_w", "name": "Zebraffe", "lat": 59.34859400000000, "lon": 17.90133900000000, "team_id": 2, "available_slots": 1, "bs": 15, "bc": 87, "rs": 21, "rc": 121, "ys": 38, "yc": 129},{"id": "0351a12791df47b2819d1341fec381e8.16", "url": "https://lh3.googleusercontent.com/td0vziCNU7Oe_wQ2QdaC2RT-q7nvmDA24h48MYtFRVWAfeHovunBmylBCo4-GKzNxO9QDeoxSSZVT1bn9vRuTib4orM", "name": "All Time High Bromma Airport Mural", "lat": 59.35587300000000, "lon": 17.94586400000000, "team_id": 1, "available_slots": 5, "bs": 36, "bc": 103, "rs": 29, "rc": 99, "ys": 22, "yc": 94},{"id": "037afae974bb48599d20acc791562063.16", "url": "https://lh3.googleusercontent.com/bPM-RJN7LnhwJSQnWbbUh0333dXc3R8oixXvFm3jVS2s9pkjj4gkz5gnB3SLQQ80-mYX9iRpRXgs8WvIcP63QnAVbw", "name": "Södra Ängby Lekpark", "lat": 59.34146800000000, "lon": 17.89524400000000, "team_id": 3, "available_slots": 3, "bs": 39, "bc": 78, "rs": 24, "rc": 39, "ys": 49, "yc": 97},{"id": "03f1c8d21d51452482d03a4b01834ee8.16", "url": "https://lh3.googleusercontent.com/eGLAUZ0pUvlTQ8iFH1bO_aVcfuE5iCxzgZpf_gvie2BkAGi5Zb9I3K7ej18QPdhD8G6BmaAGBwD_mI3fkeGktDimiI8", "name": "Gravfältet Vid Glia", "lat": 59.35010500000000, "lon": 17.93723800000000, "team_id": 1, "available_slots": 4, "bs": 124, "bc": 33, "rs": 72, "rc": 26, "ys": 105, "yc": 27},{"id": "0724a107863e4b7faff214673a51bc63.16", "url": "https://lh3.googleusercontent.com/YEmr8K-iM5lKn1snIzNM_cHiEtf7xGcjbc6hbCFvsBw18Tbyt-rD47x0jufV9ItGchb1JdEy2bfXnQ0C8nmixk71IFA", "name": "Judarskogens Naturreservat", "lat": 59.33410900000000, "lon": 17.91082300000000, "team_id": 2, "available_slots": 3, "bs": 78, "bc": 45, "rs": 75, "rc": 45, "ys": 46, "yc": 41},{"id": "0856d78c0ce04c2b93eeba8bb3f29861.16", "url": "https://lh3.googleusercontent.com/ec2M88rCbRzvWB0EWuBfxnUqb48CJwhLiXTK-RPo21fuPm1MTIu2QWHCt6qBPYmK8hJAQ2uH7xSvEmRdiwRssL7B3w", "name": "Växternas Invandring", "lat": 59.33629200000000, "lon": 17.91454800000000, "team_id": 2, "available_slots": 3, "bs": 63, "bc": 54, "rs": 55, "rc": 50, "ys": 57, "yc": 48},{"id": "09e6dfc4d39c4a89990daddbbe209489.16", "url": "https://lh3.googleusercontent.com/s7ZulKOfYvmAA3rf-EBjl_oo9JvLOlzIHgeF5FhuCW263pDEjBs_tV6zqYrMCIIctLl3l4hf3uIOtIci_pZ2sHJCAw5duBB0wwuJoQU", "name": "Kämpakumlet", "lat": 59.32187900000000, "lon": 17.96854200000000, "team_id": 2, "available_slots": 3, "bs": 32, "bc": 79, "rs": 49, "rc": 107, "ys": 25, "yc": 41},{"id": "0ac388173323450e9ac1781a8729b8fc.16", "url": "https://lh3.googleusercontent.com/bWvZHLjnRboz9kWD7EUiXh-PC1ewQDipnxmhzBfOs23H4fJW8Uz-b-nKXXPB37I8ZpfLbKmNviBQnkpEi8IdniLZRAUy", "name": "Kvarterskyrkan Mariehäll", "lat": 59.36092100000000, "lon": 17.94985200000000, "team_id": 3, "available_slots": 0, "bs": 21, "bc": 108, "rs": 21, "rc": 90, "ys": 40, "yc": 121},{"id": "0aee7ba86a2445e997805a1a00500dbd.16", "url": "https://lh3.googleusercontent.com/NHRl8RbmyuinYut0EvpdtFE1mei9ZSWH1qQp6oPlyGAaKuswpGupZrJoU1HMIDg0-RY1HJ0zaAmJSY4qHj6FBugPOdk", "name": "Posing Cat", "lat": 59.34283400000000, "lon": 17.90778500000000, "team_id": 1, "available_slots": 0, "bs": 102, "bc": 70, "rs": 33, "rc": 37, "ys": 14, "yc": 43},{"id": "0ba344c8eb7e4f069660d3c1649c34c7.11", "url": "https://lh3.googleusercontent.com/o63yQvf_jvxMxbrJIOqffb_UFV4Ydg2GwXBtFftBvSQMf-1KveJR0qCkcjAEV5qNVptv47CslxvivhKp1zmwSZgNaBoC", "name": "Yellow Sculpture", "lat": 59.33815700000000, "lon": 17.93832100000000, "team_id": 3, "available_slots": 3, "bs": 15, "bc": 220, "rs": 17, "rc": 222, "ys": 10, "yc": 178},{"id": "0c0cf18e869b40b782e5a549d89c2e04.16", "url": "https://lh3.googleusercontent.com/nWqDAi7abAEQp-zJLcyXlwroCAKAB8o5jvWWdyxJmiZCETf7EuC1VXOSydIqnLAb6swqf8F0VBcJJUHIVNtFZN9acPIQ", "name": "Colorful Swirls", "lat": 59.35002400000000, "lon": 17.95692600000000, "team_id": 1, "available_slots": 0, "bs": 43, "bc": 109, "rs": 33, "rc": 92, "ys": 24, "yc": 52},{"id": "0f55d5993912470a866c31b6ba2fc084.16", "url": "https://lh3.googleusercontent.com/G-riQcMCgQOCJ2TUIMGG2OYd30QjqLsuZWK7Ese0qcm-uJ3MNwBW5VLxFsFwbBrOxWWqSDQaaqF8MSZuK5dLRPvhkg", "name": "S:ta Birgitta Klocktorn", "lat": 59.32890600000000, "lon": 17.91523800000000, "team_id": 3, "available_slots": 1, "bs": 72, "bc": 70, "rs": 32, "rc": 43, "ys": 43, "yc": 59},{"id": "120a5ee4d92a4002b9fba626d1d5aaab.16", "url": "https://lh3.googleusercontent.com/IV0wZb3DNYft6JK1qdqTbhlZDY36E1YgVkDafBhoc59pAPSq33PnCbmqnp7j65I2JKTOLvwxZUrLtvLyA0kAaRs32jY", "name": "Brommaplansfontänen", "lat": 59.33872900000000, "lon": 17.93914400000000, "team_id": 2, "available_slots": 0, "bs": 16, "bc": 144, "rs": 17, "rc": 174, "ys": 13, "yc": 115},{"id": "123da8e03be0440baa92e37848a432a6.16", "url": "https://lh3.googleusercontent.com/n6YYbs1lxcGGmBnXf-XRZRikSt5aJT2VA1EdyGfa308yiv_DrbKT7XtwtuiSQdxUU8r9tmtZJAS9QUV8keXk0R7X6lc", "name": "Näsmarks väggmålning", "lat": 59.35573600000000, "lon": 17.94525500000000, "team_id": 1, "available_slots": 0, "bs": 25, "bc": 111, "rs": 29, "rc": 101, "ys": 28, "yc": 97},{"id": "12a59e44bdea48d5a983a2937b6c5270.16", "url": "https://lh3.googleusercontent.com/J2qbFRizG9dsm3PzKv0ZidvBgDkaOkaKxeNZBSj9-KrIFUArYbbNJtJ4azLajsth4Hg7MdAYiHN5HiFK7uqnBon1QE0", "name": "Mystery House", "lat": 59.35356600000000, "lon": 17.93383400000000, "team_id": 2, "available_slots": 4, "bs": 27, "bc": 31, "rs": 130, "rc": 54, "ys": 41, "yc": 28},{"id": "137784d164af47fe91f0a84e9988accf.16", "url": "https://lh3.googleusercontent.com/l-hPxQZH_X_GBpIpXeiOe3fZyfnxtMa4tNH8-bB1PmKVcXnkbxg-MSaSRTlm2B2jdibdhBVm_HDW9GhtE5a1bLrnwjI", "name": "Gyllene Sol Med Klocka", "lat": 59.33196200000000, "lon": 17.98987300000000, "team_id": 1, "available_slots": 4, "bs": 22, "bc": 152, "rs": 33, "rc": 152, "ys": 10, "yc": 63},{"id": "15d80f98a8a648a8a3e68f01b0e9a484.16", "url": "https://lh3.googleusercontent.com/I-ak-rWsN3j5M7KLKHGcmHwPPWaI-3vJFq0283AjycebZI9UTDEeqsl3K1jYwB1xEQM-9vsP86o7iuZIYDzJSDRAjw", "name": "Havsvind", "lat": 59.32940900000000, "lon": 17.98478900000000, "team_id": 1, "available_slots": 2, "bs": 25, "bc": 189, "rs": 13, "rc": 158, "ys": 15, "yc": 141},{"id": "162d6daf3a6146eaa6aae88d631a455e.16", "url": "https://lh3.googleusercontent.com/ju7XaUOcrj-RyhQUk2obKe_xwzGV7lWL09erT7Ik5K9Zh9a-O-bknEKAi-qV4r7GTznPLJ3O6svveGQ70oG0BGvfzTnK", "name": "Iron Anchor", "lat": 59.33859200000000, "lon": 17.99225300000000, "team_id": 1, "available_slots": 0, "bs": 38, "bc": 136, "rs": 19, "rc": 69, "ys": 23, "yc": 103},{"id": "17884a4f55614f4cbf18fde8d43f2e49.16", "url": "https://lh3.googleusercontent.com/r_AG-YhzWz5eJG40ia--5Vljo3wm0YhUi72bwaCG4sA7EOpEPSqTXmi1O2JpKDRwc-rfwCpzBN1zdvqZgUvF-YOHP9M", "name": "Barnängens Björn", "lat": 59.33037400000000, "lon": 17.98503600000000, "team_id": 1, "available_slots": 2, "bs": 27, "bc": 97, "rs": 27, "rc": 82, "ys": 19, "yc": 53},{"id": "193c0e80c6624f64948a81d3c0f6edfa.16", "url": "https://lh3.googleusercontent.com/dkkhlK2QZOPvDqBJozsVhHlbal7VffzjzynXthhZJOWxhpEqnP9ZBGPuf39CReuIPa8X7sve-PugSJZNVfXse3GRSpIB", "name": "Kungen vid Lillsjön", "lat": 59.34016400000000, "lon": 17.95367700000000, "team_id": 3, "available_slots": 4, "bs": 28, "bc": 140, "rs": 12, "rc": 123, "ys": 24, "yc": 146},{"id": "1af168831afb4d14a3d96d5ba104fa63.16", "url": "https://lh3.googleusercontent.com/z7aRTPHNWn-KSeldDvpQBWZCP8LSRAiy-AliyLnHuaY2jFlQbvRYkh9grYV4tiHcv9zgPfDEEPUAkziF9YSdNyagr3E", "name": "Traneberg fotbollsplan", "lat": 59.33659500000000, "lon": 17.97921400000000, "team_id": 3, "available_slots": 5, "bs": 22, "bc": 166, "rs": 12, "rc": 155, "ys": 18, "yc": 193},{"id": "238a2333fe64428ebbe26f4a41358d43.16", "url": "https://lh3.googleusercontent.com/D2rnJaBVsUMxxqQMlIoNUb7wk_FQ5xAzCNCMGZU8cFFj89av1x86r80gevlIRRNKbxiX3iF-4sjW8326mJ7g8dQHBwA", "name": "Triforce of Water", "lat": 59.34781600000000, "lon": 17.88404100000000, "team_id": 2, "available_slots": 1, "bs": 14, "bc": 286, "rs": 15, "rc": 282, "ys": 6, "yc": 111},{"id": "23db2a37a5ff406c82bc43b1a1650e69.16", "url": "https://lh3.googleusercontent.com/0o-kYS7pRbaZEgpV1_WkuUaoesJNllnVEdVO_gx5qzzleRwr8OgXx9lqHAFB5Xc_66mZAa_RyisEwr03Fz9NCCrAl0s", "name": "Krumlor", "lat": 59.34087800000000, "lon": 17.88103400000000, "team_id": 1, "available_slots": 4, "bs": 13, "bc": 151, "rs": 30, "rc": 186, "ys": 11, "yc": 118},{"id": "2bb964a9db1848a388a962c54a3f12e0.16", "url": "https://lh3.googleusercontent.com/eTkgTk4mh2iXDvmTzY4i1wUSZ7NZGPqqmvQN6oh57JYJLXqv1uSYFDqJRgfh_WDfdzaoJWF_Cvf4L7Sn07NeuSkMH5U", "name": "Sundby bollplan", "lat": 59.36820800000000, "lon": 17.92511600000000, "team_id": 3, "available_slots": 3, "bs": 27, "bc": 114, "rs": 28, "rc": 125, "ys": 25, "yc": 93},{"id": "32b6816a08c74f468790d8c4c0392335.16", "url": "https://lh3.googleusercontent.com/2GzolyEVe-p9aY0DnShvSU-VhadbCCRHLxVWDMrlprx6KMeD2IrZ2OUyPL7aNPJFsCnnUiOTGNkLZO5HaY8uHXAGjw", "name": "Bromma församling", "lat": 59.33787700000000, "lon": 17.94018800000000, "team_id": 2, "available_slots": 0, "bs": 23, "bc": 146, "rs": 28, "rc": 145, "ys": 16, "yc": 97},{"id": "363ca17bb4dc46ad9a43eae110827df3.11", "url": "https://lh3.googleusercontent.com/XoqOmGZUfYGtl2xyGQgvsuL8zGfus_sNLPpqJyZx5KKafKLF_BipcjhyShoYcmQQM_cxVmeo7Y7H31ku2PddcncSn5Y", "name": "GRO", "lat": 59.33463600000000, "lon": 17.97881100000000, "team_id": 3, "available_slots": 0, "bs": 22, "bc": 185, "rs": 18, "rc": 168, "ys": 13, "yc": 146},{"id": "3d3256d84efb4670bfe242b7aad77b40.16", "url": "https://lh3.googleusercontent.com/tnu6IgTdeRfQqb0ZP7Fbaf7OS0KCHGUzsN1flv1XikweJpmpn5L1Kb7RhKJISi7wAkqZ-4cTgSqvkuRpTfztQfTkAzeE", "name": "Exercise0r", "lat": 59.31552600000000, "lon": 17.96584400000000, "team_id": 1, "available_slots": 3, "bs": 27, "bc": 88, "rs": 45, "rc": 99, "ys": 27, "yc": 78},{"id": "405d71a6075c45fd863fe2058dd4b273.11", "url": "https://lh3.googleusercontent.com/iSWZbMkPhjzeiwZg91Ikz1MEzIrkjm95EL3ZkzwIYIMwVkkEvaqw75ndBPLozWANaAm2sZLCXYYMx2-mcPscThN_BQ", "name": "Tranebergsbron re-opening memo", "lat": 59.33302600000000, "lon": 17.98949400000000, "team_id": 3, "available_slots": 0, "bs": 61, "bc": 70, "rs": 53, "rc": 59, "ys": 43, "yc": 34},{"id": "445e7b7633364b1ea80b1eb597bf9896.16", "url": "https://lh3.googleusercontent.com/hzebQycqDaD_dKlCPkJQF1IY83r-i8DQaekxQ0yhgzof9F2JIQ1FMFvi-sLuhxzzrVgiwZpfOT3s1O5D63gbwSNV5w", "name": "Riksby", "lat": 59.34043500000000, "lon": 17.94659200000000, "team_id": 1, "available_slots": 3, "bs": 32, "bc": 199, "rs": 11, "rc": 139, "ys": 10, "yc": 89},{"id": "44745b6d5fbb47c983633f0461a84557.16", "url": "https://lh3.googleusercontent.com/zxU-9_U3UxI5goNiG8X7LRPi635-hYcNOZH8YcYAmRSTNGeRL8M_s4rQTcWapIx8jZW5X136T1s_djIWKulzXKtazco", "name": "Dancer", "lat": 59.33902500000000, "lon": 17.94000100000000, "team_id": 3, "available_slots": 4, "bs": 14, "bc": 175, "rs": 21, "rc": 208, "ys": 12, "yc": 177},{"id": "450a881cdf184b7ab7f38ab5e24587f8.11", "url": "https://lh3.googleusercontent.com/Tyt1F0rKcKHescOaQXI5s0p4Bxp8LZdBa4zhaveIaRcMn45enCCeu7AQFz-UjZDPs1-tQ3AdThRP4kjEzwr_qeUM5CM", "name": "Ängbyklockan", "lat": 59.34666600000000, "lon": 17.89055500000000, "team_id": 2, "available_slots": 5, "bs": 25, "bc": 96, "rs": 22, "rc": 46, "ys": 50, "yc": 111},{"id": "451f9fbdc2bc4d2284d1f0c589c635e9.16", "url": "https://lh3.googleusercontent.com/VrWer4V-5zV4dXZKf2hBLm4kR7gBFpKTKGGJBFP77GQS8T9s0RSwZMkkN9QPWcty-Te3_gBTFtA4QzHmQMVwoNvt198H", "name": "Blå Grodan", "lat": 59.34135800000000, "lon": 17.98291200000000, "team_id": 1, "available_slots": 4, "bs": 58, "bc": 74, "rs": 41, "rc": 53, "ys": 39, "yc": 62},{"id": "4be1fdc87e1b41f68dbefaf5e92bb370.16", "url": "https://lh3.googleusercontent.com/rxZbkj2gU2rmgdPAUu4MMgwUSf58IL8Nsn1-51B2iIHISaYz2_iMtA_WVQ3VIYuuRX9jsWKGl5uovmUxUCNFbx0fciw", "name": "Ulvsunda Footbridge", "lat": 59.34140900000000, "lon": 17.96469200000000, "team_id": 2, "available_slots": 3, "bs": 31, "bc": 143, "rs": 27, "rc": 126, "ys": 17, "yc": 67},{"id": "4dae2e75ccf94301bfb842c6179e2be0.16", "url": "https://lh3.googleusercontent.com/xRnJ7Czssn728SmVvsg9vqSOAMrJpwWORd4GDAj4VE5LxvnlAsIK7C5Xkf7lVcHCWnMvWa3Rv8hXz9x-tKjRCOUZRd0", "name": "Non Violence", "lat": 59.34208200000000, "lon": 17.92497600000000, "team_id": 1, "available_slots": 0, "bs": 32, "bc": 116, "rs": 21, "rc": 103, "ys": 24, "yc": 129},{"id": "504ae273777832f7add479861d83f8ae.16", "url": "https://lh3.googleusercontent.com/Fq3sQa8p3crsWkAiVqJwSZY9Bl65UW_VvdpLviHOSqOkskQbRGLNA7cEF89CPNZrVpp-my-buVR1bP5mEP2uG-QduHHUGv8e1x_zxTQ", "name": "Lekplats Alligatorn", "lat": 59.32283100000000, "lon": 17.92841600000000, "team_id": 2, "available_slots": 5, "bs": 40, "bc": 159, "rs": 13, "rc": 54, "ys": 15, "yc": 124},{"id": "52152db2b8d742d0b803ac01c8986cbd.11", "url": "https://lh3.googleusercontent.com/MUkOUqdjIKUFcr2KBJn80UrOCE97oYsqAQCBGm9a3ECzVubjs7XQyCkaj614ItOfsBKoQKAOkFHAAac2C8eg3sDlVLE", "name": "Ulvsunda Slott", "lat": 59.34099200000000, "lon": 17.96440900000000, "team_id": 2, "available_slots": 2, "bs": 29, "bc": 136, "rs": 27, "rc": 128, "ys": 20, "yc": 75},{"id": "532445d798b54865b3b721cdb10da9e4.16", "url": "https://lh3.googleusercontent.com/LilUWci0NjMRTg33Y1kBvmDwYGT530UhxOYCnMEvuwfA3-PiwFSQ71pVJmWsbFTAIiwL3t2LcTemEyCjW62DjK8zFw", "name": "Öltunna", "lat": 59.34993100000000, "lon": 17.96876600000000, "team_id": 2, "available_slots": 4, "bs": 19, "bc": 203, "rs": 22, "rc": 207, "ys": 11, "yc": 54},{"id": "536a76dcbb4349e4adea255c2dd4f950.16", "url": "https://lh3.googleusercontent.com/xoTcmKeIB_D_Ho3z15dCG18wgLHRK4u-BR8JKiNPHZAUAhQp815mKotmxriYjGvQKSiObUIkKRXqqOMRTAxXbltuz-w", "name": "Rikets Sal", "lat": 59.36561800000000, "lon": 17.90094400000000, "team_id": 1, "available_slots": 0, "bs": 45, "bc": 110, "rs": 28, "rc": 100, "ys": 20, "yc": 56},{"id": "59aab944383d46e99b455293fb97adb8.11", "url": "https://lh3.googleusercontent.com/JZchggaqs30G-eJxXFadjjClqRReLyfGVnZGfi_4ZqOCHevgRFaDfSNcre1xkdNjd2_3Z4hsB-TABDXdeojGo0xVHls", "name": "Solvalla", "lat": 59.36549300000000, "lon": 17.94267700000000, "team_id": 1, "available_slots": 4, "bs": 60, "bc": 71, "rs": 36, "rc": 56, "ys": 54, "yc": 49},{"id": "5a82d66566b440cd8376730aba0cd0bc.16", "url": "https://lh3.googleusercontent.com/uHSwXkRXcmJ5XsvVPysDnWSNDnuaiftBc9YVdnjVfNnB4u5oReOqUF17Dv7KX-Cyvbm4Q4y6XL58GbFzyW76W54chw", "name": "Rymdfångare", "lat": 59.35638800000000, "lon": 17.89777600000000, "team_id": 1, "available_slots": 4, "bs": 59, "bc": 140, "rs": 5, "rc": 53, "ys": 5, "yc": 92},{"id": "6080c25ac38b4b2885420a16d29daf6e.16", "url": "https://lh3.googleusercontent.com/7ATmD6Vnnxj04IW61EOdJs_paUotTFfz3U25kVsAwRqh3F5YJSEYywWyD44oHH3AcS2ylNOPcQlvI6PAPJCubDW2yA", "name": "Nockeby Station", "lat": 59.32905600000000, "lon": 17.92782500000000, "team_id": 1, "available_slots": 4, "bs": 22, "bc": 166, "rs": 20, "rc": 141, "ys": 21, "yc": 113},{"id": "613e55f10a934d058648074b1b371237.16", "url": "https://lh3.googleusercontent.com/ysUkL_-tiMakGq-5RRy2azDT-jR7OvPh_9KunAk-W9qlhT-D5tgIaaqODyW8e6Nv-NWk-PVqfC0HL_QlpI_qeYNnS08", "name": "Johanneslund", "lat": 59.34087900000000, "lon": 17.98270200000000, "team_id": 1, "available_slots": 4, "bs": 54, "bc": 90, "rs": 27, "rc": 58, "ys": 34, "yc": 73},{"id": "61efbab7003040c6827fc6181bb2ef56.16", "url": "https://lh3.googleusercontent.com/W6M1a427xRX1qt_nfIc81_WufPufEcN9sbo_kTQj7-J_S8Vf_8j63pByE-uxPxT9HAJed-ywXeXliQBZ5EjaRGr7aw", "name": "Gamla Stenar", "lat": 59.35544700000000, "lon": 17.91959700000000, "team_id": 1, "available_slots": 5, "bs": 17, "bc": 48, "rs": 33, "rc": 114, "ys": 38, "yc": 115},{"id": "620d4a9fa18f4a6388bfce2f0cdb2aa5.16", "url": "https://lh3.googleusercontent.com/HCwnyne_sD4edDLQ76I6m3WFoZzRplZiO-yycAsnlSRSFRbFbIZzlZdDLC9nZErjYQAs0kTBDZR8reVP9ZRDbXpKSyGZ", "name": "Woodfrog", "lat": 59.34883400000000, "lon": 17.92493600000000, "team_id": 2, "available_slots": 4, "bs": 80, "bc": 51, "rs": 75, "rc": 50, "ys": 45, "yc": 26},{"id": "62a67ce357d43f369d69140577ccb2ec.16", "url": "https://lh3.googleusercontent.com/CPDUCfxOESUtklYTMpHH0MrXEE8p8P7ZROr-GsvzvdaiHQnTg47hlYuJRioZtxJ0iV1LCKBDD-Dh_u0R3-jO--lgg-N5", "name": "Kyrksjön West Entrance", "lat": 59.35013900000000, "lon": 17.91058300000000, "team_id": 1, "available_slots": 5, "bs": 22, "bc": 83, "rs": 44, "rc": 89, "ys": 33, "yc": 50},{"id": "63a4ca04b3284cd1ad6733b96c467c0c.16", "url": "https://lh3.googleusercontent.com/kZIoW4uinai2yQfIIs52gDmMaC5oV42kHqgqQc7MjI1e49QVLOXcMT7rsNdY7jkkxXas9A7S11_mfOGY_DljnO2JILjK", "name": "Lekplatsen Pilspetsen", "lat": 59.34639400000000, "lon": 17.90719400000000, "team_id": 1, "available_slots": 0, "bs": 24, "bc": 122, "rs": 26, "rc": 144, "ys": 18, "yc": 116},{"id": "63b529fdde373a4a8c763a4787d10fd9.16", "url": "https://lh3.googleusercontent.com/JhAmwLobskcROhh08rSWKEWRpt5chWnNo1Byo-s4hQQL9RFhyZng14iOEu81Bflb1dWIYh9cx1gVXBHqcKAjT1W7zAqgouwDoRf6sSA", "name": "Mulmholken", "lat": 59.32105600000000, "lon": 17.97724400000000, "team_id": 1, "available_slots": 4, "bs": 75, "bc": 56, "rs": 76, "rc": 38, "ys": 40, "yc": 43},{"id": "6729ece18c48468886c1883f37da40f8.16", "url": "https://lh3.googleusercontent.com/DZMH2l7fdjdaGrFGIt_SkaErtIUErxnH1Z0BkfGSe7wdhPBq7wmnHJbvMHJAYFQBrmm-ijrgXl8Wt9-I-VISXT3X5RB6", "name": "Norra Ängby", "lat": 59.34763600000000, "lon": 17.90206200000000, "team_id": 1, "available_slots": 4, "bs": 16, "bc": 168, "rs": 17, "rc": 161, "ys": 21, "yc": 172},{"id": "6a8d78b0864441178d890e77905d6160.16", "url": "https://lh3.googleusercontent.com/iBHxEm_TA7AAX4B4wykVVDp9WpAcakUCVNordHAhvEivVSenLsyT5s4JGnIG9-YVRtSXipii7OAGw-RodDniGrWplEY", "name": "Groddammen", "lat": 59.33933800000000, "lon": 17.95551000000000, "team_id": 3, "available_slots": 5, "bs": 27, "bc": 136, "rs": 17, "rc": 119, "ys": 25, "yc": 132},{"id": "6afe328097ac4f448908cb9d077d6081.16", "url": "https://lh3.googleusercontent.com/5zWQwoVve1-lnphre2SKcYZtZ6f1EKcUv4veKwJp-r3_HO5mKcxw6y-ofO4cHvlq0GhN_Dor7Yvb79SchTU_t_1FpkE", "name": "Vattenrutchbanan", "lat": 59.33647300000000, "lon": 17.89941000000000, "team_id": 2, "available_slots": 3, "bs": 42, "bc": 84, "rs": 53, "rc": 78, "ys": 28, "yc": 41},{"id": "6d28f7719632449292dcaba5dc32a694.16", "url": "https://lh3.googleusercontent.com/HQRJv6P1tfsWkUUVA1YiEJYjB9LHZP1TZ0eTa1J8LWScw9AVQiXUFrTxdDqix2NigrYdKMmlOqgYVmOR1icY7Zl5EIM", "name": "Hästar På Fasad", "lat": 59.33820700000000, "lon": 17.92662600000000, "team_id": 3, "available_slots": 2, "bs": 96, "bc": 46, "rs": 58, "rc": 29, "ys": 76, "yc": 38},{"id": "6f5514f425544a439f2e7ed9676c17a5.16", "url": "https://lh3.googleusercontent.com/sCtTqn6dZIGM5aMHnAoJXu1_yns8jbH7C7SW1bB4_n7h9iKjWR416jsOyJ3eiNycNziFJBE4XmyXe3JpdX_M4ef21fs", "name": "Judarskogens Naturreservat", "lat": 59.34098900000000, "lon": 17.92307700000000, "team_id": 2, "available_slots": 2, "bs": 28, "bc": 92, "rs": 51, "rc": 98, "ys": 28, "yc": 44},{"id": "71d6381dc22b40c086e3d58b784ca6bc.16", "url": "https://lh3.googleusercontent.com/LlofakGi0ZGDQ3OksNUFaaOOAKa-ee24_4nrVucVoAgMsJgQTc4EE7FjCdWWQbnqt3FYVV-LJxIzBn8tQaUX09Lt1Q", "name": "Ängbyplan Tunnelbanestation", "lat": 59.34200200000000, "lon": 17.90679400000000, "team_id": 1, "available_slots": 0, "bs": 37, "bc": 108, "rs": 23, "rc": 90, "ys": 29, "yc": 101},{"id": "732d5207d94f47a3bd3cd5b70a70fcf2.16", "url": "https://lh3.googleusercontent.com/tSGPlYf46_mci3CEhmH16ZZHAXXmp8TapLcGHEjouSWz2fXt6_N2xNqWq5q2ztuFcdbfrNRgjrBOB9-8lCvJ2W8jxAs", "name": "Gravfältet Ålstensängen", "lat": 59.31748400000000, "lon": 17.95359900000000, "team_id": 3, "available_slots": 5, "bs": 40, "bc": 84, "rs": 36, "rc": 65, "ys": 49, "yc": 66},{"id": "7360c21db5404838918a1c9cd8aecf50.16", "url": "https://lh3.googleusercontent.com/T8g_E7rBayPnQ3xAC9opPhNuybqGh-DbL35iJpDbEv3kwvYRiJApECp3yxVeEOlHDZREO6HaBlx7mO-Q56KzgIBVrCg", "name": "Kyrksjölötens Naturreservat", "lat": 59.34785800000000, "lon": 17.91572500000000, "team_id": 2, "available_slots": 2, "bs": 56, "bc": 121, "rs": 17, "rc": 86, "ys": 12, "yc": 59},{"id": "758e1c90b7264b51bed4bbd7e21dcb0f.16", "url": "https://lh3.googleusercontent.com/rARio-zLTda_EvlVwkA8oLRGr__rCX2yuK-uj50RFWzPZ6a5jemIq7gb8TYE6TlmJoDzZc89i5fdNKifXLQLfaUmBVo", "name": "Parklek Vid Beckomberga Mentalsjukhus", "lat": 59.35831800000000, "lon": 17.90412100000000, "team_id": 1, "available_slots": 3, "bs": 57, "bc": 114, "rs": 19, "rc": 88, "ys": 16, "yc": 53},{"id": "768ec25408833c1ba3f91d35d15f39e2.16", "url": "https://lh3.googleusercontent.com/A-4T-5H6Jjvl-DfIb0-V_6PaA4jDccP1lEqlCmLzEE4rWZXpZ6le9EFaFCsGhgtaBxxXkVVfaj8X9UgY-W45ysjU2Og", "name": "Bro nummer 3", "lat": 59.36161400000000, "lon": 17.91001700000000, "team_id": 3, "available_slots": 2, "bs": 16, "bc": 78, "rs": 27, "rc": 86, "ys": 44, "yc": 123},{"id": "7dd07478f3d74423a66ea0356fa35022.16", "url": "https://lh3.googleusercontent.com/-_FI1FtT4_T3_jY7xbERcCbTQV85CDjxKXTXfML0Fnqa9s_qovdYYEnGKIdcSmocfP43WkGmKHND4daV_-2zTIAnLnY", "name": "Stora Mossen T-bana", "lat": 59.33462900000000, "lon": 17.96557400000000, "team_id": 3, "available_slots": 0, "bs": 58, "bc": 82, "rs": 38, "rc": 61, "ys": 42, "yc": 43},{"id": "7e49ae8c62fc47339237d6984c658c93.16", "url": "https://lh3.googleusercontent.com/Lexx5BobTrMGaJW_t_ktnj7N1oJz1IkLxI7Ri8sNtAZM1oVvfDLIZ4Lszkr7kGvGyqvjlJqc6zS3qT4yYcObwqQ9wiM", "name": "Flodhäst och giraff", "lat": 59.33286000000000, "lon": 17.94076600000000, "team_id": 2, "available_slots": 2, "bs": 41, "bc": 106, "rs": 24, "rc": 92, "ys": 25, "yc": 94},{"id": "82e9bcbc599f4f38a10d54ac705fc10e.16", "url": "https://lh3.googleusercontent.com/1seNi4t4XnVo9K7ngKe1gvCWGOzlHNBtuUpYA0yyOFJvqFunES997Avem4M9HcXGfcRiIBmYXn4kY3TyFdOg9xrv1O4", "name": "Fyra Kutar", "lat": 59.36586000000000, "lon": 17.94856800000000, "team_id": 2, "available_slots": 5, "bs": 9, "bc": 276, "rs": 13, "rc": 329, "ys": 11, "yc": 224},{"id": "855c00c5d6e130e88c5fb397e93dcd9b.16", "url": "https://lh3.googleusercontent.com/cc94kQYH0RAVft-lr_UM5oXykPpIkgLb-oxFntQeYKOrAXlwnleGQiTn9SLx9xrBixg-1G9TZft8pjDDYMJ-bdSMyiCSIGQCEtlUCNDwWw", "name": "Lekplats Rimiparken", "lat": 59.32920100000000, "lon": 17.91232900000000, "team_id": 2, "available_slots": 0, "bs": 48, "bc": 128, "rs": 14, "rc": 34, "ys": 21, "yc": 110},{"id": "85a6af39b4844eb8b18482c2d42b1c4f.16", "url": "https://lh3.googleusercontent.com/WUMfqzJGrjqW0gZWTDXbmDLvRaW6xTYASj2B6PmDsP2r6yYLvvUvo1nt8YNQnsUiVSqg3-krZ3gMXJOinlSKxR0yaQ", "name": "Ängbybadet", "lat": 59.33670400000000, "lon": 17.89637100000000, "team_id": 2, "available_slots": 0, "bs": 51, "bc": 48, "rs": 88, "rc": 58, "ys": 33, "yc": 39},{"id": "87335cecd24b42c68a0f8367ebffaf3c.16", "url": "https://lh3.googleusercontent.com/BudP2cx7aBz8Nrfmu2EM_UKfuK_ijSZulNmm4SSFzki7Xk99r7_FTknnVmcZqOjZkRBju-l951qCrAhIAaULjSRBqiE", "name": "Åkeshov Slott", "lat": 59.34082500000000, "lon": 17.92481500000000, "team_id": 3, "available_slots": 3, "bs": 33, "bc": 121, "rs": 36, "rc": 85, "ys": 24, "yc": 80},{"id": "8762236f811b398d88911d9c163ade19.16", "url": "https://lh3.googleusercontent.com/oMxIsnGGtmzBDU3YtbeIBXBrBe0vROCTwJ8L5kTqBlRkN2b4yZKQuXPfuh9PIvFewMXgBVEaSegp59fAV2GktDVeMHlpkGY3AeaurZ0", "name": "Hundrastgård", "lat": 59.34198200000000, "lon": 17.91792700000000, "team_id": 2, "available_slots": 0, "bs": 117, "bc": 30, "rs": 101, "rc": 19, "ys": 122, "yc": 29},{"id": "898974b5e6244af3baf33e1d9de93819.16", "url": "https://lh3.googleusercontent.com/81nuvTgulBqLAxQBYoVKxHkTlrCU1r-IRNmmRy2FCDaDxqvwimBvi6OGXsZNA0Q-kUd3hZcW01EPo36VZdMThglbZg", "name": "Gula Hästen", "lat": 59.34994600000000, "lon": 17.87890000000000, "team_id": 3, "available_slots": 5, "bs": 23, "bc": 219, "rs": 9, "rc": 90, "ys": 16, "yc": 195},{"id": "8991a092f7444cd5954a7e035a72270b.16", "url": "https://lh3.googleusercontent.com/QkXnErnyR3UURHFbYIplJem1toix3ARnkB3oynYQ2jjOzrn20eMTmLYw8BFsDVJbbY-ekjjtuVJhyiSPWclCVPU7fw", "name": "Bil Cykelställ", "lat": 59.32333500000000, "lon": 17.94034200000000, "team_id": 2, "available_slots": 5, "bs": 21, "bc": 141, "rs": 20, "rc": 117, "ys": 25, "yc": 143},{"id": "8bf03edcbd7e4711820e92778efe5579.16", "url": "https://lh3.googleusercontent.com/GvOhSSM8CKI5dB3si77VrX9OXFw0eZ4DiO3u5kuXYNBonGwkesKLw3dM07IELCxuPhztPr1P90RpgF8cbZcySemejVk", "name": "Mållgans katt", "lat": 59.36132100000000, "lon": 17.94773400000000, "team_id": 3, "available_slots": 0, "bs": 18, "bc": 216, "rs": 14, "rc": 223, "ys": 12, "yc": 170},{"id": "8cb8b087986540098b0a8e64063da1b4.16", "url": "https://lh3.googleusercontent.com/OICVowoECk4SiihbnCkpFRpEhxS4qUKqT29a9ws-UujNi63U2RfQzrcFIBcjr2VhiNPG62-pQq1PS6QmVHxWmCRSu50", "name": "Skulptur", "lat": 59.33618500000000, "lon": 17.95081700000000, "team_id": 3, "available_slots": 0, "bs": 18, "bc": 219, "rs": 13, "rc": 129, "ys": 17, "yc": 197},{"id": "8e1f2c07dda0305d8ca43d9e0bd2d3b7.16", "url": "https://lh3.googleusercontent.com/nT9_Y2RMRCAY9G8z12SPWjiGJ7TKbbdll0O_STxjDzWvs4tYBoX8PU6lfyqx09lxT9VTT85VnPhS7W6YMa-L9AE1gq495_YDGX7nVs8", "name": "Älgar på kollisionskurs", "lat": 59.34608600000000, "lon": 17.88070800000000, "team_id": 1, "available_slots": 5, "bs": 34, "bc": 199, "rs": 11, "rc": 108, "ys": 9, "yc": 123},{"id": "8ed3c388734e4e21a56407acbe5e15c5.16", "url": "https://lh3.googleusercontent.com/b_ASDsyB_MVI124BC5M86H-N2BbBhKUeX6FIg7Ke6GtQ9-ye5R7sK8nQLVf-WOHxqoS0ATBZ8CFBYIDoxuVUiG7KZw", "name": "Station Åkeshov South Entrance", "lat": 59.34188500000000, "lon": 17.92551900000000, "team_id": 2, "available_slots": 0, "bs": 32, "bc": 121, "rs": 23, "rc": 90, "ys": 24, "yc": 127},{"id": "9a4876d1ab63435a9e56b297b1e96643.16", "url": "https://lh3.googleusercontent.com/qUbPcc9G0U5IxnBtl7q44rvBIGKHrR4DSqNm3rs6ryeXGo1HUAJoz6rleJTp-dK69z-TtYF6-3AZbZz-9__Gn4sJ3Hc", "name": "T-bana Islandstorget", "lat": 59.34598900000000, "lon": 17.89334700000000, "team_id": 3, "available_slots": 0, "bs": 20, "bc": 157, "rs": 13, "rc": 105, "ys": 26, "yc": 169},{"id": "9a4a4c8eace844f7a00ac284135d6d64.16", "url": "https://lh3.googleusercontent.com/mRWacV5kZLdLzWTd0nuElDDu_OgUysz8-B9w1wha12lTCurUlbsAyw8tAaQBuAh48ZZqMqksEDcyzlYKtjRiRRPB7W8", "name": "Tower in the Garden", "lat": 59.33259100000000, "lon": 17.98414600000000, "team_id": 1, "available_slots": 3, "bs": 37, "bc": 111, "rs": 30, "rc": 98, "ys": 23, "yc": 85},{"id": "9bc5d277bd224e3593545d78c092b47c.16", "url": "https://lh3.googleusercontent.com/WXTyjVZbP5zb1dXJmf3V_MaPa7NdzWtRX1auVlFIeqs5hHnEfCUaxFNhhHSxniA6Ko2J1zx3rn2eEpYSAOqS2OJTPw", "name": "Kossan I Alvik", "lat": 59.33339900000000, "lon": 17.97735200000000, "team_id": 2, "available_slots": 0, "bs": 64, "bc": 74, "rs": 46, "rc": 55, "ys": 35, "yc": 48},{"id": "9c2b00b2f1b7437086d2184284cb1c1f.16", "url": "https://lh3.googleusercontent.com/jM_kvSwp9DBNMe5Ihs75u0i21xNQ_ZUCso2g7-jnaEzqpPhSmg3zl_ojT-MVCpihisPXwXylw7neK6eEZwKMfif0LFE", "name": "Björnparkens Stora Lekplats", "lat": 59.35540200000000, "lon": 17.90653500000000, "team_id": 1, "available_slots": 3, "bs": 41, "bc": 56, "rs": 91, "rc": 58, "ys": 48, "yc": 26},{"id": "a0af602046704642b586e704899396ae.16", "url": "https://lh3.googleusercontent.com/s67Qcp62W0eelcrzs39YfW7z_YNdShkn_e0LRzp4brBQIyD1ASnX05TLOFPfaxcaz6OmleNIZ59M5iTdN1YH-Z8HbQ", "name": "Västerleds Kyrka", "lat": 59.32791000000000, "lon": 17.96705000000000, "team_id": 1, "available_slots": 5, "bs": 38, "bc": 129, "rs": 18, "rc": 93, "ys": 20, "yc": 114},{"id": "a3efb6260feb4ab49b8de8a3ef71d2ed.16", "url": "https://lh3.googleusercontent.com/iohV-Ys_1eTZTHesyRe52YLbT5cfuaieq3g2qmKjARERS0yE4s7Esm1UQTF85NQVkM801LWvxa6_l_-E1L0MYASWfTk", "name": "Grimsta Naturreservat & Blackeberg", "lat": 59.34777400000000, "lon": 17.87313600000000, "team_id": 1, "available_slots": 4, "bs": 24, "bc": 253, "rs": 10, "rc": 72, "ys": 10, "yc": 205},{"id": "a510673d1b4c4518b783a8097880d818.16", "url": "https://lh3.googleusercontent.com/rDMyTnJz6xudOINyAhWxRMaLHVMgNmVVfX4xs7uslAXhIXGrKeKUNeIh7IeIyv_-C7HeR9DmD6UQlOPhcLRkyfpVdDM", "name": "Konsten På Stationen - Stora Mossen", "lat": 59.33446100000000, "lon": 17.96666600000000, "team_id": 1, "available_slots": 0, "bs": 40, "bc": 115, "rs": 35, "rc": 80, "ys": 21, "yc": 75},{"id": "a53a11a1bf8342adaa6615629c135ca8.16", "url": "https://lh3.googleusercontent.com/fRNH-GtRW5_hBE51jtgqxQISclr7UWxSQQ8yi1ckOCI0tDviJqeBZ1Y8Sug7r6retHH7qlMQ0Vcn2_UVqGkAjB1kvbc", "name": "S:ta Birgittas kyrka", "lat": 59.32872000000000, "lon": 17.91589900000000, "team_id": 1, "available_slots": 0, "bs": 60, "bc": 16, "rs": 65, "rc": 12, "ys": 48, "yc": 15},{"id": "a5a0976dbe054b538efe11bd25d60288.16", "url": "https://lh3.googleusercontent.com/70xDm6QeGsv3SJUOxgjw_fXIB8WvmbCYMVwzYdiJcrWmaXXlC1IVF8Qkmxsa-1HLIbwXCxv2Doepou0UwsOYoi1fmR2I", "name": "Betongservett", "lat": 59.34139400000000, "lon": 17.88337200000000, "team_id": 1, "available_slots": 3, "bs": 33, "bc": 154, "rs": 18, "rc": 58, "ys": 21, "yc": 135},{"id": "a5ee025068eb4b129afdaabc598464ed.16", "url": "https://lh3.googleusercontent.com/EY9Yys1MP9G1xKhYGM026TgEQvQt4P5ny7fBRv9FRovZHytcJRaLOJJrZj4neRlPLxKkbJAFb__s9ElKd6FFKvgr4Q", "name": "Alviks Tunnelbana, Norra ingången", "lat": 59.33355800000000, "lon": 17.98018100000000, "team_id": 1, "available_slots": 2, "bs": 16, "bc": 245, "rs": 14, "rc": 221, "ys": 12, "yc": 160},{"id": "a67dafde45d647fe8740609e771a7def.16", "url": "https://lh3.googleusercontent.com/Pq7fek7e18-xieqhG_9_fy6m8sF4QbzW74cmjnBY09m-qSFPpMJhAFQuKkuyAxWPGfrW6PjZrUB2zaJTGlv4XbUyzWjw", "name": "Bromma Tower", "lat": 59.35607100000000, "lon": 17.92255800000000, "team_id": 1, "available_slots": 4, "bs": 21, "bc": 25, "rs": 143, "rc": 52, "ys": 30, "yc": 32},{"id": "a8352ee720e548579d2773097bf6d42e.16", "url": "https://lh3.googleusercontent.com/BFQZ3i5CdGLBzElgrjVFxS9h7uNsQTDxoerBFj932uKqJeWhWt3DXa_iWjTLNlwmRTQV5VaPTuBWRmETkUrJsFR6sSc", "name": "Solvalla Stallbacke", "lat": 59.36855100000000, "lon": 17.93222900000000, "team_id": 2, "available_slots": 3, "bs": 38, "bc": 87, "rs": 32, "rc": 82, "ys": 35, "yc": 89},{"id": "a9bba7c38870406bae67a493a97426ec.16", "url": "https://lh3.googleusercontent.com/k__gQw50aMAOOIUy9nMT4tGXdh5gq2MprZZCNlCxxll4nPP4H-HE54_P9WvackU5jqZ9FchmnRCmVfDgxIAWg_dj58U", "name": "Naturmotiv", "lat": 59.32491700000000, "lon": 17.95724400000000, "team_id": 1, "available_slots": 4, "bs": 20, "bc": 235, "rs": 12, "rc": 86, "ys": 14, "yc": 225},{"id": "a9f79984d701445e907855492c7ef4c2.16", "url": "https://lh3.googleusercontent.com/xl6d0nlD0TZvZjiYrYZt2kvyOGIzGNZjfOjVAQRr8bZ7M7VWXg-7g6JiCSPLMOfH6Sr43QASxQrziGZfAmeesUVnpEI", "name": "Kyrksjölötens Naturreservat", "lat": 59.34494700000000, "lon": 17.92552300000000, "team_id": 1, "available_slots": 5, "bs": 65, "bc": 74, "rs": 36, "rc": 68, "ys": 28, "yc": 59},{"id": "aac2cace24a5451fbf09d7c8c10c07ad.16", "url": "https://lh3.googleusercontent.com/9Ylnj0UPTSlLpog446COSHdthuSFqYSwW-eCCLr9Icld2zL27tHBaZjRyg8slODfWBgbuaippJYzg3gx3jfKSE0YXbu1", "name": "Blackeberg T Station", "lat": 59.34873900000000, "lon": 17.88223900000000, "team_id": 1, "available_slots": 0, "bs": 10, "bc": 167, "rs": 19, "rc": 285, "ys": 9, "yc": 205},{"id": "aadd86de5dc9435eb102cde7236e3ade.16", "url": "https://lh3.googleusercontent.com/q6K_Pv1TlbEQZV1RCN3lLESUuoGatk-gdQvYTEa70MG0j-h-S31DnEc2Er9usG_LP2BGiaETXJRy6tLOnsA4hgt5qUk", "name": "Frimurarebarnhuset", "lat": 59.34250700000000, "lon": 17.87654100000000, "team_id": 1, "available_slots": 3, "bs": 28, "bc": 123, "rs": 28, "rc": 76, "ys": 28, "yc": 118},{"id": "ac8455c279da49899ba5b95ad5b76efc.16", "url": "https://lh3.googleusercontent.com/JO6EYO8IggRLp76-kOiNVW1XtQUreQslbyxUkqzoTH3EI_tluIvrNHhzjRr0XuUqmmB_KhleQmD2yDkfe8LjqopN5QM", "name": "Ängby Idrottsplats", "lat": 59.35103500000000, "lon": 17.91120500000000, "team_id": 2, "available_slots": 5, "bs": 33, "bc": 77, "rs": 48, "rc": 87, "ys": 31, "yc": 71},{"id": "ae98475a7a0a499bacd79b6235dda2cf.16", "url": "https://lh3.googleusercontent.com/aXSiQx8TL-koRv8vjncpDDY0IofM1ZhVHyMfNbqVL_HAMjQmah6yQfrXwZ098IJ0S8FSrOp3jPKofDZ5NZju_QC_tuk", "name": "Judarskogens Salamanderdamm", "lat": 59.33777600000000, "lon": 17.91996900000000, "team_id": 3, "available_slots": 3, "bs": 36, "bc": 88, "rs": 44, "rc": 83, "ys": 30, "yc": 71},{"id": "b3982d95dc044b709519315a526de009.16", "url": "https://lh3.googleusercontent.com/WrkJtAW11fwa3X4vHDunurLisgsm9yGb23Uofl_R33OasebAz6hetNbOO2YR55NLyl2Mlm9yZfNPqKyhgJpWSgKe07SC", "name": "Ålstensgatan Tram Station", "lat": 59.32344000000000, "lon": 17.95698200000000, "team_id": 1, "available_slots": 0, "bs": 20, "bc": 201, "rs": 14, "rc": 132, "ys": 15, "yc": 189},{"id": "b44f1ec287c045659aadae67e01a7005.16", "url": "https://lh3.googleusercontent.com/HYmXYFT-u3heMH-afD97dC6Y9HVbD_yfH8449iB2ZqbaS8yUCqJdPRwruE002MtqIc-UDcC7iAD5gsL3TlKNB7KkppyV", "name": "Beckomberga Fontän", "lat": 59.35771700000000, "lon": 17.90204100000000, "team_id": 2, "available_slots": 4, "bs": 43, "bc": 50, "rs": 45, "rc": 45, "ys": 27, "yc": 32},{"id": "b5fa8bced5624846a29ee417f19f2105.16", "url": "https://lh3.googleusercontent.com/87JfoDhVraXqKayPKX6ELvfzJb0tNWUjnvc1VqWAZv8DGIcv0Iwju7a6cXRXS3RtBGUyqTKaLKuRKl7LX_bXidCqJQ", "name": "Bouncing Rain Deer", "lat": 59.33411500000000, "lon": 17.94067800000000, "team_id": 1, "available_slots": 5, "bs": 30, "bc": 144, "rs": 19, "rc": 95, "ys": 20, "yc": 141},{"id": "b8de7d4e2a45403c8abb40ab681d4494.16", "url": "https://lh3.googleusercontent.com/nu2RJBjA-DtykoJ1W82ZbwvoXbZqEkZEv3e4YlDmtoFMf_leq9mGD6aEwlryTEZPOpyXuSQJMrUnkFJjgxCXrl5DW5w", "name": "Litet Sjölejon", "lat": 59.34308000000000, "lon": 17.87722200000000, "team_id": 1, "available_slots": 0, "bs": 26, "bc": 189, "rs": 15, "rc": 138, "ys": 15, "yc": 115},{"id": "bc4ef6db1a9a4fa587f4afec13bb71eb.16", "url": "https://lh3.googleusercontent.com/SA-OKnwAoHyD1csmIHWY7nn6da-8g5tb01XJ72hKXRNy_TYVu4t1VI0g2x0MIrGtfMmN1IJhbnthk1sZ7j5mpGrOztw", "name": "Beckombergaparken", "lat": 59.35773100000000, "lon": 17.90247400000000, "team_id": 1, "available_slots": 0, "bs": 28, "bc": 165, "rs": 21, "rc": 155, "ys": 14, "yc": 68},{"id": "bd44abc01d6e4965a47ef137fcfd30cf.16", "url": "https://lh3.googleusercontent.com/KuaMpcGEL-1lP0NjYE50JBZCujnSHzOel9nZ64kHGWGez6tD0ZP8iYMgH5GA1FhkhHZ7JEywzkjGw56CVDzbchUXmiQ", "name": "Grimsta Naturreservat", "lat": 59.33924800000000, "lon": 17.88589300000000, "team_id": 1, "available_slots": 4, "bs": 68, "bc": 47, "rs": 71, "rc": 42, "ys": 64, "yc": 41},{"id": "c488c44bb90e44f984070c6d1e73a226.16", "url": "https://lh3.googleusercontent.com/it2svxXMv1gvA5qj2WxY1qN8MpUN49CvBnUSUaJBcmDwZX_oAwvG7l5hFvUBM-REi1IoMM7haV6rsEDPCvwPlJ8sCA", "name": "Björklidens Golfklubb", "lat": 59.34873000000000, "lon": 17.94120100000000, "team_id": 2, "available_slots": 2, "bs": 96, "bc": 44, "rs": 70, "rc": 40, "ys": 56, "yc": 29},{"id": "c4e83a4c01e844ac8827cb8efb5b9509.16", "url": "https://lh3.googleusercontent.com/mo87VPczPAkEmv3NmbvwyZAjwbFlgNJISfk0GbWhfmFdf1PniWsRH655P1OTBWJKoVxGZmEgx8N48lNLA8INjTmS8hEi", "name": "Jordens Frukter", "lat": 59.35736100000000, "lon": 17.89112600000000, "team_id": 3, "available_slots": 4, "bs": 33, "bc": 126, "rs": 22, "rc": 77, "ys": 27, "yc": 116},{"id": "c8a355facbce449089d8c6a49cee6c19.16", "url": "https://lh3.googleusercontent.com/wAF2a9GhoYRhv__1wMHhnTqXZhR9YqOG3vUl8l9reGNOyOoJgwGzU9c1i4dYM99xqwX8GkG0B_TlvTr42F7nBwlJv3Q", "name": "Tranor", "lat": 59.32916500000000, "lon": 17.98371000000000, "team_id": 3, "available_slots": 2, "bs": 31, "bc": 108, "rs": 17, "rc": 80, "ys": 24, "yc": 114},{"id": "caea14eef0e3404cbf6ccf2158b07111.16", "url": "https://lh3.googleusercontent.com/rQybqrnyyF5VjqiTqvKORpgxOVmre7BFy388faEUS4KDrGmqW4-UQXAN2ahPVw5YJhm22M9VJaD_s4jQviwoiiQ3aF9Zx8roRhbpYo5LBw", "name": "Kvarnvikens Kvarn", "lat": 59.34855900000000, "lon": 17.86915800000000, "team_id": 2, "available_slots": 4, "bs": 27, "bc": 86, "rs": 33, "rc": 114, "ys": 27, "yc": 109},{"id": "cbbad4ef75614b999204e71dc0a298dc.16", "url": "https://lh3.googleusercontent.com/oX-5ro5vd00_qRHCUiVcNBoZiI3pMM-BMd34pK7P0pBLmImw2rUtLD1jpPJ0tgx5BtqaR0jcHAaIjhXTFhDbGk9QKd3C", "name": "Abrahamsberg T-Station", "lat": 59.33640100000000, "lon": 17.95267300000000, "team_id": 3, "available_slots": 1, "bs": 10, "bc": 123, "rs": 10, "rc": 117, "ys": 36, "yc": 183},{"id": "cf13fd868cf140b0ad4f5914af30321f.16", "url": "https://lh3.googleusercontent.com/0ptMZa9ZUz0jG3jR0yMlrMevpH_9D5SQlGVcOxS_Ya4s55py-V2VBqzvUqbu0z9kbrC-3mp8n1o5pxuJhuTqLpd5O5k", "name": "Lilla Ängby Gård", "lat": 59.34542600000000, "lon": 17.89177300000000, "team_id": 3, "available_slots": 0, "bs": 24, "bc": 168, "rs": 12, "rc": 106, "ys": 25, "yc": 148},{"id": "cf22b67a4d184f02aa7e4e43fb5dabb0.16", "url": "https://lh3.googleusercontent.com/u7vZooClIl0v6PsF2t2YmANuGfCBC9dnywUhHKO871dybQX55L354XYIPSTBD3jlOsHWRNdkjneop_sd_VQRux288Lq0", "name": "Old Dairy Villa", "lat": 59.34162900000000, "lon": 17.96442500000000, "team_id": 2, "available_slots": 4, "bs": 36, "bc": 128, "rs": 25, "rc": 125, "ys": 22, "yc": 54},{"id": "d241eb22475248718156f665d11848c2.16", "url": "https://lh3.googleusercontent.com/VlEAE7iahhWrf3GNyI0-izntGt3ylF2jGTxzR0OWHQBbCcmq78wnlM9u9_5V01CN8ixwDlVIpv7tnecyozENAI7ugw", "name": "Klocktorn", "lat": 59.33977700000000, "lon": 17.94068700000000, "team_id": 2, "available_slots": 2, "bs": 24, "bc": 120, "rs": 34, "rc": 141, "ys": 19, "yc": 68},{"id": "d945267f749d4f59bd6608ca6c984a84.16", "url": "https://lh3.googleusercontent.com/0dojPpNh5d6n6LU7RKEeaZi51TY9zQfUEEUq4PmXmMVvXzttjnf_yw8ASoWfea5CXYQV9hjCHwEE3ZLvI6vi7JjBLw", "name": "Kullagulla Stubbarna", "lat": 59.36549100000000, "lon": 17.94612500000000, "team_id": 3, "available_slots": 5, "bs": 7, "bc": 195, "rs": 19, "rc": 301, "ys": 10, "yc": 175},{"id": "db53359fe3004c858633c0e4ebe37800.16", "url": "https://lh3.googleusercontent.com/YDxURRQ7fkYX3EDn4Jp5ylXxuO7i_TtdaDHeECxBIsDNBe4Jhms5pAW43WNTef6LCSqzZHPedVn7_ul6PPE-WfedeRE0", "name": "Johannesfred Station", "lat": 59.34294600000000, "lon": 17.96951200000000, "team_id": 2, "available_slots": 0, "bs": 24, "bc": 132, "rs": 33, "rc": 140, "ys": 15, "yc": 67},{"id": "dd9e0f4977843dc2a61dbbae08842911.16", "url": "https://lh3.googleusercontent.com/u-k5M-e2JWSVxrjCExMA4IUNhMgsKYhEs3YVEnnvSxACNvHvNUPZJFiduig--kH3n1NO4CN0IStgSGLReosOW3qrBJs9oPnoy0086zc", "name": "Einar Forseths Park", "lat": 59.32340100000000, "lon": 17.94214200000000, "team_id": 3, "available_slots": 5, "bs": 25, "bc": 26, "rs": 36, "rc": 17, "ys": 40, "yc": 31},{"id": "de05bfb867724aaaa79de499438d0533.11", "url": "https://lh3.googleusercontent.com/gxQOBDakE6syOUZqYoapNmgL5IbrcGJuJaSBdc-HIoqfAfawXK3UzdMKBKF4ccdkWxbn1Bn1iizXAvLt1mVcIgyFCsw", "name": "Kvarnen i Ulvsunda", "lat": 59.34433600000000, "lon": 17.95855600000000, "team_id": 3, "available_slots": 0, "bs": 60, "bc": 60, "rs": 59, "rc": 63, "ys": 47, "yc": 34},{"id": "e1b3af95026943778dd2574fdcf80f46.16", "url": "https://lh3.googleusercontent.com/rCfYi5wufrSHDm81qzGadIFVH3Zg9o5P4U1ZAFqB5ZQv2-vIPvDmNWZWa5v3ndsgpmcU_upB7R1NFRi0VYSJYD7Mko8", "name": "Malteserkorset På Ålstenen", "lat": 59.31846000000000, "lon": 17.94551400000000, "team_id": 3, "available_slots": 4, "bs": 42, "bc": 122, "rs": 25, "rc": 105, "ys": 21, "yc": 55},{"id": "e46aa3e11c394acf81f852ded43b5dd1.11", "url": "https://lh3.googleusercontent.com/D5ac7cO9QRXlDZ1RY2OUDaekztUJm8-HwUV3sUt7U6s1t4Hi58_yNZuExQwd_XG6U5PdP5k72TZhEx844lbWxWsWG1o", "name": "Solvalla Radartorn", "lat": 59.36351100000000, "lon": 17.93756400000000, "team_id": 3, "available_slots": 3, "bs": 657, "bc": 10, "rs": 138, "rc": 4, "ys": 185, "yc": 8},{"id": "e50bcd719b7346379973fa8754580891.16", "url": "https://lh3.googleusercontent.com/nD7uOk4HdG9X0nYYlcYoOqC5mzegptBtazQvwWz-gqjQo4RIruHx91txYFKMx8leL-qfEux5pvFLoP5cdsVFr0JHwg", "name": "Gammal o Tjälve", "lat": 59.34636000000000, "lon": 17.95202200000000, "team_id": 1, "available_slots": 1, "bs": 141, "bc": 39, "rs": 63, "rc": 33, "ys": 55, "yc": 23},{"id": "e7151920c5134d88a1c0f98bc729455f.16", "url": "https://lh3.googleusercontent.com/iMM8qi6ZeNkPOPUip3_RyC0eeiLsn-Js0H7_JR_Ps7hKJH3zLxmUZhaACX_m-VaNdlX61rTJXfZ50dC8-RIGXbCwVws", "name": "Kvinnoporträtt", "lat": 59.32975800000000, "lon": 17.94005800000000, "team_id": 2, "available_slots": 3, "bs": 41, "bc": 114, "rs": 23, "rc": 82, "ys": 25, "yc": 96},{"id": "e7ca9f6571ae46d5aad87c55eb9539f2.16", "url": "https://lh3.googleusercontent.com/zqC-TD6zV14mwmXUinxu1PPbIHeM7YxKyRTka_cDWceRLhX2ZctK_GIoDSt0dWkhOllUO9HheMi5ZK8zvddPDGrHRg", "name": "Ekvilibrium", "lat": 59.33301600000000, "lon": 17.97872900000000, "team_id": 2, "available_slots": 4, "bs": 29, "bc": 131, "rs": 32, "rc": 126, "ys": 18, "yc": 63},{"id": "ebf9f317c718406bb491299f378cbff7.16", "url": "https://lh3.googleusercontent.com/fkkEid--bsW-DHKG8w0tVDXzE4tDyDlZ-bXQTdERBPJt13tegmJ4QFuqREj9akqip7RpAcpLtMHFbA2rn6wEpNN_mQ", "name": "Blackeberg", "lat": 59.33990800000000, "lon": 17.87701800000000, "team_id": 1, "available_slots": 1, "bs": 45, "bc": 77, "rs": 31, "rc": 56, "ys": 48, "yc": 78},{"id": "eef50d22c08b4c268214cababf1fa381.16", "url": "https://lh3.googleusercontent.com/5wGp4ISY1EzEVTeDo0j5zm4UP3m4VooSV6F1TUzdkTM_N-QGHb-fEibwX2eH1S2cEG-oP-JF91xm86ea21X0O7VrYhs", "name": "Olovslundsparken", "lat": 59.32942700000000, "lon": 17.94091100000000, "team_id": 2, "available_slots": 5, "bs": 34, "bc": 111, "rs": 32, "rc": 78, "ys": 26, "yc": 105},{"id": "f31db41badf0427f9987985600cb75e0.16", "url": "https://lh3.googleusercontent.com/r-U4Pce4lc3q3HfdvxJTgpesSKZYyV7ebei7iE8sXJ4ap1sC4DP5knMS-ef1ndFFd0tYZS0bgHtAIKwnwkCyLpDoU3Y", "name": "Barbapapporna", "lat": 59.34023300000000, "lon": 17.94715600000000, "team_id": 3, "available_slots": 5, "bs": 54, "bc": 136, "rs": 10, "rc": 93, "ys": 11, "yc": 60},{"id": "f3ecc1aaec7d402387923e2321424614.16", "url": "https://lh3.googleusercontent.com/FGlVZW6KMKqS5l6xgOSbdxoXKeF_4aGmqYzqtLPiW43Ip0CFFz7k_jPs3n2NwsAvGM8SoJChqMuXeMf6D6iQJRbHavFq", "name": "Skulptur I Minneberg", "lat": 59.33963600000000, "lon": 17.99081600000000, "team_id": 1, "available_slots": 1, "bs": 16, "bc": 269, "rs": 8, "rc": 120, "ys": 15, "yc": 251},{"id": "f655fc1c4d1e459db066f8408b4cfe80.16", "url": "https://lh3.googleusercontent.com/S9DntPuNirvul0DYiezcztSD6d6qiXu06K2wezlBCFqkVZqrwte-HfoI8tJxNiJt35vUra0U9sO_4i2gvbEOTcUttg", "name": "Rödluvanmosaik", "lat": 59.36222000000000, "lon": 17.95004500000000, "team_id": 1, "available_slots": 0, "bs": 12, "bc": 316, "rs": 9, "rc": 277, "ys": 11, "yc": 254},{"id": "f70d40cc7d8b491eae486f994734ab4e.16", "url": null, "name": null, "lat": 59.35066700000000, "lon": 17.94057800000000, "team_id": 2, "available_slots": 3, "bs": 0, "bc": 0, "rs": 0, "rc": 0, "ys": 0, "yc": 0},{"id": "f9e36dfa31a040029ab2915f696bf3b2.16", "url": "https://lh3.googleusercontent.com/nZMxM_i7ArmhmIzUt3bU7L_PYi6YswDR7XTkb35hhvW0rm1AUb_C3DqFZ4XlnNJINpdbB2jJ4Gm_O7X0he77Sl17fhhi", "name": "Lilla Björn", "lat": 59.35571100000000, "lon": 17.90702800000000, "team_id": 3, "available_slots": 5, "bs": 39, "bc": 59, "rs": 91, "rc": 66, "ys": 27, "yc": 25},{"id": "fb580da03d3a3d19be0f2517aa963b21.16", "url": "https://lh3.googleusercontent.com/qPb6UqMpzA3xMhp2Fh6uy5EmbW3XDg1oCzQ_KU3JWeEWgjQRHF_TH5C42OOm4bCZtHV8PHImiXZqq-QDWumnk3QProGl5OA2d63Lz-Wq", "name": "Udds sten", "lat": 59.35041500000000, "lon": 17.90093100000000, "team_id": 1, "available_slots": 4, "bs": 25, "bc": 43, "rs": 39, "rc": 99, "ys": 37, "yc": 108},{"id": "fbc7d1f91b7244c8aee0a9e921c91819.16", "url": "https://lh3.googleusercontent.com/4reAOMM8mjfb_L-t6hFFd3n0v6vAXqsD4_OfQgj24gRYXmdegYij5rYWacr2SKL8y2mBK061JU4JJWI85A59asN9z54", "name": "Runstenen i Eneby", "lat": 59.35928000000000, "lon": 17.91240800000000, "team_id": 2, "available_slots": 5, "bs": 65, "bc": 84, "rs": 31, "rc": 54, "ys": 44, "yc": 42},{"id": "fd9bd14cf21d48d6a79ff23821164986.16", "url": "https://lh3.googleusercontent.com/iEZ8332HtGiaKErYPvFwmF3UA0Hzeom3aBQY4zicpbiWhTFX4jY_J2iuU8vx4kLGStJsrlu2bkKn_qdHB5VDkUDIMlM", "name": "Västra gravfältet vid Björklunds hage", "lat": 59.35179600000000, "lon": 17.89448100000000, "team_id": 2, "available_slots": 4, "bs": 55, "bc": 59, "rs": 53, "rc": 60, "ys": 45, "yc": 56},{"id": "fe64dfc0492f4dc58da2bc53ea7af12b.16", "url": "https://lh3.googleusercontent.com/UpQg5HNVPsCFM-epL2VGaO8EDhlWej2RJJ2rRQBS4C-a1heK_Mp8I-BkahFgr1nM4oIrwiWlATfwmac5QOTxT0EwGw", "name": "Stekelhotell", "lat": 59.34860900000000, "lon": 17.93218800000000, "team_id": 1, "available_slots": 4, "bs": 230, "bc": 25, "rs": 107, "rc": 21, "ys": 97, "yc": 8}]
