[{"id": "023fd30c56784588ba1155fea5f9a66c.16", "url": "https://lh3.googleusercontent.com/A57TSRxQd39Rcru-KlK-YHX-mkA42ozbcQQleY3A4ktGeEeDzHu8W1u-QfL3OWFfDhtfSwHrim3XKcAc5MtL1k-zRA", "name": "Happy Thailand Mural", "lat": 59.28352300000000, "lon": 18.07294100000000, "team_id": 1, "available_slots": 0, "bs": 26, "bc": 169, "rs": 19, "rc": 87, "ys": 21, "yc": 165},{"id": "03d3825fa31e4d62a495d3849a1d2951.11", "url": "https://lh3.googleusercontent.com/7arBsoCKhUj0JTQtQZJe7_U7Fx-7ndkzpPvXPuX1E1S5C5olwOXLhEGaJMCXne2G3zTENoN4Pxc9y8meI4G959eczU3R", "name": "Chihuahua Statues", "lat": 59.29008400000000, "lon": 18.09365800000000, "team_id": 2, "available_slots": 0, "bs": 16, "bc": 367, "rs": 8, "rc": 285, "ys": 4, "yc": 290},{"id": "03f61dfbf5e14509bca95457d6d3f99c.16", "url": "https://lh3.googleusercontent.com/dVAYRNuWgQJD6VeEYLGjqZI55U74-blrx1fAAUDVNuGObwwRV-9iqSQU9q9WFAuz_4d2nOvZ7IfWeccSgyjpMNmIQu0", "name": "Fågelkonst", "lat": 59.28694000000000, "lon": 18.03516700000000, "team_id": 3, "available_slots": 1, "bs": 30, "bc": 92, "rs": 45, "rc": 93, "ys": 29, "yc": 88},{"id": "068513ff02543acb8d038ca986eeaac8.16", "url": "https://lh3.googleusercontent.com/11HVVfpphfUb9pHEhMO0gJvIfsn9xPPXmtvNVTBdisj8ec5d4nziZs0FUmnf2rg_xqCBU2C-kQTw_J-qucxxeOAwIs-pUElaNfxRz5BPoA", "name": "Dellens kvarterspark", "lat": 59.30030200000000, "lon": 18.04433800000000, "team_id": 2, "available_slots": 3, "bs": 15, "bc": 95, "rs": 47, "rc": 149, "ys": 14, "yc": 91},{"id": "07bc172c8ca04496aaad629d6b429963.16", "url": "https://lh3.googleusercontent.com/TS_EPheUYi4qenMi0MpQg_us6xlpO01xY3u1Z_cQWz5-dJ_MOUrkx1r8JLmkzyf4nnj_ibiwY6LWxHXgskXMue5JM7w", "name": "Enskede Gårds Koloniträdgårdar", "lat": 59.28959200000000, "lon": 18.06462900000000, "team_id": 2, "available_slots": 5, "bs": 18, "bc": 86, "rs": 56, "rc": 130, "ys": 12, "yc": 68},{"id": "0bbf7e9dd4cf4938818423fe03debc88.11", "url": "https://lh3.googleusercontent.com/LNfqMkqWcP9f_xEtQYU6cLgl3efa029DtGFWzPh5DYHnKARxO2KauczmWWFXDm3yNqi2tf0TlfAblv0SPLAaMpl4Zw", "name": "Obelisk Margaretaparken", "lat": 59.28239200000000, "lon": 18.08319000000000, "team_id": 3, "available_slots": 3, "bs": 50, "bc": 111, "rs": 15, "rc": 82, "ys": 30, "yc": 93},{"id": "0c2155e07e8a4b278c349e711ca4bbfa.16", "url": "https://lh3.googleusercontent.com/9uTmlQZl1Q16cJ5MBxqxdbeJZzxqGu4G9ba82xwG9KrozrU3rsquPvDIk40RhB2ogss2-TqD9Sk0L-EuwlRGkyvvJVs", "name": "Lekplats Margaretaparken", "lat": 59.28217100000000, "lon": 18.08408500000000, "team_id": 1, "available_slots": 0, "bs": 38, "bc": 122, "rs": 15, "rc": 91, "ys": 27, "yc": 127},{"id": "0e64ada8987e4feb83460a0a8a093f60.16", "url": "https://lh3.googleusercontent.com/1hyn8vkGWs_WANka0G3XkX4H7F7RwJRRku-XxrY2qM--vZJQBHtGXapcXwk40Naok_LNMx5B23dfe1oLBu9JIdJ67A", "name": "Högdalens bollplan", "lat": 59.26597700000000, "lon": 18.04038000000000, "team_id": 1, "available_slots": 3, "bs": 11, "bc": 138, "rs": 37, "rc": 191, "ys": 13, "yc": 73},{"id": "119e75e7b6224788806af37add216317.16", "url": "https://lh3.googleusercontent.com/mclB9tFGwAFqI7Ay-s2IktMfzlwCmPIo12dfEMJv_AF5RIGn0ndBc82ffU_4cIPpIWupAS1SLSz5ibG_stOlS0tCcHb_", "name": "Globen T-banestation", "lat": 59.29449900000000, "lon": 18.07827400000000, "team_id": 2, "available_slots": 0, "bs": 14, "bc": 228, "rs": 13, "rc": 169, "ys": 17, "yc": 248},{"id": "12425cc63615420aab7e73a002528be6.16", "url": "https://lh3.googleusercontent.com/RDFiDcSuBRxqhvOAbeUpivQPVGHR7Zoj2a-eIuduVboVQr8rJwNtx4t3hQa0C43lzT0Y-o64CRr-fHUYLr2NW-cuflg", "name": "Utescenen", "lat": 59.25536100000000, "lon": 18.03931700000000, "team_id": 1, "available_slots": 2, "bs": 95, "bc": 33, "rs": 122, "rc": 35, "ys": 70, "yc": 29},{"id": "15efceccdcb24a0da3af991390086be1.16", "url": "https://lh3.googleusercontent.com/KgB4i0U7y1Wgz8NsZgUoxP1S3FPK0ITrOvDtSSMk8vh9Ey4oXNl0mPhB6vuIIZhGqzFlzkZCukh5hrAxSbot2-cqUqE", "name": "Trumpeteer", "lat": 59.25527700000000, "lon": 18.02062700000000, "team_id": 2, "available_slots": 0, "bs": 34, "bc": 87, "rs": 51, "rc": 105, "ys": 28, "yc": 42},{"id": "1a42453cd6b543e0824d4133819a5b5b.16", "url": "https://lh3.googleusercontent.com/a_RZphbE_47HTmApue-mgana4Z2KJAw8pbnYFUku29YCsHUJEI8ELnFSuXRHd03koc4JixYEeo_sjHvI5mx3n0j9n9s", "name": "Sånglektion", "lat": 59.26437300000000, "lon": 18.05300900000000, "team_id": 3, "available_slots": 1, "bs": 39, "bc": 166, "rs": 12, "rc": 41, "ys": 19, "yc": 139},{"id": "1c62cd54190346dc84c534dc63ab1948.16", "url": "https://lh3.googleusercontent.com/rhFueCo-4auTpDZqCiH_9IB3j1CDU_wqpxBLFwgHG1xUtpb64zIW3S4l08Gk44Zdiz22_D0D6qXBxwM7eyAhkU96Pxk", "name": "Flicka Med Boll", "lat": 59.26224800000000, "lon": 18.01463900000000, "team_id": 2, "available_slots": 0, "bs": 16, "bc": 187, "rs": 22, "rc": 229, "ys": 14, "yc": 112},{"id": "1ccfe2cfe7d24de1a5141e6456d513f6.16", "url": "https://lh3.googleusercontent.com/WlQdSz_KekD9Bsxcpl8NhbWppSVlx8Om9LKdq8F371oMF-iJyROf_mb-gvwF7Y1kNU14XYu3RXpyjPk4FpDCx1fM5gNg", "name": "Stureby bollplan", "lat": 59.28003100000000, "lon": 18.04949500000000, "team_id": 2, "available_slots": 3, "bs": 45, "bc": 168, "rs": 11, "rc": 138, "ys": 8, "yc": 63},{"id": "1f18d6a965204187993b91680391a940.16", "url": "https://lh3.googleusercontent.com/iTLHU8_P5BrnEJNLgnTJ5-_tOI5k14TDX6o_EkGLs0zWu8GVTV7U75iUZMy5lXA2kjm0Ojc-sfdhtbLqJR8u5kYOP0c", "name": "Spelplan i Lindeparken", "lat": 59.29334100000000, "lon": 18.07106600000000, "team_id": 1, "available_slots": 0, "bs": 38, "bc": 85, "rs": 34, "rc": 79, "ys": 38, "yc": 96},{"id": "1f2e0b4b70d64c24b7f8550c07fae41c.16", "url": "https://lh3.googleusercontent.com/LbHackOSvMcq4yaHIpdHbBVxWVhMhhppRRp-4dAZrb9hJEXHPRWP6uguMJzUHDl1xt6PB0jGHTnS6YZuGgJ6RKSLvA", "name": "Harpsundsvägen 51-53", "lat": 59.26273100000000, "lon": 18.04538700000000, "team_id": 2, "available_slots": 4, "bs": 13, "bc": 157, "rs": 21, "rc": 214, "ys": 16, "yc": 189},{"id": "201fa7a6d635477680a31e6f8b3e2b18.16", "url": "https://lh3.googleusercontent.com/CzaUCL65pHr7CI3wkzi8JDFfpjM35PHBRnsREm-rG60r5fOhVplzTulgo2YCeiYOLRpgQ9ZKLwYSRw7ybZN1QK5NMn8", "name": "Hagsätrahallen", "lat": 59.26274800000000, "lon": 18.01934200000000, "team_id": 3, "available_slots": 3, "bs": 53, "bc": 66, "rs": 40, "rc": 77, "ys": 53, "yc": 56},{"id": "20c47396fad3459fbf2888f52a675ccc.16", "url": "https://lh3.googleusercontent.com/hIwvfYK2YAuPssoVagMoLOU4LcakDOzHNFIZ3k4tHCHY0TXbT7S7u0va_Iz9qoKgZjr20sf4F32OURPdwgtyJvj7aeh2vmeblIq7VsDnLg", "name": "Tigers", "lat": 59.28374900000000, "lon": 18.04247000000000, "team_id": 2, "available_slots": 0, "bs": 8, "bc": 182, "rs": 29, "rc": 252, "ys": 6, "yc": 146},{"id": "20f9f698ce0e4d05b37c5a65789b8d89.16", "url": "https://lh3.googleusercontent.com/fIL-28hdyoX-gZ_MEaXOj53cgcpdZ5YhqVTj8rQ4YXLXyEVs6trvfK3olZ_ED9_6E44KAVVlS9flMXas5IoiGgjJ3CM", "name": "Subway Tile Art", "lat": 59.27747300000000, "lon": 18.06692400000000, "team_id": 2, "available_slots": 0, "bs": 37, "bc": 159, "rs": 18, "rc": 99, "ys": 17, "yc": 112},{"id": "21d8d3b6ed983655817e3e05888fed06.16", "url": "https://lh3.googleusercontent.com/SdvgOSMvRHjDwWtm8XlB_EgBEyOCa14VSbBljD1azoapvDODRMa1Qov1Vi-DFc1ATpOe3U7aL-HYsPf2gnIxqg22ObNftmR2o8rdoQg", "name": "Anslagstavlan på Hjälmarsvägen", "lat": 59.29884000000000, "lon": 18.05509500000000, "team_id": 3, "available_slots": 0, "bs": 35, "bc": 126, "rs": 26, "rc": 114, "ys": 24, "yc": 97},{"id": "24178e1bdcb7336da08baa76cf7de16a.16", "url": "https://lh3.googleusercontent.com/Lex0eI6nOMS48SGp2DtNGPHgpBUMSuA6TP9GQJFwbkfJHnlI-6BJSGf08QCvGPXwO_JEIC0w350DCUjuENbmH3uxwHo", "name": "Årsta Golf", "lat": 59.28885500000000, "lon": 18.04032000000000, "team_id": 2, "available_slots": 4, "bs": 55, "bc": 50, "rs": 78, "rc": 61, "ys": 44, "yc": 47},{"id": "270dfede7918466b8daa818c58f3b57a.16", "url": "https://lh3.googleusercontent.com/f4NiM6IwUrbQcl8tLPrZXdFU_L9UZOQlmn_HkcIMRIW_ehSwcu8srsuL_GagRjvVjAd5JNkBqSEXhn1ZyOd0IF5rg74", "name": "Geometriskt mönster", "lat": 59.28949700000000, "lon": 18.03522100000000, "team_id": 3, "available_slots": 5, "bs": 36, "bc": 206, "rs": 11, "rc": 90, "ys": 9, "yc": 140},{"id": "273ce299382e4a85befa3abfb6312e8d.16", "url": "http://lh3.googleusercontent.com/-kzGWJtvw9WoJxwA_5H54KttrhR8JyD_YDm9Anc8ejotWEmlLfn3vJNtEPreU_B9hb_7B3cWXiKwfeaJ1bHCJcXeoS8", "name": "Husets Historia (Pärongården)", "lat": 59.25305400000000, "lon": 18.03683900000000, "team_id": 1, "available_slots": 2, "bs": 22, "bc": 101, "rs": 20, "rc": 124, "ys": 35, "yc": 135},{"id": "27f442d8675f4694903a41ae620b9a19.16", "url": "https://lh3.googleusercontent.com/Dmai6H0gPZlpIU3GLVqQlJDFYzAXvDBcNIpysS5ZBXve5eO2348USvZx6zuy4yFfeIQEWylUO-j4Y6uQ9gZ23bBn8JU", "name": "Fiskansikte", "lat": 59.29483600000000, "lon": 18.05615800000000, "team_id": 3, "available_slots": 4, "bs": 33, "bc": 124, "rs": 30, "rc": 114, "ys": 21, "yc": 95},{"id": "281221abb41447e38d9fe627177bec6d.16", "url": "https://lh3.googleusercontent.com/9XdnHEJlxtNmIHVAMSnmGZIayGfJi4m5HRUd6alzmlMPxDnmdSENBvn7vox9scZXARROuWHRxnZ_EeuKpjcLl9IiaAE", "name": "The Happy Frog", "lat": 59.27026400000000, "lon": 18.05044800000000, "team_id": 1, "available_slots": 0, "bs": 12, "bc": 424, "rs": 9, "rc": 355, "ys": 6, "yc": 202},{"id": "2871c95e6b55455d980a0b820178aeaf.16", "url": "https://lh3.googleusercontent.com/celVs3H-8RDaKJR7-TdXk68Uq_E3kth7qoOv5PQwLKeh52NyBC7XO2h-51yDh7NutJbTDhx-8msRhZB6p0sQhtM9Bg", "name": "Skålgropsstenen i Årsta partihallar", "lat": 59.29217800000000, "lon": 18.03091600000000, "team_id": 1, "available_slots": 2, "bs": 34, "bc": 83, "rs": 39, "rc": 99, "ys": 29, "yc": 101},{"id": "2936d075389340a0bca63f4352327a8a.16", "url": "https://lh3.googleusercontent.com/1poUGSytcIuzXu-cCwoH6ejLHpznLowu7JehWkGUbFBKbWVw9r0v153Usjvu6NsJS3MJCf8mciy9gOuZcLF3J3D-jA", "name": "Kuben", "lat": 59.29356100000000, "lon": 18.04984100000000, "team_id": 2, "available_slots": 4, "bs": 13, "bc": 269, "rs": 12, "rc": 191, "ys": 13, "yc": 281},{"id": "2983b372cd7d46928e6e58aada5d4b8c.16", "url": "https://lh3.googleusercontent.com/W2Poom3MHlkr9Ng0mE72Pu2osYzg5InyonJOIC5PRXp8Oo9eqNugXQ5XCHTre02tI-BZ8KmhTy7CRrCzEKAl-7-H3ls", "name": "Hantverkshuset", "lat": 59.27077800000000, "lon": 18.04539000000000, "team_id": 2, "available_slots": 0, "bs": 16, "bc": 106, "rs": 26, "rc": 117, "ys": 31, "yc": 142},{"id": "29c66b578c274875b61525c56272b42b.16", "url": "https://lh3.googleusercontent.com/26NsEYi-bpJO2g7WymQbB-QXVKp6RQ1vSL_JkZYRJ8X7-Msj3BWuiFwEbTJ-6awYjhC58nIXmKNOYo-UJ5JqRLpzP00", "name": "Tiny House", "lat": 59.28785700000000, "lon": 18.09895900000000, "team_id": 2, "available_slots": 5, "bs": 20, "bc": 144, "rs": 27, "rc": 181, "ys": 19, "yc": 97},{"id": "2a1e5ab2381a451c9075bea1b112d571.16", "url": "https://lh3.googleusercontent.com/YQ_C0rcEsd5HJJA3XCUZtrZny1yNDZ2wAst1i_C0ErCLx2GtCbbM4qQbkk57ren0EUQS8T6TrB-FuZf2ASPvSuRG_Qo", "name": "Stora Katten Tinker Bell", "lat": 59.26904800000000, "lon": 18.05113600000000, "team_id": 3, "available_slots": 0, "bs": 13, "bc": 218, "rs": 24, "rc": 257, "ys": 7, "yc": 99},{"id": "2f1690e93d704149b8be63b0da6182d3.16", "url": "https://lh3.googleusercontent.com/8XWZl085Wx7Ts2Y4zGjmDbgqYxmoam8K65Tr8jXH0ySscZ5uiY5bwKPEpjh95c0LA0QMRIkvm9yh9jyL2uKSiwXNgr8a", "name": "Lion By The Bridge", "lat": 59.26692800000000, "lon": 18.05871800000000, "team_id": 1, "available_slots": 0, "bs": 43, "bc": 158, "rs": 12, "rc": 109, "ys": 20, "yc": 60},{"id": "2f85ad3b2c0b4fbcb5671bf4452ca3f7.16", "url": "https://lh3.googleusercontent.com/TXoS4BvBebH7jE665ZBc2uo1P6UYJfWXy8jSU_4mlOH2Lv9Fx1Fe8q7UXHDGLgbH035LhNkAeBM5uHU9E0c8PK5oWm4", "name": "Kolerakyrkogården", "lat": 59.29917000000000, "lon": 18.08307600000000, "team_id": 1, "available_slots": 0, "bs": 42, "bc": 97, "rs": 35, "rc": 71, "ys": 34, "yc": 88},{"id": "2fc6d57b1eb84183818ce0f85847dde6.16", "url": "https://lh3.googleusercontent.com/i-ap0DuAS0esCo7DLcZVXHe9u6pDdIOid0KlN13adrXVc89nliiRvORsb4PElYwltMgWmXId24bokKm9lopYvJ1HBcfU", "name": "Ormen", "lat": 59.29402600000000, "lon": 18.04537400000000, "team_id": 1, "available_slots": 4, "bs": 8, "bc": 152, "rs": 18, "rc": 261, "ys": 17, "yc": 207},{"id": "30b38757fcb54d7ca81db12d4cefa9c2.16", "url": "https://lh3.googleusercontent.com/wBdK8xKZW4Z3bmmPuNtZcv5SAXlv5RMwOOobGkLPTdkjpXVkBLBxOzMBlY65d19BxHwNK4j_UQjE6kHwIqwWb1Y0zbU", "name": "Konst 4", "lat": 59.29088600000000, "lon": 18.08847500000000, "team_id": 2, "available_slots": 4, "bs": 16, "bc": 187, "rs": 16, "rc": 204, "ys": 19, "yc": 165},{"id": "317951467ce44c1b93635fb4d893f19f.16", "url": "https://lh3.googleusercontent.com/yYPshT08UsXEIv_e5d-0a9UKZbMqFj6RZyrOpNt7Rsg1201D6ivMhtUeZdBQbV90Jite0RVqvY93-jug8eJmaVcqt0M", "name": "Kulturlandskapet I Kräppladalen", "lat": 59.24710500000000, "lon": 18.04385400000000, "team_id": 2, "available_slots": 5, "bs": 40, "bc": 46, "rs": 136, "rc": 53, "ys": 51, "yc": 10},{"id": "353b74b75e8e4bf08e2719bf3b784872.16", "url": "https://lh3.googleusercontent.com/YctjzVLsJ6ke5ybwfWaDLLbdn4MxpTbLRNnxj52I8UqLgq6QA7E2F5hWsBFZYFKDK2F24ONNc2SNr6WpXnizxxVywuQ", "name": "Almhöjden", "lat": 59.27646100000000, "lon": 18.09798800000000, "team_id": 2, "available_slots": 5, "bs": 60, "bc": 90, "rs": 35, "rc": 71, "ys": 33, "yc": 52},{"id": "365468b129ed4f6b887b9b44ec4a53bc.16", "url": "https://lh3.googleusercontent.com/RrMnT9UFyFLVIsEfkHm4hQqcwf97Wu9RO7CvPshO_CD1gjJOgd_OOBwFyotDULfEQlfz6uts0CE66FZlZ5B8DciYJnU", "name": "Lekplats Götaforsvägen 47", "lat": 59.26958900000000, "lon": 18.05864000000000, "team_id": 1, "available_slots": 0, "bs": 45, "bc": 97, "rs": 28, "rc": 76, "ys": 36, "yc": 82},{"id": "375fe272cc02447e86b613dbed0bb375.16", "url": "https://lh3.googleusercontent.com/Yu-AAAi8gHHIk6lyZ3zgfUfeWgwW_-RacdTalPnBoheIDZ1-m6PQSeA9-o4e8GJC57XJXnJxvtoJihbIgH3TEpmnlCE", "name": "Klätterställningen i Önskeringen", "lat": 59.26413800000000, "lon": 18.03722200000000, "team_id": 1, "available_slots": 4, "bs": 13, "bc": 93, "rs": 24, "rc": 159, "ys": 29, "yc": 158},{"id": "3772a5cbf65b4b199f6f45a9ccd51952.16", "url": "https://lh3.googleusercontent.com/PB_oZlVOFsTEdHPielRTQon_WrChw0BjkVQLvJn5vm1oqVbtKxkCCkj6B9I5qVO9lQ0QQ2EBRidDFYk4HD9dMWkX_w4", "name": "Storsjöparken", "lat": 59.29717400000000, "lon": 18.04385900000000, "team_id": 2, "available_slots": 2, "bs": 21, "bc": 200, "rs": 18, "rc": 190, "ys": 15, "yc": 143},{"id": "39a18c3c9f1334019bd8eca1a25b0515.16", "url": "https://lh3.googleusercontent.com/hwHd-hip_0u_FA2QJQlX0fzHqEjH1cLexebIZgrnUoiHP09rBJp_R9b2nmbseIm0QeGHzmp9lwNwE5kzIwb_bDRFvWHf0-PfJiAdDns", "name": "Knattemålet på bredaröbacken", "lat": 59.26654600000000, "lon": 18.03439000000000, "team_id": 3, "available_slots": 0, "bs": 17, "bc": 290, "rs": 7, "rc": 97, "ys": 14, "yc": 281},{"id": "3d16ae346a5b41449495e7c306ce727d.16", "url": "https://lh3.googleusercontent.com/4WUJKoSWdtQS9LGQO5XO3j3T-su2FIMv3Pll2b8bFN5jyUHgfO4FcFSodYhuy5HZGGyUzHVjzjhHVBfGlLHwF-tCfg", "name": "Stenfiguren", "lat": 59.29830900000000, "lon": 18.04952900000000, "team_id": 1, "available_slots": 5, "bs": 23, "bc": 306, "rs": 8, "rc": 253, "ys": 6, "yc": 117},{"id": "3da2c43ef8d44cb797d1fc2ddc0c2a60.16", "url": "https://lh3.googleusercontent.com/rCL7u5RxXr4n_WO01Piw9aiOjAWq4S3qM_xwdzqMzyS1stqYIjT6uCAY449pt_8GM0HVJFoKWxEL34l1KkcSIyhXpOI", "name": "Milans lekplats", "lat": 59.26583000000000, "lon": 18.01545400000000, "team_id": 3, "available_slots": 3, "bs": 50, "bc": 102, "rs": 30, "rc": 55, "ys": 36, "yc": 77},{"id": "3e75e9278d684fa690713c4a056a8c94.16", "url": "https://lh3.googleusercontent.com/kXJi3P_7JU5TfzN9HZ9--_6QmUs-hjjiRCtf_Cjc7uuSmwiLET01AJZNLrOHlDIP_8s3KYhcbrYqa3u45SpPHpcWaGo", "name": "Gated Well", "lat": 59.27342700000000, "lon": 18.10145300000000, "team_id": 2, "available_slots": 5, "bs": 57, "bc": 71, "rs": 52, "rc": 51, "ys": 46, "yc": 62},{"id": "4138781e979048cfb75d92ed198bcfdd.16", "url": "https://lh3.googleusercontent.com/8FreskoxQkrkTpR4YZvGykijTwnDSMaFPu_BXT9iiQAM0GYJ09JQ-y_pz2kbbt7qqnp6ytCSMXJoDWUYhJddBntLevBA", "name": "Vit blomma", "lat": 59.27890000000000, "lon": 18.09150700000000, "team_id": 3, "available_slots": 0, "bs": 15, "bc": 81, "rs": 7, "rc": 112, "ys": 48, "yc": 157},{"id": "4171e3f95be945a48780c96d319d8bf9.16", "url": "https://lh3.googleusercontent.com/BNf56mO5Px3n0phULdA17mwKJXEShuKtLxNzVR040ZdBqM6FZwWRMo-NpUKAe4rFfGipgau5KsuPS64YUCRWZGBGLdw", "name": "Lion Head Fountain", "lat": 59.27490300000000, "lon": 18.10316200000000, "team_id": 3, "available_slots": 3, "bs": 60, "bc": 68, "rs": 52, "rc": 65, "ys": 53, "yc": 39},{"id": "45052a91606a4c5dbd2b9a764ed1044c.16", "url": "https://lh3.googleusercontent.com/Geud7yZjW0IkmtW3vn9jMSCqcbLcAqyV7jZqEky2V0Wbv_FQvTCd8f9ntc1R6NnqD7l-I9n3U_uaVgDRIUwisiHe", "name": "The White Sea Horse", "lat": 59.27879700000000, "lon": 18.06956200000000, "team_id": 1, "available_slots": 0, "bs": 13, "bc": 274, "rs": 14, "rc": 184, "ys": 12, "yc": 263},{"id": "4782c7fb42ac481f8c4048d105d41428.16", "url": "https://lh3.googleusercontent.com/FseI7Ar42Or-2AE-71Wl3Mzs-uQ7qXf7gfN0BUzePTTnRdyywY_rqrJRlTRQoIs4_4IVoFLPOcueyUE6C62fpWgTSKca", "name": "Wolf Statue", "lat": 59.26966300000000, "lon": 18.05162500000000, "team_id": 1, "available_slots": 5, "bs": 9, "bc": 194, "rs": 15, "rc": 319, "ys": 12, "yc": 278},{"id": "49b249507b8d4319b1c483c29cd75800.16", "url": "https://lh3.googleusercontent.com/_ophnGoAa72Exv2cEtQ-aVjcsUw-oY9xeGV7Y06m_BY8RAzfFAT8rCWzaXlRC6pzLbuT5kVrZEfa_YMOeFlp_2Bl1AaSaJ6FDORyDYTR", "name": "Grytet lekplats", "lat": 59.26830000000000, "lon": 18.03509300000000, "team_id": 1, "available_slots": 3, "bs": 18, "bc": 75, "rs": 49, "rc": 142, "ys": 15, "yc": 77},{"id": "49f64ee9313143d2b155ac6bf31d4cca.16", "url": "https://lh3.googleusercontent.com/l_6Tn_3x5I3kIRifbk6343PzOND9TIsXO5kFPEt7erSa1QaR4qygPczok6gVTer0t896BxQcLbDlaEBQUD9kJxcwhg", "name": "Parkleken Stacken", "lat": 59.26035800000000, "lon": 18.00622700000000, "team_id": 3, "available_slots": 5, "bs": 29, "bc": 107, "rs": 37, "rc": 114, "ys": 28, "yc": 78},{"id": "4b4e93501fbc4f9e9a364b44964fd58e.16", "url": "https://lh3.googleusercontent.com/k9UGZsflhQHvjE_38oZhh7z-ltUFZ7RJozQSGiYnwBD6pjswdBekKURjKLZPLZPYOHhXf8FS6VRksQTep3cneAuJJ9s", "name": "3 Arena", "lat": 59.29192400000000, "lon": 18.08255900000000, "team_id": 1, "available_slots": 0, "bs": 12, "bc": 265, "rs": 13, "rc": 262, "ys": 14, "yc": 238},{"id": "4c5573d162b64ac1a8f52ccec3950221.16", "url": "https://lh3.googleusercontent.com/-ks4XZJ07L1xYrYal3wYtJ4gNufywwfuZ4R5ULoO7ZiLxRptCsJRLz99yHSg9wfdg0kToJEJNAOWMVM0Cey8zMAhMw", "name": "Gungor på rödamattan", "lat": 59.27368300000000, "lon": 18.04806500000000, "team_id": 3, "available_slots": 4, "bs": 22, "bc": 91, "rs": 40, "rc": 88, "ys": 33, "yc": 122},{"id": "4dd0b7ed8d434d7a8f32f8d397bf3b3c.16", "url": "https://lh3.googleusercontent.com/irg_-fkc5KR7KzfXqOEZ-3awyvKiN1wXYAp53-FpW07I1CdjYTlvz-nLny0i10q3HitQuZnnKrZjSrrpJbG_R1gLvs8", "name": "Globen Subway Art", "lat": 59.29370000000000, "lon": 18.07542500000000, "team_id": 1, "available_slots": 0, "bs": 22, "bc": 134, "rs": 22, "rc": 138, "ys": 25, "yc": 145},{"id": "4f1ce652838d4f11b07dc4b0583d8c94.16", "url": "https://lh3.googleusercontent.com/U3tB4uq1Cg5MKfWr6mLjO3C8h_Z14n5Pel1naOPPtOBQp8sz6quDmXSWZD6qm1IA7LIxzX8GPh1gnfEb9KLwH6kAGQ", "name": "Årsta centrum", "lat": 59.29726500000000, "lon": 18.05162700000000, "team_id": 1, "available_slots": 0, "bs": 18, "bc": 251, "rs": 15, "rc": 200, "ys": 10, "yc": 209},{"id": "51d115c7163644788ff0a84426d761eb.16", "url": "https://lh3.googleusercontent.com/YYfch2AZ9iVB4-SgowkZiuVUrgZ7rmLEJdZ5wG2Eg-rDmqyLSA1JaT02T-efczz3cEXPCdU0HTmAylQAt8HBkPLbyw", "name": "Wrestling Bears", "lat": 59.30000200000000, "lon": 18.05694900000000, "team_id": 1, "available_slots": 0, "bs": 29, "bc": 119, "rs": 31, "rc": 109, "ys": 29, "yc": 95},{"id": "52532d7b240b4f30915bc74fe19b6410.16", "url": "https://lh3.googleusercontent.com/kgORK5OZYaG4VOIZCF0efyH6OL9rVK4Y_dnLYWioQSBwuwCKDPBABe0W_AiHKmn1ctu2afvFxf4Q1YRuDUUpmfdnd2c", "name": "De tre årstiderna", "lat": 59.29088900000000, "lon": 18.03376800000000, "team_id": 3, "available_slots": 1, "bs": 27, "bc": 106, "rs": 30, "rc": 69, "ys": 44, "yc": 104},{"id": "54143b17278c4eb987f1f961fffe18d1.16", "url": "https://lh3.googleusercontent.com/aJA72xPAUXgbxerkT0Uq_dK3SAQKK-WnZvWzAwYyOV6tfyMswwRv5Bc8Y2YaYPdfh3ilZHmQLep2XnA23cr_hlYSpxg", "name": "Lekplats Gideågränd 2", "lat": 59.28205800000000, "lon": 18.05383800000000, "team_id": 1, "available_slots": 3, "bs": 18, "bc": 216, "rs": 25, "rc": 218, "ys": 19, "yc": 13},{"id": "54c92ecf71d34d85b54c470e918ea3d5.16", "url": "https://lh3.googleusercontent.com/qPFvRaNa7uWrw0Sh1ztDEgoZGXV6jbcIP17JkZzp47HM2G5aPPPRtuNJuGce22gHxoDWEWKM5ov-czhGSPnRoZoOmK8", "name": "Uppdelad", "lat": 59.28967600000000, "lon": 18.03576000000000, "team_id": 3, "available_slots": 5, "bs": 40, "bc": 189, "rs": 11, "rc": 90, "ys": 8, "yc": 129},{"id": "55c07028920a4215b415b43fae6a1365.16", "url": "https://lh3.googleusercontent.com/lEoLczgBXkDl_kdkr6Z50l1YvoN-XceI2aBFHY02F4M9q5A6I9AZH-SL5r7m3YoDdJOVqhqPg8RR3DWIKU5gz_easK8i0e5PCKVxe_w27A", "name": "Ek- och hassellunden", "lat": 59.26878400000000, "lon": 18.01470800000000, "team_id": 1, "available_slots": 2, "bs": 76, "bc": 51, "rs": 102, "rc": 45, "ys": 46, "yc": 24},{"id": "565f50706875433dadb8d256dedbbbf2.16", "url": "https://lh3.googleusercontent.com/oedII9tEXRujOqycaMc4lMsn-xNWgecxKnJ04i2GqGXTotCFS03kIdr--5xDnWngj0mxaqhDKZIx9CNCgDZEKM9t5w", "name": "Roxens Lekhörna", "lat": 59.29593500000000, "lon": 18.05505100000000, "team_id": 1, "available_slots": 1, "bs": 13, "bc": 411, "rs": 9, "rc": 369, "ys": 6, "yc": 186},{"id": "59c0c78616c44b03a5bc08b2f40763c4.16", "url": "https://lh3.googleusercontent.com/G9XlyrzQQd2M5rvdiWa13AuIiu8y-Lq6hL0wPXQmZH_pFT0uRlprO5fT7kjc_CDFZpPObe1OGb2kPUibvMpnI881yc4", "name": "Två Flickor", "lat": 59.26129400000000, "lon": 18.01214600000000, "team_id": 3, "available_slots": 0, "bs": 15, "bc": 77, "rs": 20, "rc": 224, "ys": 17, "yc": 229},{"id": "5b3051fcf5c7453ba891862b27cc570f.16", "url": "https://lh3.googleusercontent.com/dxh1WdogvguvUbnfQM3krS1hapMOGSQrgOn7arg-CWfy2oTCi0ufbr0R87VkgGWzQz-QtxXK2JWBsWac8CA3arBB2Q", "name": "Dårarnas båt", "lat": 59.28263600000000, "lon": 18.06990300000000, "team_id": 1, "available_slots": 0, "bs": 54, "bc": 107, "rs": 31, "rc": 77, "ys": 23, "yc": 65},{"id": "5c1ef678fff64eca90e0cfbf4d306852.16", "url": "https://lh3.googleusercontent.com/e6gedu52_Mr8RD10UgqJpKNHmJ_kTihdAt32E8TlIEc9En76XwtqigmQZn8_CiccJ4F6XlyFHllgA7wbqlYeIrR1GG1LW82IxnS-nEw", "name": "Hagsätra IP", "lat": 59.26500400000000, "lon": 18.01998600000000, "team_id": 1, "available_slots": 0, "bs": 14, "bc": 274, "rs": 10, "rc": 73, "ys": 19, "yc": 269},{"id": "5d941325d5124be8a8bccce993f28697.16", "url": "https://lh3.googleusercontent.com/17idHXH9yGYfIWy8yuO6vEmBLT7OqDZXewZIWjDj0favgBFrMWatVTfQJ5WpPGcqNiSNDHCRcdICKZwAuCB29Yvg84vl", "name": "Polisbilen i Rågsved", "lat": 59.25986300000000, "lon": 18.02458000000000, "team_id": 1, "available_slots": 3, "bs": 95, "bc": 51, "rs": 51, "rc": 44, "ys": 56, "yc": 43},{"id": "5e2ed340e94b45ca9f86b211ea16ffe3.16", "url": "https://lh3.googleusercontent.com/m0ovAHFKKEzkcQ27fh8F1J1qlXX-wTBLBlmbKXQcHfN1XsFQHKfQhw6qOZRfmV1VJQ6VvPJcTeF6Aexlb2cRSBvHegmegVTEjX0PJgnK", "name": "Årstaberg Station", "lat": 59.30011200000000, "lon": 18.02925400000000, "team_id": 3, "available_slots": 0, "bs": 13, "bc": 365, "rs": 10, "rc": 322, "ys": 8, "yc": 231},{"id": "621dee22aecd445db223bb48e3be6bef.16", "url": "https://lh3.googleusercontent.com/vZQ7_WzaBPQVdHAnlX6wzPtWREZWGfsM5reJ1ecoCalnqzuBHCLFQNqiBC1Q5f3SfXsDXDrCtDK5vgbHqxwt3LEUNLo", "name": "Enskede Rackethall", "lat": 59.28744200000000, "lon": 18.05738700000000, "team_id": 2, "available_slots": 0, "bs": 25, "bc": 116, "rs": 30, "rc": 120, "ys": 27, "yc": 114},{"id": "6f439edd8eb741938e68ba9a29f79dd8.16", "url": "https://lh3.googleusercontent.com/-GHtnh28v37YZWkW8L2uCX3d5Gm5ifWrvKD_5jVMwn32yqHe1Bme3BD4VqsSW02RTehH907HpwqCiRXqIT1yjYCkEJ0n", "name": "Svenska Kyrkan", "lat": 59.28492000000000, "lon": 18.08795800000000, "team_id": 1, "available_slots": 4, "bs": 28, "bc": 199, "rs": 13, "rc": 179, "ys": 13, "yc": 139},{"id": "71a66569447e47fa8d95eedd4c2bf816.16", "url": "https://lh3.googleusercontent.com/I2YT3fCDCXaewAPPRurjr0wJLhtq4IQS071hoIiuiMLyMJMXUJY25VlTfRDPCbtlcSaLw_o9-_6CsG2oUksDkV34yqQ", "name": "Mammabarn", "lat": 59.25673000000000, "lon": 18.03598100000000, "team_id": 2, "available_slots": 2, "bs": 48, "bc": 90, "rs": 40, "rc": 85, "ys": 30, "yc": 59},{"id": "745e9dae7a8a49e890ed366649bd54a1.16", "url": "https://lh3.googleusercontent.com/pTAdDsOK1I--55zUm8WSjePz9yMkBmJYv9lE7OkIuxhJUTMjcWRHVW3tiqVDC83Tr5UalBllu63oepe9Dww3PNTosO4", "name": "Ormkärrs Arena", "lat": 59.26118400000000, "lon": 18.00568400000000, "team_id": 3, "available_slots": 1, "bs": 24, "bc": 90, "rs": 35, "rc": 93, "ys": 37, "yc": 113},{"id": "79450b1285834cd29f665339780f23df.16", "url": "https://lh3.googleusercontent.com/cs5JB8L_NAe_8G7jIKCwcmoE6XmtlLqAejSG1bFCmLYQLIWpSv3gNA1u-kKipo5KU0EFJ72AAzL6EhjSA1O4lNRBYw", "name": "Subway Art 2 at Skärmarbrink", "lat": 59.29584000000000, "lon": 18.08924700000000, "team_id": 3, "available_slots": 1, "bs": 27, "bc": 113, "rs": 36, "rc": 125, "ys": 26, "yc": 81},{"id": "7a5828c9756f46c5980e565f0f0b8ddd.16", "url": "https://lh3.googleusercontent.com/dcZ62oM7yr0T4x5qAnH6cyjWj0dr5iVoZA1sYszAkHcFa3X3auQYz7tZpnjJJ_ik8Ylj5JfaanKIaFFOJv93JopdY1g", "name": "Blandskog", "lat": 59.24649000000000, "lon": 18.04790300000000, "team_id": 2, "available_slots": 3, "bs": 46, "bc": 60, "rs": 94, "rc": 68, "ys": 24, "yc": 18},{"id": "7deeb0518cc242dfa55c4e68e1f5162a.16", "url": "https://lh3.googleusercontent.com/KbWrdXDyyv7oUpzpV5NB34eN9h3sxzNFTx1TsCxNI-GGEN6Wcs6D9gIeGkWuSithj0rNu14Y5sZcVhWDleaRGXp9Uw", "name": "Greta Garbo's Grave", "lat": 59.27284800000000, "lon": 18.10499200000000, "team_id": 1, "available_slots": 0, "bs": 43, "bc": 97, "rs": 39, "rc": 59, "ys": 43, "yc": 74},{"id": "7f1be73b6e144e39b0dd002b7aec6519.16", "url": "https://lh3.googleusercontent.com/-NexsZ3W1iqdUMH77VEMZWS6dnkEG1HeT7q--Y-25fj-07WpaH7Bf8XIDfCcL3jz1GXg0ZYtrdD-VttKOnCn6Opxag", "name": "Plockepinn", "lat": 59.29682400000000, "lon": 18.05965300000000, "team_id": 2, "available_slots": 0, "bs": 25, "bc": 123, "rs": 36, "rc": 135, "ys": 19, "yc": 86},{"id": "84ad0da4bee641ceb2d7c90e30298f66.16", "url": "https://lh3.googleusercontent.com/gS4QmwFbs1Y7vU1aZBvlPyWt7pVxqZvVH8pNThahjJjwlVLIJuSGC-a2XO1f3aZ9B0gg5ZaJg8_gsaeJ4QcqfckOzg", "name": "Sandsborgskapellet", "lat": 59.28254400000000, "lon": 18.09723300000000, "team_id": 2, "available_slots": 5, "bs": 57, "bc": 85, "rs": 40, "rc": 81, "ys": 28, "yc": 56},{"id": "85a4ce837b3b3e69a161b9d86a22a29d.16", "url": "https://lh3.googleusercontent.com/4l_FydS3Q8F3LsPSqnXQNf7Cv6JNAJyVl2teJY9MbSPqQoKmzCq-W_H8sSfx8Ly9tWxHh97tY5IBWmrSZN_JabGIAvRqsU8Lp_PDcn0", "name": "The old goal", "lat": 59.26560100000000, "lon": 18.02708300000000, "team_id": 3, "available_slots": 5, "bs": 11, "bc": 132, "rs": 10, "rc": 101, "ys": 33, "yc": 215},{"id": "8a64cbb275974810aa0bea9abe69add1.16", "url": "https://lh3.googleusercontent.com/k6O6W9FtZfrTrJ-ubXd-P7mpIZ8Mqo-JcExg744Uj71bZhmEG2AWLwBczPgmWXazjIgGkkiAWCZfnGdq5ipsuEpLtCQ", "name": "Från Här Till Evigheten", "lat": 59.26557200000000, "lon": 18.04319500000000, "team_id": 1, "available_slots": 1, "bs": 19, "bc": 249, "rs": 8, "rc": 102, "ys": 18, "yc": 231},{"id": "8bd1f4e9571048d3bbe100b35f8d9651.16", "url": "https://lh3.googleusercontent.com/wEiQRIYsYMWUAwY8vQaWRRcvZf4p8C3PhjtdVCTtjJN5vFdSVv_PzpCRiD8lhbyogZgreoQam-qiLvQB7c6KT10ICt8", "name": "Ripa", "lat": 59.25627200000000, "lon": 18.02835600000000, "team_id": 1, "available_slots": 0, "bs": 28, "bc": 173, "rs": 16, "rc": 125, "ys": 21, "yc": 133},{"id": "8d1ef5f0742b4dab83825ff4e6dd2e4b.16", "url": "https://lh3.googleusercontent.com/1PPTcsPEP84l-XTYUZqIBw4FCdvYv1WmLmu-Sqa-luaV_5yaySCEBHJTjSbtOfjR2hEIZv2gpBzY1JVCXBk8GlMYjIe3", "name": "Lekplats Läggestavägen 30", "lat": 59.26475200000000, "lon": 18.05380400000000, "team_id": 2, "available_slots": 5, "bs": 28, "bc": 151, "rs": 23, "rc": 45, "ys": 30, "yc": 146},{"id": "8dd0d36c26c947afa79f078db0b78ab0.11", "url": "https://lh3.googleusercontent.com/BiUEt7Oadv9JxPEkxztgZVKM2ySLxna9_eBWxPLsCeVWtMLMdLj0me8O3pFxd1k1ZcgfiegbW0ia8TW4tXX6mVSexPw", "name": "Faces", "lat": 59.29504400000000, "lon": 18.07041900000000, "team_id": 3, "available_slots": 4, "bs": 43, "bc": 96, "rs": 43, "rc": 86, "ys": 24, "yc": 75},{"id": "907d782aea00429e8bd113f2a6c6730e.16", "url": "https://lh3.googleusercontent.com/SsD1F_RnDSfddKqdJace7U28MLNiWSr5FbSZ1ZWQp3UN5dAhl2S59KvxLi11IaPe0zVBPAxuIn1ZHBXs5J9a6OfS_w", "name": "Älvsjöbadet", "lat": 59.26879700000000, "lon": 18.01284900000000, "team_id": 1, "available_slots": 0, "bs": 98, "bc": 50, "rs": 31, "rc": 43, "ys": 56, "yc": 51},{"id": "90daea1d9c6f43d7904c76e128e844d0.16", "url": "https://lh3.googleusercontent.com/LqJsMr1r4K0bR4zJW80wXj0kxsRPWInVjF_w1qK5KXJI21GzJE_O4LjYS-rWpxG1GBo8hfufLA4jCMO3mPr4gKHOYg", "name": "Triangelkyrkan", "lat": 59.28491900000000, "lon": 18.08689800000000, "team_id": 2, "available_slots": 4, "bs": 27, "bc": 216, "rs": 12, "rc": 151, "ys": 12, "yc": 151},{"id": "9291a8c7f606418780869cb27345c7d7.16", "url": "https://lh3.googleusercontent.com/ekPYZ6yg6-OkbzuM9zgaY7sv_JrTFgXHq8b-Ora-GW423TsmsCbqCCA4m_MXahcC91GsJ2YmUPsY0YCk9HPyJJA_bw", "name": "Highvalley Skatepark", "lat": 59.26041600000000, "lon": 18.04057700000000, "team_id": 2, "available_slots": 0, "bs": 114, "bc": 58, "rs": 43, "rc": 55, "ys": 18, "yc": 31},{"id": "931e51576c4544b5af93e7a35ad92a89.16", "url": "https://lh3.googleusercontent.com/8-nn1YT3NOdksuy2Y5KiDxmGAyHwg-bctYfWUfM6hQJ_KbcUsM6hkzgdQ7DsZdmqbwNCZEeVxMgpRJfZqmBUEWmxG1DE", "name": "We See You", "lat": 59.27217400000000, "lon": 18.05083000000000, "team_id": 3, "available_slots": 0, "bs": 12, "bc": 106, "rs": 14, "rc": 68, "ys": 58, "yc": 128},{"id": "986f4fd3f1cc45ce8ce59a6d945c46db.16", "url": "https://lh3.googleusercontent.com/cdEshiLs8S9EwHTwjMAC1xEZa1s4AQRe18JzI0Z9olgEMN-1OyXyWRZL4zTtn9RAKTXHm9HGWF6f09Sla_vgqk_EUA", "name": "Årsta gård", "lat": 59.30203200000000, "lon": 18.04230600000000, "team_id": 1, "available_slots": 0, "bs": 36, "bc": 138, "rs": 28, "rc": 119, "ys": 22, "yc": 59},{"id": "9886aa7ec645420e9ad0b3f8abbbff0a.16", "url": "https://lh3.googleusercontent.com/lco2rXkKgESxMUWpYMR7XQoCzE30U0sHpfEVqg_6IEWa9tN4cRLfJjg_SZufDBKNzq1iuSf51ThKo0kdf50711SF3g", "name": "Rusty Metal Sticks", "lat": 59.29999900000000, "lon": 18.06380800000000, "team_id": 2, "available_slots": 5, "bs": 37, "bc": 170, "rs": 18, "rc": 136, "ys": 10, "yc": 84},{"id": "98bc894cc9274efb8280a3108634a89c.16", "url": "https://lh3.googleusercontent.com/XUxVhS9rdeLfAc7vu1XlifUoebvr_3vXSD_n7-32zsnBJHUEhlec8hwD7OW4XvepGDtURJ96MVvRU1Y9CD2j6HRrhNU", "name": "Palmfeltsvägen 73-77", "lat": 59.28814200000000, "lon": 18.07194000000000, "team_id": 2, "available_slots": 0, "bs": 24, "bc": 75, "rs": 47, "rc": 110, "ys": 33, "yc": 79},{"id": "98e0f9d37d7d4508adda3422b54d8d18.16", "url": "https://lh3.googleusercontent.com/t-2CGwju8PbUOz2YpQ4CD9Wxgbt1kF060jncBAdNuc8OO-XX8Axa9M3j-FfjIM68lVyxNByb_VLhA59R2mSBdkCGxIU", "name": "Mosaikäpplen", "lat": 59.27880000000000, "lon": 18.06569100000000, "team_id": 3, "available_slots": 5, "bs": 31, "bc": 203, "rs": 14, "rc": 182, "ys": 9, "yc": 84},{"id": "9b001f9a249246ffa8fd1fbefb458932.16", "url": "https://lh3.googleusercontent.com/_xZ4TjICRVltcx2pRWl29qAfQ5dPwu7h7cB0hdfDe3-HD3ILGp4ZKabwvRfZbHzqU-fzi2yj-2F-0tbdil2o5xhyFSM", "name": "Enskede Kyrka", "lat": 59.28456400000000, "lon": 18.08151900000000, "team_id": 1, "available_slots": 5, "bs": 40, "bc": 112, "rs": 41, "rc": 102, "ys": 14, "yc": 62},{"id": "9b8a02fc0c1440f9858656bd75b473dd.16", "url": "https://lh3.googleusercontent.com/8svafyKkoG9GejKKTZOX64FNMzvEQOoonikvI8JW8ao3zxOVJDu8l9MQKlcSTCyaJrZQWDGV0hNY5P88sYYrmL-FN-uQ", "name": "Östbergahöjden", "lat": 59.28845400000000, "lon": 18.03280200000000, "team_id": 2, "available_slots": 5, "bs": 42, "bc": 146, "rs": 19, "rc": 117, "ys": 17, "yc": 78},{"id": "9ebc609c6fc44886991b80ac44842333.16", "url": "https://lh3.googleusercontent.com/3BMahJlc8dKCvhCORsM2BBZ4S-mktx9iPY-hQJWy3suotKKftC1DLjko8avoZDdgiPLJotcsg1IrpOe-r0AmVD6oY7cP", "name": "Lekplats Nåttarövägen 13", "lat": 59.26585900000000, "lon": 18.02990400000000, "team_id": 1, "available_slots": 5, "bs": 22, "bc": 85, "rs": 27, "rc": 128, "ys": 32, "yc": 130},{"id": "9ee4cb9788f24896a7e13b42fe69705a.16", "url": "https://lh3.googleusercontent.com/pLJyp48vS8HAqoO2FR_uVxQWNf_QGaHJ2VRm_e6jRxg2TcRM9aRbBpO6HG5bYJPAK20F11t8uJH5tr-e1liiFZvBHYA", "name": "Årsta Park Västra", "lat": 59.28667600000000, "lon": 18.04644000000000, "team_id": 2, "available_slots": 0, "bs": 65, "bc": 62, "rs": 65, "rc": 58, "ys": 46, "yc": 39},{"id": "a2c4eb8ce1d04973b82db4d896cc6655.16", "url": "https://lh3.googleusercontent.com/qe9_vnfMWxr8GPesIK_OAQJpYbtM8Q1ziiTzlDNtZOaD0VyDAQbm2Q4vLmnznc1THq8dRO5qSg0DPKAz5hrHtaWqGA", "name": "Trapped in luminescence", "lat": 59.29002800000000, "lon": 18.09252500000000, "team_id": 2, "available_slots": 0, "bs": 8, "bc": 296, "rs": 5, "rc": 259, "ys": 14, "yc": 451},{"id": "a44cea70aa6648709367026157de2b8c.16", "url": "https://lh3.googleusercontent.com/7lhG_bBvDJEbqH7yOxVe5HwU-YzeiM6Ax9Sn5WJTdg8b1dYENVjYwFLOaAitWYojcL44290dGVdv7WzwY0jCWbaMuUdm", "name": "Grått I Grått", "lat": 59.29679100000000, "lon": 18.07547100000000, "team_id": 3, "available_slots": 5, "bs": 16, "bc": 208, "rs": 20, "rc": 193, "ys": 14, "yc": 172},{"id": "a5177906a37743f891e602f81eafe872.16", "url": "https://lh3.googleusercontent.com/7v-wU8sfI5E2Ve0GXkA6herYwqba-gBfijha0jD2yFzXD3JNfTqTZMguIBrUxk4OulnkUPdNYGk980CfsUJNaR1Jp6w", "name": "Deeper Colours", "lat": 59.26061700000000, "lon": 18.05116100000000, "team_id": 1, "available_slots": 4, "bs": 12, "bc": 128, "rs": 54, "rc": 139, "ys": 20, "yc": 28},{"id": "a57b90e530e34175bbdcf7aa88bd8db6.16", "url": "https://lh3.googleusercontent.com/NmVCeDz-P1Nwl-pY-wyKMPgqH_JyZ1U7aGJbrL9sLSGX04pz-EJ_tTONibKuQvNTd6o9iPcdfGDKd2SzpaeFXasJwUf5lGsNlin0aF3ufg", "name": "Granitkorset", "lat": 59.27647500000000, "lon": 18.09979100000000, "team_id": 1, "available_slots": 3, "bs": 123, "bc": 44, "rs": 75, "rc": 37, "ys": 47, "yc": 30},{"id": "a61b68206808452a8e8050b1a388db49.16", "url": "https://lh3.googleusercontent.com/yjE4vnZMBz12L1Ku_b-aqJsw4e-twmcrxtWtvGG5Y5u7bGwanJeUFSRB8kVXtzWWxdevtMngHyD9nadnVE4pC53IiA", "name": "Groddammen i Ormkärr", "lat": 59.26561800000000, "lon": 17.99949400000000, "team_id": 1, "available_slots": 3, "bs": 62, "bc": 49, "rs": 62, "rc": 57, "ys": 48, "yc": 62},{"id": "a713ceac36ac4759aa38cec700c7d21b.16", "url": "https://lh3.googleusercontent.com/TpOj7n_VrJltDC-D0Rgbv1mxD8qWCLcjDlSeCggHGchsqijOEd-0bgzwxfrVqWyHMZCxG2sGvCQj8EBxvS_wuoBy74w", "name": "Glastornet vid Årstafältet", "lat": 59.29553700000000, "lon": 18.03968400000000, "team_id": 2, "available_slots": 0, "bs": 54, "bc": 72, "rs": 66, "rc": 72, "ys": 26, "yc": 38},{"id": "a8038db4f60142da9be260f472d9b77a.16", "url": "https://lh3.googleusercontent.com/3r1OJpjdWzor49XattjGlDinydGxj__FJ6dYKD5rL6tgkYgXcUqPe4BrR1L78PBy9SA501eE1UMA0Wh4sGGOxd1BY-o", "name": "Muralmålning i Snösätra", "lat": 59.25060700000000, "lon": 18.04037700000000, "team_id": 2, "available_slots": 5, "bs": 36, "bc": 66, "rs": 95, "rc": 69, "ys": 29, "yc": 22},{"id": "a89c612e2d824c47b7c345e9d3ab07cf.16", "url": "https://lh3.googleusercontent.com/NupRnQwm47uTXHUFejdj0Om7CVXKS-WZ6-EJ80h4JkLvI9cKidpF2W3xK3iAfOf9z5qprh-dRyYu5JEP0RBvdt1JOg", "name": "Subway Gym", "lat": 59.26483600000000, "lon": 18.04457300000000, "team_id": 1, "available_slots": 0, "bs": 42, "bc": 122, "rs": 25, "rc": 101, "ys": 20, "yc": 84},{"id": "a9569ed2780d442095d72109f7a98ac1.16", "url": "https://lh3.googleusercontent.com/8e29538z2ffAPQ4u8Hzve-6UflRuMfjAhKkzxnrs8GX37PZst6_7D8uCoQxZfjOVDxEtm7NEatgA8F1CIrP4NiL5PXg", "name": "Rasunda", "lat": 59.29775400000000, "lon": 18.07176200000000, "team_id": 2, "available_slots": 0, "bs": 35, "bc": 113, "rs": 34, "rc": 83, "ys": 31, "yc": 93},{"id": "aa8881b1090c48ae8b390cdb200e7f52.16", "url": "http://lh3.googleusercontent.com/c09O7LBgwpxsUR41PS19iVYllOKIGvL2zQp0XijvlBg1GSgZf1lAYDeqItudnWhBQdZO8_aa8oPRf4t2radKw1X2Ib0", "name": "Fiske Adam", "lat": 59.27417600000000, "lon": 18.09820900000000, "team_id": 1, "available_slots": 1, "bs": 65, "bc": 73, "rs": 34, "rc": 45, "ys": 57, "yc": 57},{"id": "adeea2f6b9dc40e4b3bcb694a1ee2a7a.16", "url": "https://lh3.googleusercontent.com/lJNYqL3T36Gl0N-y60J4oJdDfoiu7QXoJB2EzsxX6v8Nla9EyiGI44jhVugbjaxHW8KQKzw_O8gnJmhQ9Io2jWBeRw", "name": "Klöver", "lat": 59.26760300000000, "lon": 18.01119400000000, "team_id": 3, "available_slots": 4, "bs": 62, "bc": 116, "rs": 15, "rc": 52, "ys": 18, "yc": 90},{"id": "ae66b4c349ca462cacabe01f3e1a0031.11", "url": "https://lh3.googleusercontent.com/NeAiH22tkgXENby4fqzLew0Qt6rdW9HRG19d9BbbkzFl6qWbibGqkyEnxzuPwg5ImP3Jg_a6hMz_FyDJGfUj_e4ZU1c", "name": "Gullmarsplan Bus Terminal", "lat": 59.29774400000000, "lon": 18.08177500000000, "team_id": 1, "available_slots": 2, "bs": 11, "bc": 355, "rs": 11, "rc": 356, "ys": 7, "yc": 299},{"id": "af3790519b1948adac7c104ae6819aa1.16", "url": "https://lh3.googleusercontent.com/li8q-NdF-kxf5S-SJKJ8qYtd1K1o0mYQtwcDJFcMpZ1PjId7MMY5TRHxZ4xyM8lIaTNZn8W9_Ecs0NNM7jMvW5Di2fFM", "name": "Årstalidens dansbana", "lat": 59.30139700000000, "lon": 18.04975600000000, "team_id": 3, "available_slots": 4, "bs": 42, "bc": 101, "rs": 40, "rc": 100, "ys": 24, "yc": 55},{"id": "b0ebea6237d74869ba27366bc8fdf100.16", "url": "https://lh3.googleusercontent.com/iVUIFk2fi341ZeLDO5nQH-2cjj3PdbvFdxupQe-SxEAk1zlXrONii5hIy6bN_ifxvGxqttQpexTteeH0Q1YNyzGRviI", "name": "Skagern 2 13/55", "lat": 59.29934100000000, "lon": 18.06347300000000, "team_id": 1, "available_slots": 3, "bs": 36, "bc": 201, "rs": 9, "rc": 139, "ys": 9, "yc": 93},{"id": "b243ad0b3c744762a7fd74dbe736d711.16", "url": "https://lh3.googleusercontent.com/g38pCbdY3H44WxVvl1_8EabkM4HppE2MGTwRi4DzbOgEbM9XFSIFJs-HrUG4CjJBegDE6RVO1slOZ6jvcJDphdKQBUY", "name": "Hagsätra Kapell", "lat": 59.26160100000000, "lon": 18.01486400000000, "team_id": 2, "available_slots": 0, "bs": 13, "bc": 173, "rs": 16, "rc": 148, "ys": 23, "yc": 211},{"id": "b4c9df8d990e464491df8a14f3f3d835.16", "url": "https://lh3.googleusercontent.com/0NgcSlg06a14tbtfhGaNmeMeQv7SZrV-lbEI-2hmgeLrRBdxcs4XJecKMiO04IJ0_KPD9W8ed8lZplb5Xl4UsBzgWo2Z", "name": "Löv", "lat": 59.27772500000000, "lon": 18.06732500000000, "team_id": 2, "available_slots": 0, "bs": 31, "bc": 161, "rs": 21, "rc": 111, "ys": 18, "yc": 124},{"id": "b5478447792d420dad33c3c74023c034.16", "url": "https://lh3.googleusercontent.com/xMs868aMyhX19WjRZuENF2-ojTgQNLr16YVVpVH2RR3lF_xTHYSYqOSkicQI0ektheAYdnTTa5KW5bq8lQMCZll5db19", "name": "Främmande växtlighet", "lat": 59.27482200000000, "lon": 18.05763400000000, "team_id": 2, "available_slots": 0, "bs": 39, "bc": 175, "rs": 11, "rc": 88, "ys": 14, "yc": 136},{"id": "b69aaa6c066b41d689a9be42cf89e7b9.16", "url": "https://lh3.googleusercontent.com/_hWvpHsJ_JT-QIWk915xycvP01VK6OtyRrKmKrlCi1mVrt7uiKCNV4G6SysoF9zOMlPlQlGVgaRElqYq_fLWoYYm0eI", "name": "Stenring", "lat": 59.27381500000000, "lon": 18.10370600000000, "team_id": 3, "available_slots": 4, "bs": 70, "bc": 56, "rs": 64, "rc": 41, "ys": 73, "yc": 42},{"id": "b77b036e621546bf8e65553fd16a8a9c.16", "url": "https://lh3.googleusercontent.com/ytLhvacLr4Jqrj2qbiLZPsoWXSMDubtDH7EcyvBk6CIl0Wwl1ZaB3YzHADrvzDKNl-f4r0W_q6DtC9aBb8Oi71Ozlxs", "name": "Högdalens Historia (50/69)", "lat": 59.26252100000000, "lon": 18.05074800000000, "team_id": 1, "available_slots": 2, "bs": 28, "bc": 158, "rs": 26, "rc": 163, "ys": 13, "yc": 68},{"id": "b7ce70cbf1774e2495a6f7172fed22bb.16", "url": "https://lh3.googleusercontent.com/fBLh0YPjpXi5n-fM7ckQAx_52m0qxBQnxnVZA5Mwvf3gj552PGoPQOeEu0_s36vsrP9zBw7TRkyNiLrFVo5G7kYU8dM", "name": "Bruna lekplatsen", "lat": 59.28357200000000, "lon": 18.04761500000000, "team_id": 1, "available_slots": 4, "bs": 8, "bc": 308, "rs": 13, "rc": 430, "ys": 5, "yc": 349},{"id": "b7e4d9356c944d33a315d88f7b337321.11", "url": "https://lh3.googleusercontent.com/xBWYYYp8F7CZy_1dQI1Fplr03OQ1x5vRGHhTnWtAnpxans6hDl_VnBp7FZTkNmNVKdcmsYTNij8piMyUzZNEWhDd6-cs", "name": "Fågel Grön", "lat": 59.25712300000000, "lon": 18.02949800000000, "team_id": 2, "available_slots": 3, "bs": 43, "bc": 74, "rs": 38, "rc": 72, "ys": 49, "yc": 76},{"id": "b8cb4e19d3a340c280487479a9b61d9c.16", "url": "https://lh3.googleusercontent.com/6GPHm3D6EWhA10yQJz82ZjxnFl-q9TmR_EESnSpGqEX80b2T0c6NrhGXcjg85oeeWcMFKBCnbl6obPrry5s6cEtEekFQ", "name": "Tre Katter", "lat": 59.25882400000000, "lon": 18.02234800000000, "team_id": 1, "available_slots": 1, "bs": 78, "bc": 51, "rs": 68, "rc": 48, "ys": 72, "yc": 32},{"id": "b90f273a22984499a0591ff69c655177.16", "url": "https://lh3.googleusercontent.com/bYKmHiy51U_kjZVosn7whWcfs-AlFhjXPdQofnlK4sxIcNPnST40FRqB6RdDZyMfGJowtKZ69zw12A75EJl8KZ_bUFg", "name": "Djur i Cirkel", "lat": 59.27391600000000, "lon": 18.02430700000000, "team_id": 1, "available_slots": 5, "bs": 20, "bc": 202, "rs": 22, "rc": 113, "ys": 17, "yc": 182},{"id": "b9a8217e036a4f5c976753498afe8cb5.16", "url": "https://lh3.googleusercontent.com/RRxdBCFr-QkxmdsfsGRArXe_Tg6wKgsFJOskWIvxk0iocRuLFqES7kp1LHCaAXBYZE8mkblZdJTsShQddkA8Jn_3n08", "name": "Melodi", "lat": 59.29932000000000, "lon": 18.04209600000000, "team_id": 3, "available_slots": 0, "bs": 9, "bc": 222, "rs": 10, "rc": 300, "ys": 13, "yc": 338},{"id": "ba9e0b6914594b539dd15c05d3fc8a9c.16", "url": "https://lh3.googleusercontent.com/52oe0YTbPjG7kHADCygy1yYDgXC4AbHuMjFMYuU6BBdl419_U_wPSjRWKkjcmqH7D735ObpVdnIRRN6hVAtnsZBQGeA", "name": "Bugs in Stone", "lat": 59.29958400000000, "lon": 18.07671700000000, "team_id": 1, "available_slots": 5, "bs": 13, "bc": 197, "rs": 23, "rc": 193, "ys": 17, "yc": 150},{"id": "bcba9c919cc44e28bfc9f3e087fee4d7.16", "url": "https://lh3.googleusercontent.com/241Rxj3R0yvqf04Qw9W-yFT-Mgf8HDFRRTtgIGzX7A4di94bbH8rRQTsmBFZbYr8XhreIymnn3Z2u8vD2u7uTNdaVw", "name": "Önskeringens Parklek", "lat": 59.26351700000000, "lon": 18.03730700000000, "team_id": 3, "available_slots": 5, "bs": 9, "bc": 123, "rs": 13, "rc": 171, "ys": 25, "yc": 245},{"id": "c206db7810dd4024b9a0d90d01b15c21.16", "url": "https://lh3.googleusercontent.com/Vf66um8nPuIMQSBQkzQB3zgC0ds5GGPguYjSEieKSJvO6NG7J4LstnyHWrc7sGw87JxdHHTAueXnX8bQnhSePXkhA0Q", "name": "Villa Årsta", "lat": 59.29983400000000, "lon": 18.03160800000000, "team_id": 2, "available_slots": 0, "bs": 13, "bc": 272, "rs": 18, "rc": 284, "ys": 8, "yc": 109},{"id": "c2bc828b37904a1590f1996472bea7a8.16", "url": "https://lh3.googleusercontent.com/qJraGPoEWIQMs1ApCBth_XLt9H83tKIfK85i4C3UH2pmGCVZi2_KSpw-7WElk0gwsU-E_sosqYHh9e5yQStpxmWQJg", "name": "Årstaskogen - Årsta holmar naturreservat", "lat": 59.29861900000000, "lon": 18.06121500000000, "team_id": 1, "available_slots": 0, "bs": 21, "bc": 159, "rs": 25, "rc": 175, "ys": 15, "yc": 124},{"id": "c40e542501674a429e0984f740e69fd8.16", "url": "https://lh3.googleusercontent.com/E14K8ZVA0Rf-lkefXaIn8VvzvV41fznwR3B-pQB2O-eA8t4_EzK4SlOANczEw0OPgg2zLMiT3n1B1abIxr9gOcpfWymW", "name": "Minibasketplanen", "lat": 59.28166200000000, "lon": 18.04463100000000, "team_id": 2, "available_slots": 3, "bs": 30, "bc": 148, "rs": 20, "rc": 117, "ys": 20, "yc": 136},{"id": "c659d563919f4180968ae40335559515.16", "url": "https://lh3.googleusercontent.com/6SWowA7qou1FzOr_htElN_iH_NrNT4JO11o6SPJsWlGqniffByD2sGEeKuigspWqK5MUfiv9SFo7Dp11-HRIMTaMg68Y", "name": "Lastbilsparken", "lat": 59.27189000000000, "lon": 18.01770400000000, "team_id": 2, "available_slots": 4, "bs": 35, "bc": 84, "rs": 32, "rc": 66, "ys": 49, "yc": 92},{"id": "c89a4010005c485ab6df661567fd10f3.16", "url": "https://lh3.googleusercontent.com/76A80DJhHj2HkFpQB4iD-zj7pt8PpY_jDnL0iHVExEDMC0XPo4UWFWE3tqAmWRlG4Drne-jxWfKqZloDZbvJU8oRGP0", "name": "Kvinnoskulptur", "lat": 59.29520700000000, "lon": 18.08978500000000, "team_id": 1, "available_slots": 0, "bs": 24, "bc": 166, "rs": 19, "rc": 141, "ys": 21, "yc": 137},{"id": "c8afa3cde3c9423d8a505622e7c5c210.16", "url": "https://lh3.googleusercontent.com/RMhHGg2a26geKcPNfQryIG1K3CDDoGK44X3_ih-q_efvlSHj6Sde-K1CnfDm93M-piRiwL268_iyg5g8KLd3O8_8Jnc_", "name": "Rågsved Affären", "lat": 59.25263700000000, "lon": 18.02883200000000, "team_id": 2, "available_slots": 0, "bs": 21, "bc": 88, "rs": 57, "rc": 107, "ys": 26, "yc": 60},{"id": "c9173f51c5544ebdb78c3a55a9c0eb06.16", "url": "https://lh3.googleusercontent.com/YB_-N9wpgJVByDpCk-OcRuNVUjbMDkLkL0dQvIsNWmqDiTnEMjYPZYDP64-KLrYFyYPnKpOmpXxCBzfNuNAawZofAaR5", "name": "Husets Historia - Kvistbrogatan", "lat": 59.26120800000000, "lon": 18.02721500000000, "team_id": 1, "available_slots": 3, "bs": 50, "bc": 129, "rs": 14, "rc": 87, "ys": 26, "yc": 68},{"id": "c98d89b775674eb2a7cbfcf03a7aa4fd.16", "url": "https://lh3.googleusercontent.com/o9aweStsn3lpW9xLt8D4fs3Yu3KU2ddGgqp9b5tXLeHs4qQTR-zSL2DrtSG-UhTQQAC0iTamGYf0hsNbOK2ls2VXcg", "name": "Lion Bath", "lat": 59.26919200000000, "lon": 18.09665900000000, "team_id": 1, "available_slots": 0, "bs": 95, "bc": 43, "rs": 60, "rc": 21, "ys": 88, "yc": 48},{"id": "c9cb7f72283a41ea8c854eb8e6496eb7.16", "url": "https://lh3.googleusercontent.com/bske99_iPbBqEpR4-V5Mr3RZEiacl5AaF-AQ2HRHJegq61SyZn44yno_zs6c2_XkAGMNh8rrnlqOQf95wn3ANA0_b-LZ", "name": "Leaves in the Ceiling", "lat": 59.25567000000000, "lon": 18.02070600000000, "team_id": 1, "available_slots": 0, "bs": 56, "bc": 72, "rs": 59, "rc": 65, "ys": 42, "yc": 40},{"id": "ca6e671fac9d422389af7c1512582467.16", "url": "https://lh3.googleusercontent.com/u3SRJBHhC9IzVD1GsOJKsSP5qIxMC0T8ADfvqGWyb6pzKRaukZX5k0offOb7d7vDCGX_Ho5ERgQOGiOv2FUnvHswvJU", "name": "Cyklopen Aktivitetshus", "lat": 59.25943300000000, "lon": 18.04108000000000, "team_id": 2, "available_slots": 0, "bs": 136, "bc": 47, "rs": 43, "rc": 38, "ys": 51, "yc": 30},{"id": "cb4ea7514bd44933ab9fd81f07420a84.16", "url": "https://lh3.googleusercontent.com/FI3OuVSUN9kQCfESGe0KtORCcmK5ul3n4m0b0k3QIId0WapQKCk5qFHVUwdN1KzoiITqSbciOzdYPkgZPlB4ZO0FFBKS", "name": "Kräppladalen 3", "lat": 59.25295900000000, "lon": 18.04080900000000, "team_id": 2, "available_slots": 3, "bs": 46, "bc": 48, "rs": 90, "rc": 72, "ys": 22, "yc": 39},{"id": "cb90c63cda2c491d8f31dbda174ce206.16", "url": "https://lh3.googleusercontent.com/Rh7G5yIXMoQHdnLUzNmrwgEc-Xf--7DxOQz3BkL7mgTCsI2W0wJhOXGOR5zW_7mLGuV9RKRq8uCUKlqMlvDoUe-aBd0", "name": "Globen Stenfigur", "lat": 59.29246600000000, "lon": 18.08301000000000, "team_id": 2, "available_slots": 1, "bs": 7, "bc": 408, "rs": 9, "rc": 379, "ys": 8, "yc": 394},{"id": "cd2083af4961452b859410188e26d47c.16", "url": "https://lh3.googleusercontent.com/VSMM7rUECLOGd230yLv3dW_5_6PhGiDFNR554Silux1XdDeYkPXqNbaoe3IQf4DVoIL5r2_sgZUFNIEf5hqD7vkdzZI", "name": "Vårflodenparkens Plaskdamm", "lat": 59.28577300000000, "lon": 18.06081200000000, "team_id": 2, "available_slots": 0, "bs": 21, "bc": 96, "rs": 49, "rc": 127, "ys": 17, "yc": 82},{"id": "cd3328227cab49e28120c47f9ae5d192.16", "url": "https://lh3.googleusercontent.com/7KukEJyCXftTADEwHHeG5DRLdgaI6MrwhfcIJq4kn23wjpw2XPb_kJ7OjzQulsALf7uVPHvvLz_LYz6DZDKUvtw97SY", "name": "Turtle in Högdalen", "lat": 59.26184900000000, "lon": 18.03593000000000, "team_id": 3, "available_slots": 5, "bs": 55, "bc": 96, "rs": 35, "rc": 76, "ys": 32, "yc": 50},{"id": "cf8793b77f724e1ea261d8757dda52e3.16", "url": "https://lh3.googleusercontent.com/G-be5MOVs7EB9GeUcYBVhExzWhiExQDKH0cgoFBw0ijx-LRfr3wCNcY61wPs_YT4RUuWAkHdwq5GxSsP09fGlNHtph0", "name": "Rågsveds naturreservat, Snösätravägen 1", "lat": 59.25403000000000, "lon": 18.04810400000000, "team_id": 1, "available_slots": 0, "bs": 114, "bc": 26, "rs": 88, "rc": 25, "ys": 83, "yc": 3},{"id": "d1187ffe1fb4462ab1a15a3992f86f61.16", "url": "https://lh3.googleusercontent.com/cfqovE7FvoGkz0SVaQvpXmQA_wPIazTtecyisejnEHgjqzWFkRTd3Xer-rHZ4U_8UAqfpXMRII5095fkZ3fRKpkUwQ", "name": "Skogsportalen", "lat": 59.30122700000000, "lon": 18.04032600000000, "team_id": 1, "available_slots": 0, "bs": 31, "bc": 171, "rs": 24, "rc": 140, "ys": 14, "yc": 68},{"id": "d24195f85a384a2d8f20aee5e6462acc.16", "url": "https://lh3.googleusercontent.com/VbrdLNKTxgCTd_9K2WAPpydmVHsYUuqbh-hOSt1F9aTOszCjEBaxiamXeptJ18jZTrAqL3bqUik2bAlvYHGEvwBnDA", "name": "Gravfält", "lat": 59.27706900000000, "lon": 18.03449600000000, "team_id": 0, "available_slots": 6, "bs": 23, "bc": 106, "rs": 28, "rc": 91, "ys": 37, "yc": 125},{"id": "d242a28ddf0041a39aa3fb10c98f485b.16", "url": "https://lh3.googleusercontent.com/q9zMA3V-VuESHsOXtQDT-lhMOox0tvr27qb5lh47YA21SB11uszqH0ZFHRcetKoQS8Tjn2__u4s6bnDiQMBCIxJbwN8", "name": "Gjutjärnstavla", "lat": 59.25888700000000, "lon": 18.02598400000000, "team_id": 2, "available_slots": 1, "bs": 48, "bc": 108, "rs": 35, "rc": 96, "ys": 35, "yc": 27},{"id": "d39ccd7dcdc1494aa1cf5293c8b3a1de.16", "url": "https://lh3.googleusercontent.com/LqcGMBZOn9RjBudUOd5yMYOJTzctIcMYXmF-2nfzBFJrz3qdr2nR8dGZl-mfoEyTKWck9T4WX5uA-D5GYKSl_Ci1T2WRTYvh49IzWFTizQ", "name": "Enskede Gård", "lat": 59.28849900000000, "lon": 18.06641900000000, "team_id": 2, "available_slots": 0, "bs": 8, "bc": 47, "rs": 94, "rc": 91, "ys": 12, "yc": 48},{"id": "d3dd2d58489430589835dc8c5253a067.16", "url": "https://lh3.googleusercontent.com/B0nUgQG9bHHT6_YwjnyXVkW7NYlnJfq42Rk5J8MGXqtiDlyKHxnGYuZ4TCY1n4gxKQ6HyW9CgyDNSvHPKEYnSOnYBblkxV2LLfcWxrW6", "name": "Anslagstavla i Ormkärr", "lat": 59.26192700000000, "lon": 18.00220800000000, "team_id": 3, "available_slots": 3, "bs": 19, "bc": 125, "rs": 15, "rc": 113, "ys": 30, "yc": 180},{"id": "d72022e71bcb4284ad169061734c9e26.16", "url": "https://lh3.googleusercontent.com/KLIWNzGPA0aCP9x_Ij9Abtz0kbMHvJTSriLeCu1cTXZiydFx-xzkA5aqErSxY9kNfGL3o52hq74qdmiCAtCYpL0tIwKO", "name": "Vågen", "lat": 59.29900200000000, "lon": 18.03486900000000, "team_id": 1, "available_slots": 0, "bs": 22, "bc": 249, "rs": 12, "rc": 107, "ys": 15, "yc": 187},{"id": "d7d9160e16a241a1b64fd2b87bf5903e.16", "url": "https://lh3.googleusercontent.com/Hw_ApYP0AsbFTFXGCqje6N6rxgO96u3rOxm0BHPpKbA9cDz4hrWoLab6Sldl3cdCHpgvpPuloLRQthyyAp6VI2OCXmQ", "name": "Stenvalvsbro", "lat": 59.29192500000000, "lon": 18.04472500000000, "team_id": 0, "available_slots": 6, "bs": 1146, "bc": 3, "rs": 663, "rc": 8, "ys": 208, "yc": 2},{"id": "d9fdc1b604a447c585520f644418d820.16", "url": "https://lh3.googleusercontent.com/yRjpwsqiJVUmSKnPsTzlFSnI42qYO6m1eLCqujLTs583usr2-wUu1doVTmFFSmG_CQsg14W9NgwHi9WD57Shd4CUxQ", "name": "Skogskyrkogården Station", "lat": 59.27879600000000, "lon": 18.09538800000000, "team_id": 3, "available_slots": 0, "bs": 31, "bc": 123, "rs": 30, "rc": 88, "ys": 29, "yc": 106},{"id": "e4ed184355e146c5a092abc68d4a142a.16", "url": "https://lh3.googleusercontent.com/ChnlScSkNssit86pKQkm3ctC3isUWK3kLPtUVWlGb8O0n4kt2mcFW2o_h23x5KwEC48FJ-_ver8rGhJjacIvMmy_ChAQ", "name": "Sandsborgsbadet", "lat": 59.28487600000000, "lon": 18.09392300000000, "team_id": 1, "available_slots": 0, "bs": 15, "bc": 116, "rs": 21, "rc": 198, "ys": 20, "yc": 180},{"id": "e541ebadcd734abe902c490bb23dd5f2.16", "url": "https://lh3.googleusercontent.com/kwcBw7y84rk62S2zhqhmZxPyvlrx2diIXVTZyPGHlWUNRt1ag19qaLwNAfeDBx5pgWC36jF8OXeWppB2UDwmHhMwll-M", "name": "Mitt Rågsved 2030", "lat": 59.25675400000000, "lon": 18.02762900000000, "team_id": 1, "available_slots": 0, "bs": 23, "bc": 168, "rs": 19, "rc": 130, "ys": 23, "yc": 143},{"id": "e59f419825e8404396b8043ab96d4042.16", "url": "https://lh3.googleusercontent.com/N2-CSwf3Zw-nsOQZli_aovUPcpWRxT2IQo_Z-yZFconKrFnpG8dnYd96Mi8cpJrrS0gHS2TGlU5WDuzGp-ppzReECkXe", "name": "Fountain Enskededalen", "lat": 59.28576200000000, "lon": 18.09458900000000, "team_id": 2, "available_slots": 0, "bs": 7, "bc": 153, "rs": 27, "rc": 258, "ys": 11, "yc": 129},{"id": "e7d007d4f51e4cf6bbd30d2c66c8354c.16", "url": "https://lh3.googleusercontent.com/tSuTdqxixMUlGRQPyphnGsaC1OYeXL2OwTTstf2nnrQTqLbPAThLfzd8fewJ2mElAMkhKzHn85NDvNgUt_xGApiVET1h", "name": "Arctic Sphinx", "lat": 59.27084800000000, "lon": 18.03556000000000, "team_id": 2, "available_slots": 4, "bs": 21, "bc": 64, "rs": 56, "rc": 98, "ys": 27, "yc": 99},{"id": "ebfe568f2cb545f9b24e2024c207a62d.16", "url": "https://lh3.googleusercontent.com/OOb7h_0vykGYVFEN0XKW4M8UEL0l0OmjkKQy6BL40UgG8AB8AVKExB4Pyw8z1yIUMLKOe2mLbeiUnKhOK6cSjKAf5Q", "name": "Blåplockeparken", "lat": 59.27391300000000, "lon": 18.02382100000000, "team_id": 1, "available_slots": 0, "bs": 32, "bc": 119, "rs": 27, "rc": 106, "ys": 28, "yc": 103},{"id": "ef1634fd549548ac80ca92a218b44b9a.16", "url": "https://lh3.googleusercontent.com/2_JWF2ubmgBfSlD-1_k8pCa195Qh3LHMiKTlshqLuHMTmARk6L6fKwM4yQzz-8ShJ6zFsN_dyU_ZXQFWoSW6Udi9cQ", "name": "Gud Är I Himlen", "lat": 59.27931100000000, "lon": 18.08673700000000, "team_id": 3, "available_slots": 1, "bs": 16, "bc": 251, "rs": 9, "rc": 47, "ys": 20, "yc": 259},{"id": "efb0132fa5b14de280a7a582d4b59c0f.11", "url": "https://lh3.googleusercontent.com/CcG-eNLZ7QHm7GtDu_q-gZIgWictOPcuZuGTlLofKE3V6buyt1oceH4xoPEIUVhfdJ02teGUIjmWrppJusIoTD04", "name": "Avicii Arena", "lat": 59.29360500000000, "lon": 18.08306300000000, "team_id": 2, "available_slots": 0, "bs": 13, "bc": 261, "rs": 14, "rc": 197, "ys": 14, "yc": 237},{"id": "f039504a2b964e5aa9988c1499d65c27.11", "url": "https://lh3.googleusercontent.com/4oVESgMouT9MFKDyi4Vz2NIMDiFW1tkLky_nM_k7eFwNrnKUdBa-V1c6IHdEYvgx0I8dDM8dzdcurcoQwS3jsTrDdV4", "name": "Haaaboooommm", "lat": 59.29955800000000, "lon": 18.08021400000000, "team_id": 2, "available_slots": 0, "bs": 12, "bc": 353, "rs": 11, "rc": 303, "ys": 7, "yc": 257},{"id": "f0f308c6a3474adc93d2b277c67b0c18.16", "url": "https://lh3.googleusercontent.com/75fCu1Z94wt16Fm9zBVWapDJcUclHQ8DGGxACemLFCOzidBzbbSx1EPndFUmnnEJBBoJ8eQqzj7bbj2kSUJoMQWLXM4", "name": "Gravfält Invid Göta Landsväg", "lat": 59.28699800000000, "lon": 18.03873200000000, "team_id": 3, "available_slots": 3, "bs": 12, "bc": 78, "rs": 21, "rc": 239, "ys": 17, "yc": 223},{"id": "f436031539384cc094aa4c474084ab30.11", "url": "https://lh3.googleusercontent.com/bMzut4m8Doc0sMbAauFxXulYMJ4Qz1N2goiz7E1VhP0N3eTf1LlU_-olZSsyobb-jd2BR7ldUGIx34UXNF-S1WhWyuk", "name": "Subway Art", "lat": 59.29594800000000, "lon": 18.08943200000000, "team_id": 2, "available_slots": 1, "bs": 21, "bc": 145, "rs": 32, "rc": 133, "ys": 22, "yc": 105},{"id": "f74d171bac56480a8105ecf5c6e39af7.16", "url": "https://lh3.googleusercontent.com/4FXTQa1ERskTODrFaNXh9A-xt7ccZmCcuPEjsZzAZlkt_SwEqK0h61EE6VtwkerIZG9FioqdTT2CkE0aCn9HxDveqAc", "name": "Idlångens Lekplats", "lat": 59.29251000000000, "lon": 18.05584500000000, "team_id": 3, "available_slots": 3, "bs": 9, "bc": 176, "rs": 28, "rc": 260, "ys": 7, "yc": 133},{"id": "f79026293297412c9ae22a5f38f4ac0c.16", "url": "https://lh3.googleusercontent.com/e49tn_0plcrl_FwBECJdIg3rlxKzclu0R6Vdm2COlr4LljJQrnw_EfJNLKmMorVG2nCeodtC15Nqud6P04etw5tDz9s", "name": "Silvermannen", "lat": 59.28906300000000, "lon": 18.07041000000000, "team_id": 3, "available_slots": 0, "bs": 22, "bc": 108, "rs": 40, "rc": 144, "ys": 19, "yc": 80},{"id": "fba5ea1689a14a7d8d9d37d16ca502c5.16", "url": "https://lh3.googleusercontent.com/Vc0YgiTD8raZv_W79cwXmMx9_vGEr5H9cdRe18afr9FKsm5dGhttDqoH6Sjnos0zwBHzkKS81OwadAQQuXxJCjW5iA", "name": "Aspöparken", "lat": 59.27548600000000, "lon": 18.03560500000000, "team_id": 1, "available_slots": 3, "bs": 19, "bc": 176, "rs": 20, "rc": 113, "ys": 23, "yc": 170}]
