[{"id": "007e69887c50420daef9058036e5915a.16", "url": "https://lh3.googleusercontent.com/zI_xK6AXpBRugIM1tY2rFu-EAP6LE9VLlFnJrn3yxJlUb9WE5TBmAY2Ei7zlL8ciMNRJAN-J7WFha84j8fmzCyp2K-0", "name": "Vindriktningen", "lat": 59.35812800000000, "lon": 16.53296500000000},{"id": "036992367bbc42b6a71b0504e15adf6c.16", "url": "https://lh3.googleusercontent.com/4woIM-DJ3HrGLIIFAYQq_yg7za8b5VyoYP9UxXYMNU7dj6Vj3tZFIBpnQaMBSannt4QSiLQH8WeNurV49TU4y67dp3c", "name": "F.d. Mariakyrkan", "lat": 59.37621700000000, "lon": 16.47242200000000},{"id": "0384e0377b6b46d49379eedc04e4b558.16", "url": "https://lh3.googleusercontent.com/Wij0MONm997Q2R0cSBT8qzviYSPKpCQ1r3Yuq16MI8lA74_SnjbEhRBNKwtVW2olnQeEOw7ZRIQafC5B1alUnY5YUTg", "name": "Balsta Musikslott", "lat": 59.37818700000000, "lon": 16.54252800000000},{"id": "041980df8d1a4b0a93b0d60da556fca0.16", "url": "http://lh3.googleusercontent.com/PMjQjGHeZSjU_8FGbbsVjYXywzjLV08c_a_Ibb5cq3rL2QUfdeoVJxln5Pk_UHVKc8buiCkPzL_0FobhBuiJNYfbT7g", "name": "Bjällersta Lekplats", "lat": 59.42250200000000, "lon": 16.45662600000000},{"id": "04b9e991197b44de890ec61d2ff47dfd.16", "url": "http://lh3.googleusercontent.com/LYQU5tw9P4Dy5YCc713d7eLAbv9EHiL2nhYwyzsEQyOzHQ211c24aeF-hAozJAx9yvrfrrUekIOR6YJros_oOxN1XFc", "name": "Lekplats vid Parken Zoo Camping", "lat": 59.36986200000000, "lon": 16.47263200000000},{"id": "04cfa4c2344442e5bfd9a236e47afb4d.16", "url": "https://lh3.googleusercontent.com/wmroTvr9mbV7btsgrmEjFsomok5XhgZGE_3lllZATVi1WGJEfCaAbMXqkAyr5Sc88PrG4iu4-4YUpZ6XsXcr8EfmauI", "name": "Årby naturreservat", "lat": 59.39178200000000, "lon": 16.51406200000000},{"id": "0577fff38a4d4d50b06e4d9b956cfaad.16", "url": "https://lh3.googleusercontent.com/xK50ec4o6VdWycpojYJbPyiEFm4AUK1bJB1uGdTT3P9tUe8E0If2EAeA7fOPAihEQa30YLigoyPgO713zNyrLgow", "name": "Solur", "lat": 59.37664400000000, "lon": 16.45179400000000},{"id": "05992dea9c2e4f19870af0b8de23f71e.16", "url": "http://lh3.googleusercontent.com/cHqtEN2nLvxfbJAiZS1LV8kq58P7PypWQ75gK2RdCexBlHYRp0fxW0nklKlEcALMfClY-fV5YFHXR9KkdPKUoKQc3ro", "name": "Trumpetvägen Soccerfield", "lat": 59.39839900000000, "lon": 16.47709100000000},{"id": "05aebaba157b4febb9b58420c9776e7c.16", "url": "https://lh3.googleusercontent.com/gSYB5d0CZhyFxRF8quzngbb0jyRokIqm4qrqXGqvO3yKdvHtCYXdE33Hc5BBlYm-Ad3KAfXcBVSJEYQDv4ppr7YUzKA", "name": "Lekplatsen vid Borgmästaregatan 2 A-E", "lat": 59.35278700000000, "lon": 16.48232600000000},{"id": "064bff2b925748e19dfbbee72abcc445.16", "url": "https://lh3.googleusercontent.com/QcYCgLcV6kZVkL-ZcjQL5oV4DkdUFvvhMnpegO2hBLAI3d1ZA_gAahHRPqPEmzIMDFl_7ClYf7_PUN9S89ELhlz0eec", "name": "Vattenstege", "lat": 59.35292800000000, "lon": 16.47797300000000},{"id": "06636b819205422e9e8d5d2fc7b53e9b.16", "url": "http://lh3.googleusercontent.com/xW8DHZ1c60z5yjVPCnqm8QNvky8uJDnijcOrLB05K4V1_nOI0mgrI3LyCi0qI97cqhkWdHqp6Tb3G0Q4fyvmqj65gQ", "name": "Stenkvista Kyrka", "lat": 59.31456700000000, "lon": 16.53163700000000},{"id": "0670e812de3c4aca927528ab2e9c0e30.16", "url": "http://lh3.googleusercontent.com/lN668S9UhG79aB99QnN55wZh9WdzuqOn4wIsoa_w7SHSO8wpu3zMrBGkbYdBqrBJB7COR0wPPFCqOcflqqiJHLmPbSk", "name": "Apelgården", "lat": 59.44690100000000, "lon": 16.62448300000000},{"id": "069bf689eb814b61aa8da93d7ab84b1d.16", "url": "https://lh3.googleusercontent.com/81q5EljDKIhBy5N4aTzOR-MGqeqLez8JvLYi54bjPul4P4Ioy5V9e6mPJcyv_Ok0ps5a617hUWVc0dZPrmThlaG5a9A", "name": "Pin Point", "lat": 59.37103500000000, "lon": 16.51424400000000},{"id": "07e7e6a55e7a466a89c8f04d386046f8.11", "url": "https://lh3.googleusercontent.com/qeMf0qIXPQe8zKR8zYtl8_LRpbx5o0yJFHvDERzPsehxI4X6pluaWF0Gj4424MUNWP2QelunqQ608772XOZp7xIyrh4", "name": "Skandiahuset", "lat": 59.36907600000000, "lon": 16.51813900000000},{"id": "07fcc050c42847ec9694b58380f966f4.16", "url": "https://lh3.googleusercontent.com/7_U_60ltseKSyvarH_Oe8NwO2ZGF2qB9A25oYj1V11pKEdm92T-nBM0G2scKx39qAHIJyxyfGEVq4cwqDjDJv3ueHw", "name": "Eskilstuna Stålpressnings Kraftstation", "lat": 59.33157300000000, "lon": 16.47589500000000},{"id": "081642a79d35426faa3858153cf0889e.16", "url": "http://lh3.googleusercontent.com/foqPRFAfayOqgbb9of-UGHl50epYr8Aa5OunDGOGsM2s9H_JtK5KbY53nd1iFLLhOiVPq4Uy4YlhFNxl_W8e3vmAw54", "name": "Avloppskonst", "lat": 59.39458700000000, "lon": 16.53275900000000},{"id": "09f428a63ed04c35a9783a12588475a3.16", "url": "http://lh3.googleusercontent.com/uekh4OGMVKl0c4PO5WiMbeTUA6C2gip-3g5cPmNkPB1dP_sjZ1eiNMA7O2TRuovQvQZS85aeLE9LvPeJixTO4UPahw", "name": "Creep & Teddybear", "lat": 59.38615100000000, "lon": 16.52963000000000},{"id": "0b288144362c4341a15bdf264eccc43d.16", "url": "http://lh3.googleusercontent.com/bpNS-awH2fQU5Z7919wftEWF_-NHcOI-zuD9UOrb7TkGJnB26tmbNWJHTdDJCyhiU5GB_8J5wJSCGfWJXVqPCcKz4kML", "name": "Arbetarnas Ring", "lat": 59.33817400000000, "lon": 16.48953600000000},{"id": "0b4415a65ba63ad4a2b4bb20c320af87.16", "url": "https://lh3.googleusercontent.com/Sr_2NiGD9wbptj9Uz_EqqsMBKFDvz-f4-GlF2OMDUjpb-ZXr8DvT3Z_LZw7549Kaij6pj84DODAHoLLkrFiu-IpvTPsLTToWruIbGPJe6w", "name": "Borsökna utegym", "lat": 59.34009100000000, "lon": 16.43717700000000},{"id": "0caa4823dd9141bca77f8f14639ec02a.16", "url": "http://lh3.googleusercontent.com/26YSluxTMi4BaG_5UPClyu6VeU6a6y0Rk3-QhiCVYGrwf0BypEp5l0rKIrZlhjg2tIJ5s3ay4Q217zO9aNdCTKtA9k4", "name": "Utegymmet i Hällby", "lat": 59.39114600000000, "lon": 16.41460800000000},{"id": "0e3c684047744c02a968dc1b3fb46020.16", "url": "http://lh3.googleusercontent.com/USpiVBdKroVwEnHaJ_VtbUTbQ9Yry5xwCHaCJxVGJOawA1VKgDaEatbF41KvbRMgm3mfsxIHJi31xhSnuwyvtcvkN8c", "name": "Årby Naturområde", "lat": 59.38764500000000, "lon": 16.52014600000000},{"id": "0f0c4d47e36942128de7a48f6f494e83.11", "url": "https://lh3.googleusercontent.com/Cum1OIuKriNGKVvdezAsLRwIvQnjYwYtdRFnJD3yz8hwqBv2MU06E5DddwCTypsnLzSiB178-JYB2DJIDRUKVV2pxVc", "name": "J.A. Selander", "lat": 59.37261400000000, "lon": 16.51472600000000},{"id": "100968b32cca44c3ab0e9c7ee9060e8a.16", "url": "http://lh3.googleusercontent.com/v3Ziij6wFSr2hMcfJ9kOF7aoH4LVKK0G1TEqxxX8jZGAzSToEu6TQBSgqC6blFQ5_GSau5zt1M2eaQokTNS3c2crEac", "name": "Den gömda fotbollsplanen", "lat": 59.41182800000000, "lon": 16.49623200000000},{"id": "10215ba7a9aa45518ce199e5190f6063.16", "url": "http://lh3.googleusercontent.com/-vMfPETOXp8egWqwYdyryvXWsfGsxQERpaUxBZ5gpoS05B_-iB5Pw9ZJkqp_E53rxgMowilMx27VggEssZ4PiN0ox7k", "name": "Årby IP", "lat": 59.38480000000000, "lon": 16.52080500000000},{"id": "1187b30dd67a4719a41dd5d5c2bc79c1.16", "url": "http://lh3.googleusercontent.com/I08Z8TuWKzszYOsk8ELOEJGdEqbzw0qcd87ODjvSW2EiJTiCWA9qGm5x3OqqydAhMkwD0IlJJfbqKwM87tX7dCvQolDR", "name": "Sigurdsristningen kunst", "lat": 59.44128300000000, "lon": 16.63441500000000},{"id": "11b887faaf674e658301cbdf786f1a81.16", "url": "https://lh3.googleusercontent.com/Z55NMxhF1r9KS9LGny5j0byPVXa74e4VUXvF24Vunj7fzw8GZkAWw03RJtVmxzbS2Z-cqwzom30t46TCZMX5WnerGw", "name": "Gamla Ekar", "lat": 59.33928600000000, "lon": 16.48944600000000},{"id": "11c9a61cd9e347b09c471ad82abdb36c.16", "url": "https://lh3.googleusercontent.com/rUCg2RWrvje4Dj9BV9GDy1cvUYXAsg6jwQ7XcGTdChjeVq0NFmhrRgrWCtgEvfhvMPoLQevcyw7_hSTC-XIJxBAcag", "name": "Gula lekplatsen", "lat": 59.35691800000000, "lon": 16.47339800000000},{"id": "129079c5daf2408287ea7ffdfb2dd9e3.16", "url": "http://lh3.googleusercontent.com/9bjBy8o3ddmddbTzR3W301nyh0cBBhT_JTBR087ZMBmtWQ0djU_MVZxBY7L5xTiNXRJQrVczYeryI7ZvpX1C4k_dm4U", "name": "Lekparken Nyponvägen Kjula", "lat": 59.38814700000000, "lon": 16.68072100000000},{"id": "1323fbfbfe2a4a93b661130385ae85a8.16", "url": "https://lh3.googleusercontent.com/SD6jUICNS68LLjRjezg9wG2kdczlBt1c30Aby9s8lWCh4PvS1o5emvTh2AjRemdkye7rzdXZ6darnlsuV9NR3H2iyQ", "name": "Lekplats För Små", "lat": 59.37149000000000, "lon": 16.53615700000000},{"id": "145109ec7e0e444cb7d605fc03017f6a.16", "url": "https://lh3.googleusercontent.com/ROhg_ElPlYJNUZ-M0EwThoQHEOaF0fIo4Nh_Jy96OoQDRNu7dZbEXVV75ohLGV91e36eCwEyR2F4PQaI0zpkRliUrA", "name": "Crossroad Rock Gustavsborg", "lat": 59.38654500000000, "lon": 16.42146400000000},{"id": "147bcdec130145b39bc5504a984005f3.16", "url": "http://lh3.googleusercontent.com/IFtudkZ9CplSmBTDsWrSYPgSjmn-rgVRrmwmpWG1FN8SqdqQC1ZJ6NG9CHZ7ZEk3DSbNzNAI8bxmjEPYIv-4yoFrgGylq6dq_1AsOQjl9Q", "name": "lilla lekparken ärla", "lat": 59.27860700000000, "lon": 16.66499400000000},{"id": "1634f056cbcd4a949eb0cce7b3fdfa7c.16", "url": "https://lh3.googleusercontent.com/hBWShwUex6fs7alyrpk-wtbSPWkEd2IVhf3BXj7_rIZVWUzO-6vD8ZeTVhbmQ1MesSPyoMEouefBAI70A9kVI8JyOw", "name": "Lekplats Sydfruktsvägen", "lat": 59.39191900000000, "lon": 16.48252000000000},{"id": "189ecb78d25d4ce2b204bbe06300879d.16", "url": "http://lh3.googleusercontent.com/rLLWPp6ILPjJ0zMBrqWPAdJZ_a4XlxI0Oc8g6a_JIiL2mWdpcaHlm6c8P8lWa-q21FP6TjHz6IHPxCQxZEFRZ_ndng", "name": "Utegymmet", "lat": 59.31909200000000, "lon": 16.47938400000000},{"id": "18bd41d7e3cc48a89a9e5bf49f49f984.11", "url": "http://lh3.googleusercontent.com/JZbZOUofMgH62zBnRyuckgtNSUcaWwS1km9n6922glQlVba7FlyggxWuXqqulbGqulA6_CS180aFyjZXdga-IQWZfw", "name": "Flicka Med Gloria", "lat": 59.36402100000000, "lon": 16.52055700000000},{"id": "1a30041d350443bf95df208e57d2287c.16", "url": "http://lh3.googleusercontent.com/qvAceQDjjlulkVO5TXg6y0aj33GpKtODAqMlk9ZIlnIw73UzoIoFvzhmlJBiRTA1qrTgxQbkRQcPLlOJkU_q0nzMSQ", "name": "Hällby Kyrka", "lat": 59.38991800000000, "lon": 16.42985900000000},{"id": "1b60a204012640c8b8805ad999371a63.16", "url": "http://lh3.googleusercontent.com/-lSO_SnGn7-Rbft2p4h-e62tXo7JX1NtrTym0glvgs9RfMoSFE4DKi55pD3RvCsoZyNh10l7MF2XdvBBmrqHbD5a7A", "name": "Hällby Vattentorn", "lat": 59.39267800000000, "lon": 16.42172600000000},{"id": "1b9c74e40ad746eea6fec398e13a7b65.16", "url": "https://lh3.googleusercontent.com/5Yj62XJZjEneiphUXqvjBa2JfSLfyRYFk7YLkRqnXzN2r_H1go9DUGFNIKdokGcrr9Kj6L-2EtoTKPsIaS55eSzpYV0N", "name": "Konstverk på elskåp - Free Thinkers", "lat": 59.42442400000000, "lon": 16.47992100000000},{"id": "1d75dfc5dcad4f5e87972041eecab1d5.16", "url": "https://lh3.googleusercontent.com/_lyVJM4yDh1ieExUqVThxa9j3tzk6XwVbykqAioF-gaUKXKb_vHmvQkIdW0BURnfWsDDuAzhiMeT5Gxtm0EO15YwIE4", "name": "Lekplats Elefanten", "lat": 59.39677200000000, "lon": 16.47712800000000},{"id": "1ebee6675f9b4a0fb172be0bf42e6435.11", "url": "https://lh3.googleusercontent.com/0Xx0dY_1m1A-qOgJq-9SuJtnsbE2Awr11P1VQpfPxFa6UJbMV3wfM4jfOv2eO-cwsauweEWTnQkW53-GgZ38wEGhzv4", "name": "StEskil", "lat": 59.37240000000000, "lon": 16.52539000000000},{"id": "1f8568660b754de4bbfaf96ce83cd323.16", "url": "https://lh3.googleusercontent.com/WSqMcQ-pPJP4t5yiKxfO5RjozbU-gkZrDTqMa-FBuR5RqNoLOYCOQLkUDFJqQXBX7eGbJKMO3nVubDk5AJSZnKw14g", "name": "Saxofonisten 2", "lat": 59.41933800000000, "lon": 16.47115800000000},{"id": "1fabf4db0fd245c7aa7c1e775ac5c4a4.16", "url": "https://lh3.googleusercontent.com/YwEc1jM3URnJh_QHMchTmWW_VgHmiMLb3CQcJ-v8MG_w7E_RUhC0ESwWx-vaCggdO4948gFOG8YwFbciUPCbcKeUdnM", "name": "Kulan", "lat": 59.35314100000000, "lon": 16.47154400000000},{"id": "2119ccc32ec94e29a47270a6786268fa.16", "url": "http://lh3.googleusercontent.com/_lMTgvqudfsasqTXQdDD-alj06xuqdNkOBVseloJPCWw61dzbRNMUgBm8geRI6a6ye8hqAp-kBLupY1NzbsxTqriAA", "name": "1898 House", "lat": 59.36671900000000, "lon": 16.51826600000000},{"id": "2188f329844041828c977749317c7e95.16", "url": "https://lh3.googleusercontent.com/UJ_0eOMQtrA2oFgky43ASfn42HEmYMmp2b64E7aJM67xkpwyk6ou2m1blyr032BWznMagQzNBl9s207RyrpuIdKydfYa", "name": "Kronlyran", "lat": 59.36613400000000, "lon": 16.49628200000000},{"id": "21bd79e28b2f4dce8b998483848661e5.16", "url": "https://lh3.googleusercontent.com/wDjGahmYxWzfVhbqSS3Bl4UNDW8O7foBjQy8yyEc_S2PPeXbb2I9AIb33s5ojjy7DT8J-DkrzulJa82cw8RyZgJyiKl-", "name": "Trapphustorn", "lat": 59.36378200000000, "lon": 16.53103600000000},{"id": "21cd571cde8e47f4860862c3f6830743.16", "url": "http://lh3.googleusercontent.com/OwiY1RLPlQ7tUl_bgR4wKfun18rQoep2snBjdpzYz2SZ4vsiZEwgpkj8YeRPx5qjiUSTJAN7709QrMqDQR1tmUbX0w", "name": "Torshälla Scoutkår", "lat": 59.42600000000000, "lon": 16.48928400000000},{"id": "2324b9951e904f52a584791c4c6d473c.16", "url": "http://lh3.googleusercontent.com/TdNCTt5BR1cTtsECyqAR4APtvoO6v6YZn1ZbPrAhiopNL9TRrDniZC9w4vlWDf0vlyO2eIeiDfH6hNw_bHYIr1LUIVk", "name": "Öknavägens stora lekplats", "lat": 59.38968200000000, "lon": 16.41434800000000},{"id": "23643b94c5b642c69a091ac42da7b8fa.16", "url": "https://lh3.googleusercontent.com/XCHYLzi5PqIVMavNgqOj_QTTXWCGc5ueiOLs6fEGz0eCavi-e94pulRkwALcMENJYmZeg_fsBNaXMVIb4Xc2CcXZEX8", "name": "Mesta Friluftsområde", "lat": 59.35597800000000, "lon": 16.43760800000000},{"id": "24ada8a913a94d62a69b70efd20f2f5f.16", "url": "https://lh3.googleusercontent.com/CYZpmUg2_85gI6ueWhppeqmizlOEFx73qwvUO5SRVIeBuA_FVH3YtrdKp4OPAzmAljUjFFSHbj02-MVdFydjwD8UZbcP", "name": "Trekanten", "lat": 59.40219000000000, "lon": 16.42362400000000},{"id": "24b290035ecd474e838681288280c0fd.16", "url": "https://lh3.googleusercontent.com/cHrsGhlscExHestVM_YXmh8lhZBeKrxKO9qtyKkhTnH3FNPRewKLBSQR4DWM6x3yOk8sFYQ4-3R1o9vETkgOT47VRL-y", "name": "Distrikt Väst", "lat": 59.35643400000000, "lon": 16.49681500000000},{"id": "24be04d1701f42e697656f0c142b85d9.16", "url": "https://lh3.googleusercontent.com/v9oliiTGvYc0v6q2hBus-KzX-gg_k_PyqFPIEu5xGLdpdtdDmMAAKsmI--UKmEt1IaLg46_QEHZdbuHFFagdutJVJlM", "name": "Konstgräsplan i Mesta", "lat": 59.34873600000000, "lon": 16.44805800000000},{"id": "2535f1d6b62b3d95bb3db8caa6d2274d.16", "url": "http://lh3.googleusercontent.com/JDLOhO9-wqf4j0RTHWnL33_Eo_scfGdu84VNYG1EL994HKIrO0wcYSRLeOBQtT5FOF9zbfJUzRsg7TkZoPY8LZlUoWQWLDUSsKbmaV-A", "name": "Bouleplanen i Skräddartorp", "lat": 59.44832200000000, "lon": 16.46354200000000},{"id": "25b06463b96a4c0d97c61874c28fe2fd.16", "url": "https://lh3.googleusercontent.com/YJNFgmgy9S8DxYwiydRuZ6gy12H6coXMXDRJhrgVfqcLSNvBnSOqi4A-r4XWlibRxQEvlSLzJNx2FHPogFKtQcNZiPMs", "name": "Skogstorpsbadet", "lat": 59.32912300000000, "lon": 16.47357200000000},{"id": "268cbbbd2e134d478bb4eacf086cf1b9.16", "url": "http://lh3.googleusercontent.com/cFSrg1w33yfBeBhlNxx2LL6dZJWeMd4XBm62LIR-i_udy-0ycsi_cOsFygpz-Ph1BhAaBO-uNxMvQEzZOufdBi6I4_Kb", "name": "Ås Löparen", "lat": 59.27608700000000, "lon": 16.69499100000000},{"id": "2cda1ab0a02847119a1d0369b0dd4dc9.16", "url": "http://lh3.googleusercontent.com/eDsEq6IGXaGA_ytr-Zt7KYCIo2nogSRkXyNRovi5BXoYWEsbl79PbRoa2eoHchD54OJr8IxZNq76vLCEqPwievvgNZY", "name": "Lilla Biljerparken", "lat": 59.36078800000000, "lon": 16.52506700000000},{"id": "2d13cc02547944dca475045e171cdb4e.11", "url": "https://lh3.googleusercontent.com/W0fJ0kZmTBXdrkSPDh5FoxSnV0OWZgkR368f9r1fi1JEgYwrFQrR1QRI_zN8KvuufHivIULGFZkL7jy2fL6pG0Di6g", "name": "Zethelius Grind", "lat": 59.41857200000000, "lon": 16.46258900000000},{"id": "2dfaf6c560f24d379d8dfc4dbc6d22a5.16", "url": "http://lh3.googleusercontent.com/HwKbAaQj74AkfhMcyVVtdYTVJuM2nP1OyW_93VLTVZr9F6QZE1MZ-78iPvsjReFYeGfjBpIvHdg3YV11BMBEIq3ZU-Drdl-J24rufo4fYA", "name": "Rosenforsparken", "lat": 59.33025200000000, "lon": 16.47722500000000},{"id": "2e3e476d081f407da5e07bfe75ef8c0b.16", "url": "http://lh3.googleusercontent.com/ChYKXuHo3WbCrYWv6pWHqf64-ErovteKlQ2fiVR8hcjILK3f8hGxVU3r3yCBHsBezdixQD_8nEqoi79get4KWpdMKIc", "name": "Ängsholmens Dansbana", "lat": 59.45368200000000, "lon": 16.47584400000000},{"id": "30693a96d1f74ba4807ccc7e777b101c.16", "url": "http://lh3.googleusercontent.com/I3NEMRVy3QVRkc8eFs7FEjAyGap7YPRZEgjpZ9dIY_B4_Z9Rz6x8_A0byODttH6j_kplYXJ109dyRhcCs-5rTzM-bSY", "name": "Hällbybrunn idrottsförening", "lat": 59.39572100000000, "lon": 16.42052700000000},{"id": "31834438f02242e9af06043edd072616.16", "url": "https://lh3.googleusercontent.com/7NPEmP3s_zAyW6d8RvIT6JAHP-TLBvkCQuffUvmtVV-pJp6LTD_fmA-T7iAnyGBv_k1-U51P3it45T7jybh6Vo9y37s", "name": "Välkommen till Åstråket", "lat": 59.38882100000000, "lon": 16.46110500000000},{"id": "31c669a274254793932d133f63b003d1.11", "url": "http://lh3.googleusercontent.com/7oVIwd1VovHgxpaxEPBkfZpjg60y4S0-ZAO0RpUfw4YccEr5qa9VYIqyeojQLQrFDqkCgO6nE1P7fC3dLb8lHGCklF0", "name": "Jäders kyrka", "lat": 59.40966500000000, "lon": 16.69055100000000},{"id": "3450f8628376445fb53a866e0a5375c1.11", "url": "http://lh3.googleusercontent.com/t-ina0HbNDQbaiq-4Ucq3SrZQdNKoMsrDdWFHw9bF9R3nw8JmLQKCTatfhLASLJbcWG_IGOLa1JqORdXDoSTB0Ca40g", "name": "S:t Eskilskyrkan", "lat": 59.36576400000000, "lon": 16.51008600000000},{"id": "375828b652bd4cfaad9d6e609bfdd1ff.16", "url": "https://lh3.googleusercontent.com/kCifLQo_ae-C6e3OPWzyX2RSnVj4hYgqK9_np5aCVdRkdfEYyCQ0qx7z4bY4h0dRoAfSwzm03jF3PvIWGSRizAkiIQ", "name": "Slagtäppans Stora Lekplats.", "lat": 59.39435700000000, "lon": 16.49541900000000},{"id": "39ea952215af447a90b49b9564f3ef7f.16", "url": "https://lh3.googleusercontent.com/WJFqsvQZsEcquWjpM8mQWx5W0Eprlicsqsg6EKU9093YvBwOjILLYau48juCDHxbLFzhWjoHMnyK4d4UKMv_JN90k5Q9", "name": "Måstavägen 9 Lekplats", "lat": 59.39331300000000, "lon": 16.49788600000000},{"id": "3b4de229aabf4970b2d96ed74aa96085.16", "url": "http://lh3.googleusercontent.com/h-sLdJ7X0XHXCKVsKsYMs7cE8udI2pHjEzKj1Dzqwkz-wrreYkHmBN59qtHtP4KJw5UHpnfKLo69Y5xtGK8h4UE6Zjjh", "name": "Fornlämning Hammarby 20:1", "lat": 59.40121400000000, "lon": 16.56056500000000},{"id": "3be766a767b54c7e891f291ab7147666.16", "url": "http://lh3.googleusercontent.com/2QJHE_APOLa8Ni74rigsMqPG13xbLOp8IQkYES2gP8lQFfAxJ9eF3PKldvG086q7MfPVei2Uf-2Y7Ko7kT1dAGpcTA", "name": "Garbage can", "lat": 59.38334100000000, "lon": 16.52387400000000},{"id": "3c17dbf44d7343a29cf577a55d997bbe.16", "url": "http://lh3.googleusercontent.com/2_M5tq206bIFtY4rdUkSUizSfMb7IRSg_EpEtDDXyuYDgOEMcsAPZ_ocDqsIld4Ttimp2Lo4xXcy5mdXCnMdDyqzjg4", "name": "Head Blue N Red", "lat": 59.38229600000000, "lon": 16.52065300000000},{"id": "3c57d3696a1b4139943174841462761f.16", "url": "https://lh3.googleusercontent.com/8Rf81LGcAd4TVkM6yDFRSQpksNcExJfcbPKKFvksfB1rCIPE_2zQJgumYRbDzW-rmpCirABX6GgBgNPe5HtJ-uWcvjlI", "name": "Välkommen till Kronskogen", "lat": 59.36411200000000, "lon": 16.48699100000000},{"id": "3d446e2e361d42f1af3e7ad522c20113.16", "url": "http://lh3.googleusercontent.com/N8qAIYzFllme_DXI16KYF3igJi_O0jZXUl_kgWX3rSzVXyiRGj5UonE4UnKRbNKU8ERjpK380mgdubNkCgaHQmN7PYI", "name": "Nyby Torshälla Ridklubb", "lat": 59.41855200000000, "lon": 16.45750500000000},{"id": "40400b2f89c244729350f31fe2fc520e.16", "url": "http://lh3.googleusercontent.com/IQ9rrdMtCppZWnEPscUVmwFzgEhVBY8geylxNagvUpaxCDt60FzncpGHEqOOgxoLebdNMERmsaqdCqLA_0JaHUZ1WQ", "name": "Husbybyns fotbollsplan", "lat": 59.31707300000000, "lon": 16.46105900000000},{"id": "40b3d7aa7e3c42bcb5afec2830dafe09.16", "url": "http://lh3.googleusercontent.com/56twMyWjho1G4G_J6nlteLKzSrXMvC9bP_RzEvre2fEwRpeVpM9apV0uoQ0d4EgMLm74jkvv1t7Y7DSh17173qIztf8", "name": "Fotbollshall", "lat": 59.37298300000000, "lon": 16.54805700000000},{"id": "416847c78f3342839e39eb80e5bdb912.16", "url": "http://lh3.googleusercontent.com/oftOYXimG0BGs9kV_dKLN8JqQmM9VYe89bqLLKZET9TP8tTuqNpZMg-IzjSwpgNTeNJPhKI65yzTO9QBBGopc-Thag", "name": "Sundby Kyrka", "lat": 59.43348200000000, "lon": 16.63582500000000},{"id": "41813a4294e84c2ebc1b95a6d12b9e3b.16", "url": "https://lh3.googleusercontent.com/i5vp9X1HJsxnpOs5YZkbvYb2WQpjG5gNlUdzWIFifjZjs8RJeIpZQTdIj0FtOsKXG__zRrRFz9MQQuhOXyIb-ELeQldh", "name": "Bagaren", "lat": 59.37268700000000, "lon": 16.55625600000000},{"id": "428d160ab92a43aba10a19320f83a916.16", "url": "https://lh3.googleusercontent.com/4phytMT8cQULiYLgjC28_7Xte1UUCCWDjlbYpeE4a0HK-JbXeTJnYFvdArFnwF148qRJS1hSAKsK0d9MTyeiN0MjRQ", "name": "OK TOR", "lat": 59.42084100000000, "lon": 16.45305800000000},{"id": "42992b41cf934612bee214298d4a0fe9.16", "url": "http://lh3.googleusercontent.com/S0JuLkGI5gOjM75yH0mlm1AcW-rtCRbiJK6nW7tBiRG2mjf_kT3bRYUK8uNCwSYSEOw0GxlSzn6o8j8tUDgBK0yMozk", "name": "Bergaåsvägens lekplats", "lat": 59.34566800000000, "lon": 16.43569700000000},{"id": "42e434ceed0d4c95b54e65e2f42d12ae.16", "url": "https://lh3.googleusercontent.com/wDmmJX3GMl5QOPukfko7yFGCfVqCvEgr9h7YHavvphOKKv3n-4wB_qEeFR47EsHw4suZ-0sTIRSlnq3nBjoYHfLWjw", "name": "Tomaskyrkans klockstapel", "lat": 59.35672800000000, "lon": 16.47726500000000},{"id": "43cae3206f2033c4b3ea98d776cc1257.16", "url": "http://lh3.googleusercontent.com/faAC17W6IzX8Ax0YVl1l_Mas7K46ro7DmkO6IG5_q1RIuxyyQu4esiOj1oFxpnbAXYJpd-2o5cygGM10xfGAaaHuocEssdqfhmRv7RI4", "name": "Valsängsvägens boulebana", "lat": 59.31868100000000, "lon": 16.49118100000000},{"id": "45556b959ea043d38ef63d92a84123e7.16", "url": "http://lh3.googleusercontent.com/r9KhtODefPcHFvaIXGLaI3UYTmCsB_XH1W953DE7OPe_WXbNjWuXpVY5beSPc6Y_QdIfyLuIIstaTdJr14Lv4lnlV7E", "name": "Skogsdungen", "lat": 59.38874200000000, "lon": 16.46008700000000},{"id": "474d70fdbddd4837aea8b5c698e07aec.16", "url": "https://lh3.googleusercontent.com/ADSRurvBnPZRrbNc90E5Ilfji55oEqk6H1ZaXqetpLheCs0woTCOgZzyszQd9OD927sX9zp2BnEx_4vKtbjWdyA5h8U", "name": "Granbacken Lekplats", "lat": 59.41351800000000, "lon": 16.46091800000000},{"id": "478eedd248054623af15b773e0021aa0.16", "url": "http://lh3.googleusercontent.com/hMvU1kHxeGeyNCZd5w5vP-fsFrUpfAMICeCX0vsKx1WZ0HZzv0JQeSBsvJiMWwkgh6-2QxZOX9trWA1yvdnQ9n5frvKWmySNdXB3BVHs", "name": "Sörfjärdens naturreservat", "lat": 59.39296600000000, "lon": 16.79702600000000},{"id": "47a61142bab14d1a9d98d23e9478b6d6.16", "url": "https://lh3.googleusercontent.com/TBU3wA6aOzDXzDfq0PDPwT0zdwnNW9FmvovN2FrP3uVbmvPaDNzC8W-6Lg8TZ5XT9b33GC15SR7NRTh1_KqafZnpn3Tj", "name": "Lundqvist", "lat": 59.36358900000000, "lon": 16.53621400000000},{"id": "4840361cf67d4e8f86e6946ef9d8923c.16", "url": "https://lh3.googleusercontent.com/pqspIFnsSqbQL8eMxsCyRzKgJzI4GI0pyt2Whkb7QZSmhwsk6CwkEHjtY_ch62K3jK1O5vqC51QvTr-LBNvx0p1TGg", "name": "Asp II", "lat": 59.37906200000000, "lon": 16.50196000000000},{"id": "489a315faa344f819d53b03a76897b08.16", "url": "https://lh3.googleusercontent.com/RmO2TOuo_FlwOwUxdSR3W6iWZNZJUcfIyvNqkKSAIiv4cIVbCQQAoN7PyMrjHK-uDID11KUG96XGiKBi8oHITkBr2g", "name": "Hon som fångade blixten", "lat": 59.37970400000000, "lon": 16.49319600000000},{"id": "4911f4b9170346a18f7a08711b382516.16", "url": "http://lh3.googleusercontent.com/iNeygIEev4GSjMB8PSViNQTEjo-1tXxbJD8fErIx3LEkuA0sqnaAXJoYFjxDKHUFoLVFST-ndpbipPhAOXnlgFp-hb4S", "name": "Mjölkcentralen", "lat": 59.36697200000000, "lon": 16.52173000000000},{"id": "49c9a18f60df4fe585a120ba72b0fca4.16", "url": "https://lh3.googleusercontent.com/2WZDDwh45Gr-HKuIU71WxlzRKjgbBKXklWdyDG0Sb5jjWy4OJlDPjl8-ePyZNT6JLswi6ygBOE-UBrmRXim6x0syYPo", "name": "Bollhuset", "lat": 59.38585400000000, "lon": 16.51604900000000},{"id": "4b8a424ee4cb39c7b4e509d233ba28ff.16", "url": "http://lh3.googleusercontent.com/qE8UFiYwnGUJgYijh2WJJ1Zth4HFOZ4ORFxEIyVy6_NBrWAICfLmrKJBQUueMdOm95l9QR9N9v8Z1ScnYyDfpsLcBk-bJ-CL-azHjlv1", "name": "Hällberga historisk info", "lat": 59.31982000000000, "lon": 16.59899100000000},{"id": "4cd950660c97464f9d5eb7aad9e918b5.16", "url": "http://lh3.googleusercontent.com/v21AaVSuH3tg8GlDJLF4kDetz9VXExCMgq-WGssC8wQo2I9fJwezxc4wKpYRvUCD21FEPQn3DUcY-IUL0z6oLst2bK7n", "name": "Kjula Kyrkan", "lat": 59.39693100000000, "lon": 16.67457800000000},{"id": "507ac1e91a274a0ea2b73f2e908973a4.16", "url": "http://lh3.googleusercontent.com/LtdF-ViuYx1XJBLrfLqcFUgGJO6aKx6zCKYcyHRzCVkGOPijCN_laYR864lAOi397QeZ8-wzV6yz-TMgX07jSSDQ5H4", "name": "välkommen till Askholmens naturreservat", "lat": 59.45198900000000, "lon": 16.37012100000000},{"id": "53172e291a624f87a66c0aed34179386.16", "url": "http://lh3.googleusercontent.com/Rsw0fJ20lEVa8xzYQzxaZJl6A6ILf_ejydpGwpkYCsqfFveTKifsuDl5t3aIpYP3hv3YGcvN93GBQkuzWTYVlAt3-EY", "name": "Mälarbaden fotbollsplan", "lat": 59.45022000000000, "lon": 16.42416000000000},{"id": "537ffcb2034f4c98bee10865e6f1088b.16", "url": "http://lh3.googleusercontent.com/EEfeNp6JngoQV92FVbVPs_lQIaE5qsvz_hDmKC-vi7rBHj5MGRaf_hOnIUTKvwqYJvjzPcvie14Hvs5mq1IL9Ypr6Q", "name": "Soccer Field Vid Ån", "lat": 59.35788500000000, "lon": 16.50908700000000},{"id": "539cc0774e7a4b9994f4dab4a29f27bc.16", "url": "http://lh3.googleusercontent.com/iJTMEFWZzkHG1Oe-7T5dWR5JkCL30XktW7gFbcpCfUSJNRhOiB3-GZV4eVYpIpZc5lQQUlzw4dp4nUK4N5Tt5AZPmw", "name": "Tumbo Korset", "lat": 59.42547000000000, "lon": 16.33955400000000},{"id": "54221732f7dc41cd9b908cdc441e5d2f.16", "url": "https://lh3.googleusercontent.com/ah9E8DMy3jzrj8VLeqHecLdRt4UrGUxgTeBjm1_u5v3cj7cpg7dBpeE7vCBQp0k0aGf1QiFYaj_zdG2FaqJHcJ-Cjw", "name": "Blomranka", "lat": 59.35529400000000, "lon": 16.51273400000000},{"id": "54aa84d48ffa433696204d516705f11a.16", "url": "http://lh3.googleusercontent.com/2vBB3e-jldo-sb6B2rLl2SlrBYAUiB7XzMmRlyQQF7z3oJnCHNgCEAbVAsGmvfU5Y-aSpheaotHofLahA9HvNqglMM0", "name": "Celes Soccerfield", "lat": 59.38031400000000, "lon": 16.46728600000000},{"id": "57c1e25272c437ce879b4da848b021c7.16", "url": "https://lh3.googleusercontent.com/RAEAr5m3EsBL6ONB46z4DNfTO_2hs7HUPfGF-ZtYl_HrYj9P8mUmyaJ0RBm51Tjag2XzVbCgfEsfYVPqnm2ZURZ6dJpz5jUrzpJN01NOdg", "name": "Välkommen till Mesta - Åsby - Kolsta", "lat": 59.36740400000000, "lon": 16.45984200000000},{"id": "589c707960664b24a587b24a5a445de2.16", "url": "http://lh3.googleusercontent.com/aJcaky7uaa1MYJ5hpfaCCK4MmpnPdbC0CUPpHhlWTbBwXnYG-ymXc31HjgV6EtW-GwwitBkzARP0-vm--O5u2HyePbQ", "name": "Hammarby K:a", "lat": 59.40583500000000, "lon": 16.59452000000000},{"id": "58dc183bf6714e1b9efe39e968756993.16", "url": "https://lh3.googleusercontent.com/LInNVLMaCTuVjOLu26JJ_G7M1HgwY6umAr_-OC39EjSzxI06Zdo4WkTpuHrlZbC7aqg52zJvpzxzeoHvZ5AZAXHOIWI", "name": "Välkommen till Ekeby Ridskola", "lat": 59.37980500000000, "lon": 16.45725800000000},{"id": "5995334f35d6461793b2e1a6e846d599.16", "url": "http://lh3.googleusercontent.com/0l7dbmpmzThDghyrIIUw_52cfQAWT7igLBJH2YiUccjFFdfzj4O5WxQgzlmleuKdSV5YIdo2NbP1d18s0Zf2hXzYwKc", "name": "Torshälla Golfrestaurant", "lat": 59.41225000000000, "lon": 16.44202100000000},{"id": "59c1bc7bb7a24c808b866d14b33d4bb6.16", "url": "https://lh3.googleusercontent.com/JTRKBZYfpK5PDO-PQed9IylPIUV67dWh1sMk10pj1r1iNkVHRsfdrALipwKHzoB6-LKop_IaCK4yxiOZeIVR8FVlIy8", "name": "Mesta motionsspår", "lat": 59.35430900000000, "lon": 16.43876500000000},{"id": "5a12e054d6ea4386a62a7ab68290898c.16", "url": "https://lh3.googleusercontent.com/UCwLDSQfINyVwM9T-jVgBjwl1DDQIhRiXmmxYbQVuqVhLXrko2zxlT_qYCC4biFKgvcq-BtcVZdR1Xheke4yjL3CxNQ", "name": "Diamantgångens lekplats", "lat": 59.35999800000000, "lon": 16.46749000000000},{"id": "5ac41c2b88da4984b7ecba1a4729c070.16", "url": "http://lh3.googleusercontent.com/xBcVAFVkW3bnbGhckP9rlp6IVssbhZ3ft8NqkJcSw4wRQaF1waT1rjor4-wbyxJrLYbp7GOhMeEuLxTlBf0MFoHzvA", "name": "Snurror", "lat": 59.36936300000000, "lon": 16.48302600000000},{"id": "5d6b044a3eed456a9c758e7e0f1d527e.16", "url": "https://lh3.googleusercontent.com/8ry6jDEhfudywNWOviSCV_cXuqDJFgCOquvIKWwg9NCNx3sfH4nTUYlSF_uFdkbdVF9DbQvFN0enq4cBtRAmmT1c958", "name": "Tuna Park entré 1", "lat": 59.37150600000000, "lon": 16.46865300000000},{"id": "5f4981b4593640caba7aa93f8aa5127d.16", "url": "https://lh3.googleusercontent.com/lDbx4ybWYUKqmSZHX_ZK1uQ3NIapxDiy2gddiw8gtgpzYBotwX_IJ0ZNZUcDmEgn52zzMc7MhnM3ATAPu6fEEuWzcQ", "name": "Nickelvägens lekplats", "lat": 59.36193200000000, "lon": 16.46422700000000},{"id": "5f7fea79a8ab4f599ca4a9b3459de10f.16", "url": "https://lh3.googleusercontent.com/7uMh30jISGfH_PwApYpRLyI6fALSqSwSuPTMltqoF7lFZVVmli4FNpVyxAxhMRp44NUumxu7cdkx2TG7o_5-x2pl1lHi", "name": "Mosaikboll Ett", "lat": 59.37845300000000, "lon": 16.52210900000000},{"id": "5f8751f8303940599a4e2bccb376a742.16", "url": "https://lh3.googleusercontent.com/c5_-UVSNiELzl87zyroVcBf0Od5_2187PqGIaQmohE_eHAnoiZ8NLb7ebLVQz6I4MdgpOfjoVcU8WcB9FhC95LM2cusD", "name": "Välkommen Till Triangelborgs IP", "lat": 59.34820600000000, "lon": 16.44578400000000},{"id": "609f6c19033836b3a58884bc0426238c.16", "url": "http://lh3.googleusercontent.com/fmy60kJeGzCwbsCQ1W-5j0eadAqSwPaAFCgnkqVG3XxcVTTIjAusFGZEI0kst_IO7ez6F_57adt7sIxQKaGLIbKhywv5yVda-vc6vITKdw", "name": "Barvabadet", "lat": 59.38136000000000, "lon": 16.79453400000000},{"id": "623cec3796d040f7b755ccfc378e81d2.16", "url": "https://lh3.googleusercontent.com/UKkXYox4O03AAel5IJNlc36tYsWmLZ4Dy7sxiDHWD2ciT-_N1NAi_YISPs8MzPNEV6G4dMCvuE6CXr18XykGzMfk7LU", "name": "Gamla Huset", "lat": 59.36688300000000, "lon": 16.53725300000000},{"id": "639daa5cd0314d63b974eadef45f0a07.16", "url": "https://lh3.googleusercontent.com/U6Ilj0PZZaDQgT6Ujqj0NhXhbAilwtTSNgRy-w_nkYZUnB4ym71d30E7nZVNDVnQqNS_X_Cmh_qSi0P6L9V1nvxvlfk", "name": "Ett Riktigt Fotbollsfält", "lat": 59.35856700000000, "lon": 16.52823200000000},{"id": "6457a572b7434257bb0a08f8086a654d.16", "url": "http://lh3.googleusercontent.com/i7BbKci_-a33y1iQ6D3gyc7-xNQsmxqUY5q75VylCtFjGJjplazWMBIgxNUwBngxi5yrHCviLa-botcRlfUYDa1eM8kX", "name": "Runsten Barva Kyrka", "lat": 59.37198400000000, "lon": 16.78865900000000},{"id": "67474cceba0440d5ab5be49e4cb07096.16", "url": "https://lh3.googleusercontent.com/cRPDU1xleZ2J4VksqHkBYVjweKz-F4oDQUKN73GVth-Frpxqxr4hB70Zh3AtrFm3lfB8g9pDTJuxQPPcO1UKcH_m7lUS", "name": "Kunskapens träd", "lat": 59.34155700000000, "lon": 16.48488800000000},{"id": "68103a60485f47c88c471efdbb3a6053.11", "url": "http://lh3.googleusercontent.com/SW21krMHmHP8wD7GXkUvL4kG_A6g2fKwB-QjMRn5IKdH-XQ6_DKqJsUhyxY60Ub1rIvWT5Qmvv7-TGfq01R6VhdTjDQ", "name": "Modersstolthet", "lat": 59.37211100000000, "lon": 16.50250500000000},{"id": "69bd4b011703496eac64d6231f34b776.11", "url": "http://lh3.googleusercontent.com/lqBwUPNq8pRlD5-Xd7Aqaum_L--DwTvnq_nVKnT0i_XJxsVM-Y6Xolzr2ZhVivDUrZ052jzDVO8H02fFG6seeb-hTG8", "name": "Maj in Sweden", "lat": 59.44801700000000, "lon": 16.62463100000000},{"id": "6a30071d65fb40568f60b294923c8fe1.16", "url": "http://lh3.googleusercontent.com/9QKjUlJ-kLzhVdVxZwHSAGY51v2gcjprKcTnvJO7jnu1vIqlHgfmHyjdlepnOdNq0bhkwfVr2z2O1r9YO_6X04zSIdw", "name": "Filadelfiakyrkan", "lat": 59.42193900000000, "lon": 16.47852100000000},{"id": "6ae17ecc06d34550b4b8d977d9dc6b8f.16", "url": "http://lh3.googleusercontent.com/wmz1rr3JEZt2vV-Q4vojkTYZ6tPaDDxDbrgruifA3DXS5FVjfsnKvFyOL8FPmf-Se1iKaAMq0CIb1_RMdyWqmYPD4A", "name": "Skiftinge Fotball Fail 2:nd", "lat": 59.39110200000000, "lon": 16.54089900000000},{"id": "6b0f1b80d76e416aaa71c268be1344f2.16", "url": "https://lh3.googleusercontent.com/lwYJPpYd__4zcxi9E0rubo5tgYLGUFmH50hIiny8k9sD4vx051iUN6FTzaAsgLstWKoF-ZbX5EyhPZsTXhQmUoeW6wU", "name": "Tårtan", "lat": 59.37198500000000, "lon": 16.52152900000000},{"id": "6b6c6f68a6c94a89a91b8f608c875488.16", "url": "http://lh3.googleusercontent.com/Dhs99wJY1bIcc-59F5pOYmYNNJvnBdLXGaUZVjel1lgD81gRAUwIrdtyBBmqQN7SdQGja0_7vWb8_WdLiJlwBKew2Q", "name": "Dansbanan i Sundbyholm", "lat": 59.43615600000000, "lon": 16.61973800000000},{"id": "6c311ab28de54527806693cd02f38b83.16", "url": "http://lh3.googleusercontent.com/sLWi1D53qmHbbtClY8PsdKC3kOP8nJ_hVQW9GiD6r77SJZXUk5MhIyvGbmvCliTKKnX6XKzOnUzu5Hkcv7NYqv-6S7Q_", "name": "Kvicksundsbron", "lat": 59.45244300000000, "lon": 16.31993900000000},{"id": "6cbe087d455b4b8fa7a16bd8a86ab0b9.16", "url": "https://lh3.googleusercontent.com/a8rn3ym2SgW1rzlmcrqcdxro19OeOIK9Rs3vG2K7v6hd0ReMw5aRMNSelEWPqv5pZ8CR2SIfLvDy8Ylw_9eG9jS1UA", "name": "Vilsta Camping", "lat": 59.35064700000000, "lon": 16.50927100000000},{"id": "6d12a71e6d5c4376aaef0b2cba5efd4c.16", "url": "https://lh3.googleusercontent.com/5wUoDg-haeHmS7KFdWwaHDuFII2Lnl8jNzKQiNfY9BgrPN4bytbP_fI1AsIgBm5o9qq8zfHn9EB3CkFi3LXgyJAsjI_Y", "name": "Gravfält Mesta - Åsby - Kolsta", "lat": 59.35474000000000, "lon": 16.45354300000000},{"id": "6dba81b7070f436f85ea4083e320df8a.16", "url": "http://lh3.googleusercontent.com/7XbLe_MA2vaRZ0WqCL1F2Kng8UTaKAXT3Ulb9peZaFHAa9dMX4aY1Z6vdoC64jKBKl8WwgpF_0xPZsJk5c6TGD7DYgAG", "name": "Järnkatter", "lat": 59.37182000000000, "lon": 16.47954800000000},{"id": "6ef32aabf9ba47b9829a81cc9203f841.16", "url": "https://lh3.googleusercontent.com/kZAorS-fspltT9xbLyct8d6t8IfHrlWH6SRvdPKTzfAPgNyyHHz2sa-3GXWU7FKN7aoBGsXmCPztpEtA4Tie859wSw", "name": "Borsökna Football Field", "lat": 59.33943800000000, "lon": 16.42165100000000},{"id": "6f8a18942b9b4101b4a35d22f0c9360f.11", "url": "https://lh3.googleusercontent.com/CrEwRHvbMDr_GPEUT0NQV3_qo7WL17EGLs747ZKlNqrhbBBZ0NDxD2L5v7o8z4NKz_bKM4_BGUw_E8PrHVC1xlGcFzc", "name": "Munktell", "lat": 59.37681600000000, "lon": 16.50906900000000},{"id": "6fd93a7fb41f43aa87ae23a2fd607c2c.11", "url": "https://lh3.googleusercontent.com/sV6Gm61JnhwLycKMre36Md8xcWnH0knzdrtJw6B5J7P13wh3R92j8hCDPrRgL3P_FwHre_IqFM7dMW8rEm46z1vDU7dO", "name": "Hemligheten", "lat": 59.37781100000000, "lon": 16.51107000000000},{"id": "6fd9d540b98d4dca9afbe49492427b9f.16", "url": "https://lh3.googleusercontent.com/RuerYWxKY2pcPhwOQUpTrEMEfCf1fkOsaccl4jfhIOmdEzUlRBatGC7__yeuuNwsdUMNpLnWa6NVeHfb_g0uiJKNLA", "name": "Basketplanen", "lat": 59.38500000000000, "lon": 16.53912900000000},{"id": "704977308f5b456db35862942aef44e8.11", "url": "http://lh3.googleusercontent.com/VhiCUUFWSk7WKY-QP0LswmqOZ1T6NgiOEehofKlODv98NabVOx6w9BnaYxdOXUS3FS3n_Fp_N1_lTDzUxAWhzJbXLUc", "name": "Klosters Kyrka", "lat": 59.37473600000000, "lon": 16.51816900000000},{"id": "72fe64a5810842f1a3b326968bda0342.11", "url": "http://lh3.googleusercontent.com/1OQiJsK7nyqKY2J3SAbcnucOMOz7KUfXqBQZiKwemLBUeWOrHEAIkBjkCtjblo9QyI5DyA5ttzMKXyag5WWgxWpVrfk", "name": "Ikaros", "lat": 59.37924800000000, "lon": 16.49526600000000},{"id": "7427c2bcacc24736b4d01b3472423d5d.16", "url": "https://lh3.googleusercontent.com/KNVa4fOdAsTr4c_KO-ah6hpNmabQJbsLL_3CQe_j1TlcZkHF8NiAv2WHXkRVUkHDyP0QkGMN0orUlWujYPHPELxq_Gw", "name": "Häst", "lat": 59.37165500000000, "lon": 16.47751900000000},{"id": "764b907cc2084edd9a32c078736e54c3.16", "url": "http://lh3.googleusercontent.com/OaauqOO1we9LvA060FVueqZAhEcG96U7hDEQldlVDT9Qw4rpC1I0vDaCEv6z4I5k6K_hDFXPVTwABP9ztqq5KHEQmik", "name": "Mälby Fornborg", "lat": 59.45756500000000, "lon": 16.65994400000000},{"id": "77673206b91f4c1ab03db4d3d6bcd816.16", "url": "https://lh3.googleusercontent.com/Z6n4TYVWJ27XtKWtQAE_4TrBy5ZWwECeQbDMH_izBkhMFOexqaeShIC4RXLN9joz2VwAr2XYRqOA8eAx6rpMQjMApXQ", "name": "Lekpark på Midgårdsvägen", "lat": 59.32797100000000, "lon": 16.49043100000000},{"id": "777d1b15a6be4496bd36e03d03ad5c21.16", "url": "http://lh3.googleusercontent.com/tM-KntPFucrDsyULuAJR7655rrkEUvvUUBki_5oFtWGsp4nbPYMWu3YmDezggfZto3irCD-U0MkZYEhbCj2DAAStQ_g", "name": "Slagsta Fitness Park", "lat": 59.39281100000000, "lon": 16.48634600000000},{"id": "77d6a08e766e4caa8aff2fb88155a6fc.16", "url": "http://lh3.googleusercontent.com/s9CnPX1BTJpkg2jfcsh31Da5ZU5eQffVWvGNV4wB7oZVTQGpl-9z7TkxDwPV-O5rMUjaOYgRmvT48dGnQawLEafpi9c", "name": "Västermarksparken", "lat": 59.36460800000000, "lon": 16.50105400000000},{"id": "782215dc3f634285819dc5d9c8b8366b.16", "url": "http://lh3.googleusercontent.com/3mXW8QD_CW9ruvpK39vLxawmasMaMtuwPAQaTIJhlrOFlWjbPsZqRx-9AD5qEPY6VOfj20EVEbs3ncj3siT2Iy1nFA", "name": "Vilande Tiger", "lat": 59.37049200000000, "lon": 16.48098500000000},{"id": "78a3161499c449e6b2adaaca69d1900d.16", "url": "http://lh3.googleusercontent.com/1qVA639b5WZnt6lK1m8WtEXBLfsZ8Wd7EN1e2tuLD7ibGRt-bAfPxSPOdMRfdJ5zQaZ_Bk4qSqBvJPrJ-nViax39zdyK", "name": "Kanonfamilj", "lat": 59.41887600000000, "lon": 16.47167400000000},{"id": "792b577f86f64dc6aa8511fde8f118a3.16", "url": "http://lh3.googleusercontent.com/jXK9of7c0tEsaB_25Pauil26wOqEcbZfyft-cnciW4FqMjmOV5oHG5dpVf8O_WYGnr7u4I7IIF7HdhSV9FnQl4tC42Af", "name": "Rutschkaneborg", "lat": 59.37813500000000, "lon": 16.53049400000000},{"id": "7a16b620f18945dd833aa2b50b54c513.16", "url": "https://lh3.googleusercontent.com/skorGpbcI1mSPsjGK6yI3g7Vcx3vtd5XTKGAScojmCgoE-J_Lumcje5b2-auLFbe_ICZtIAjZYhhhJPFl37Zoqt_3vg", "name": "Solur Åbackens Äldreboende", "lat": 59.35966300000000, "lon": 16.50724100000000},{"id": "7a4db5d004ce48fbb1ada2dba47b0ab5.16", "url": "http://lh3.googleusercontent.com/a-3NZ0FqDTpKJ6IxCU7WYC03vM5yDw1djCSuyQnYth_yZqWLcQugkv6F2HFMUNqz-YlfCHZMIhUe8gDHN6TPGnxJXQ", "name": "Multi-Arena Solvik Friluftsgård", "lat": 59.43310100000000, "lon": 16.42677300000000},{"id": "7b3829e8e21c4c8484196d62f16515a0.16", "url": "https://lh3.googleusercontent.com/BzVgOlptFsTlHzCL_-AO5yy7a2GjNLVnwhWr19MbbATok9fswt2ILSBFnSTPNx2xEApNxtv_lKeQhu5AVJcVUw4tcvb-", "name": "Tomas Gustafson", "lat": 59.37260000000000, "lon": 16.54960200000000},{"id": "7cdd8b260b044337aa092417750cc886.16", "url": "https://lh3.googleusercontent.com/W8wAz5nZ5LbEyYel4Pq71s8x3M_onSqGjQZA5TOEHDu5j1htRaRtNzFrnEpDqclidSPd6ouEpux3XSI4sLJhwoJn-Uls", "name": "Järnåldersbegravning", "lat": 59.36007000000000, "lon": 16.43983000000000},{"id": "7de0e4a555a5428cb43d96470b62d456.16", "url": "https://lh3.googleusercontent.com/9MC5g6y1CTlHwHNosnCeDiav7Pzp_C-iwE3ZUWGl0_iDkHNdOZ5c2PzXauD9skEvPerqxY9XJ8sFpVSt9uhhNHaHbg", "name": "Fisktrappan", "lat": 59.35214300000000, "lon": 16.49621500000000},{"id": "7ed308bec12737d983b1b5593975d306.16", "url": "http://lh3.googleusercontent.com/SI8GyzT7oLPWQU2uNLGwA-mY86FqEr5P4btkG5Ztu_yXyYJ7S6oE03h6KE0MM-9pWPbs2gu7xDKamXth4A-v3bF7_cFHoaGV6N4pRZuotw", "name": "Anslagstavla Sundbyholm", "lat": 59.44432900000000, "lon": 16.62169200000000},{"id": "8094e08453a9453c9385cd597fd53df4.16", "url": "https://lh3.googleusercontent.com/ONxqpOgVt4bogwvcdH5ngCv0TIH4L5pEcEUlKerjacZI2hT05UV9kQgndMZAvMGnHMKgHUGypfWiZCC9br2O1M5AAg", "name": "St Andreas Kyrka", "lat": 59.35912000000000, "lon": 16.51712100000000},{"id": "835b9d7a6d0247ddb958643a07e1bfed.16", "url": "http://lh3.googleusercontent.com/bfo0qcdckCYeS_nydXYiip69VIYgBjSfqqg9a-8rTyhTQ0hPegZTJWph6Hm8kA5fcpfnVpkjclcWMSMqxmS80nUJ9Tc", "name": "Bronsåldern I Barva", "lat": 59.37034300000000, "lon": 16.82225200000000},{"id": "84cbb2417ca14dc08cf6667ed844536a.16", "url": "http://lh3.googleusercontent.com/Dye2klAsvpFp8cyrwvkw0ttbHxJjIhvvdoOZ0w143DBKPE3C_O9qB4aiMeylYx3YxBz9PbRlhw-m7wKi_hiLXjadR4c", "name": "Ansgarskyrkan", "lat": 59.35742000000000, "lon": 16.49945300000000},{"id": "852b3fd69d304d3f9bbefe35810722fb.11", "url": "https://lh3.googleusercontent.com/S8lnrvvgXV8X-npPEBmKzfIbbfbq8yjQUoOpTb_ya6DsdKRJGERqVxX0N6Hp91N0arS4PrFIm3tPb-7C6LgpVf3U9_o", "name": "Vattenbärerskan", "lat": 59.42025400000000, "lon": 16.47513600000000},{"id": "8749070a635b48fc9792239d99179b80.16", "url": "https://lh3.googleusercontent.com/7UBHZ1r7Tkg9HwimhOLD3MxzyJW7LZ91u9MRkNnMMtknk-4e2i2sHiMQaH9s3UQhieC27v7rsxedAeKhupWtUTZ1b1IF", "name": "Lekplats Sörgården", "lat": 59.35250000000000, "lon": 16.52850300000000},{"id": "892c73c5a5bd40878c604bf65bbac538.16", "url": "http://lh3.googleusercontent.com/N1BJMhFnHjXaJRdDiqf_SWBg-4fucxTPAAF5sr1HN5PPRxL7fqZyipJqBrGfMILEqMhzGAcAESjmSm-4pC3E9nAIa7XU", "name": "Balsta Musikslott", "lat": 59.37800300000000, "lon": 16.54326100000000},{"id": "8a4e3a793e394fac8c4f34626167ba1d.16", "url": "http://lh3.googleusercontent.com/y-VDp1tYdFXFYhIFEGeg6YzTHaFrsbHKwLFlIr_9n-RvnubHYOS5ndDoySoMS2QTojIbbijf0JM4sKZR4c4XDpzrAg", "name": "Väderkvarn", "lat": 59.42259100000000, "lon": 16.46707200000000},{"id": "8a7bd05db4204cbd8e8d584cd96985fb.16", "url": "http://lh3.googleusercontent.com/U2K3lWWt4LxsBM5_MYbqVaLFSrRTiDEDdy-qGKXYaHv7H8sSyMGGmyK11zSW1EwZcZwqjtUiruBvnOPbSXYep6d-4do", "name": "Lekplats Thermaeniusgatan", "lat": 59.41517900000000, "lon": 16.48853000000000},{"id": "8e2543cb3a99407796dc892cf3fc5654.16", "url": "https://lh3.googleusercontent.com/HkxYAyy9cLZxqFi6MCEU0YidaXu1e9wMp3Sa5JH92af_j7T_Zy-JkhuYcCjI4ZqQb5oawDzJHvqaJob_80g7_ESN8SU9", "name": "Petri Klockstapel", "lat": 59.39236400000000, "lon": 16.49083900000000},{"id": "8e44d8a86c1048b0849aed544fe911d1.16", "url": "https://lh3.googleusercontent.com/PqGaRuyTOeEvfs6OJTtdrcCfURqQgz2scx3kqC0nynHdAym0Zqc24YcG8kydeA4P8wXyX_l_Xjdvr6aVijYTosmc6A", "name": "Runsten Sö 109", "lat": 59.37496700000000, "lon": 16.54557600000000},{"id": "8f3bdd0475c3470e926abd7e4e128ec6.16", "url": "https://lh3.googleusercontent.com/5q0YIjm7Rx_G03sroPgO-mivb6fSxtYvwrKcnmw7wsXeZXin2Bixu5N4a2MhJEMxO2Sm1liW76F0I19UDHwIb9TcCg", "name": "Tunabollen", "lat": 59.37113700000000, "lon": 16.49703700000000},{"id": "8fd9f01e7b624a888db43053ccfed333.16", "url": "http://lh3.googleusercontent.com/kqaV1PPK88-JmCB1wvKygWDuosWeuwZ8AeX-Hq9OmvIr6K5Wj9Pzm6De2aZzNP0pJ5ze08vWsaRitCHivqcrfPnRkSQ", "name": "Jäder Runsten", "lat": 59.40956800000000, "lon": 16.69122300000000},{"id": "91ce3e89d3b04b679126f75fa9bb3f3f.16", "url": "http://lh3.googleusercontent.com/PR166kaZgL3Ovpw1HuqYi82ND4YUhQ5wpmHKhgWXBGCKpRaVThI2nqYTdltX2fcPpct4QxJOBj32HPP1zRMiVX0z4Q", "name": "kompositioner", "lat": 59.36565300000000, "lon": 16.49324000000000},{"id": "939925129a6245a0945efc5499952969.16", "url": "https://lh3.googleusercontent.com/isEjlIk2QdSsSt0YTFbbo3XiHMxCNBppFrde4JT9HtnKlAxyAHVJjN8EM57TPiWbuzeFrXbobhVn6_tbJco1H5INhQ", "name": "Torsharg", "lat": 59.42154100000000, "lon": 16.48663200000000},{"id": "93b11eafe5654534a39d69acc44b2e7d.16", "url": "http://lh3.googleusercontent.com/fndgtHt4a64UwZKbdriGKQBMEUcUbEpz8iARDwGhctfjnojjXGbn_wzqy7Y-VwWq71hYP0ohbNzs_SQgiCKKZd__Oyk", "name": "Husby-Rekarne Minneslund", "lat": 59.31556100000000, "lon": 16.45106600000000},{"id": "93d4e8d906a1464a96fa99cc720ebfbb.16", "url": "https://lh3.googleusercontent.com/EN-1Sh_wrK7V1ipQkihHodeVPRFxrK7DU0nQvnCj1DeNmsIFjsFl_MMt4Bs-J0_asBA2QaZh2vaCBIRuIdroqRen_4U", "name": "Saxofonisten", "lat": 59.41773600000000, "lon": 16.47284500000000},{"id": "94035e54b8824825a349bafd98fe751d.16", "url": "http://lh3.googleusercontent.com/3j8aCHM2-_3Dh9svOIPF5ncuXBxl2iTlzoJP9bsho543q4DndugkbPH2nR8eXM7vxEJiPY9sA8YRuSqNe4xkSqwHGg", "name": "Utegymmet vid Gärdesvägen", "lat": 59.34709700000000, "lon": 16.45492600000000},{"id": "961fc9f8c0a44a96954322ffa68cf981.11", "url": "https://lh3.googleusercontent.com/fWQV5eEbICPZRvjnvOdcPXPedwNNSzTbwzXVOXVvJ7Z0w1AAQwA5Bd1D8zSE9PAZrphjmSbVobLDOGXrXaaK6egvKhU", "name": "G.W. Dahl", "lat": 59.36630700000000, "lon": 16.50894600000000},{"id": "9644f7074ce440cea3a9a4bdebeaae1b.16", "url": "http://lh3.googleusercontent.com/TBJtG7tp_KHusMfIdPg0nKt8IcZuNEy32ln8QAukEMezh7b1MguJuZuZv20ALQG04UkldTxXWkx7xx6C4ggkH79rBBg", "name": "Torshälla stads utegym", "lat": 59.42755200000000, "lon": 16.47375400000000},{"id": "966286bd7f424f3e8abbcced8ce59f28.16", "url": "http://lh3.googleusercontent.com/XlzwSmzvwM9hrwjGwTxz_NyTGGlJSKqr2gCwxOjDj2Cf1dwDH2uP5PzPh4DThcChGPi2X9qoexY3hj9K582F5i7nB64", "name": "Lekplats För Lite Större", "lat": 59.37365000000000, "lon": 16.53759900000000},{"id": "9767fa57b0b242a8a70eedc9f80073d4.16", "url": "https://lh3.googleusercontent.com/l2BQc2IxeVD_ibeFoPIWb9-IaoSlIVqCxCIFsIIqZ91iGx7idgH_2Tz3x8zZlTaj-9VyDKSxKPloL-jXxUZhu4jyfw", "name": "Lekplats i Myrtorp", "lat": 59.35856900000000, "lon": 16.48956300000000},{"id": "9b2bfadb18db4e9f9befcb5e3fba7738.16", "url": "http://lh3.googleusercontent.com/jO3GQFZaytefu36TCZsJKNm-yJ4PtmACKY52jqzFUINKQg702dlyAmiF6V6CNENe6obvgugVq6Xn9MZkgFsqsFKpdb9k", "name": "Lekplats BRF Brunnsparken", "lat": 59.38805600000000, "lon": 16.43608000000000},{"id": "9dcd49239f404b3c99b48d77bf47daa9.16", "url": "https://lh3.googleusercontent.com/0espzAMU0WpC7vDQwaueUSqPBDyqcobnbQeuPjhhy8e2Ip4K0LUwngtOWflBaaOT_xV5i94hGYvtO7SJwFt78zbSPx0l", "name": "Karl Hovbergsg. Soccer Field", "lat": 59.38641200000000, "lon": 16.54448500000000},{"id": "9de1cad9171a4196b767d62545fa1675.16", "url": "http://lh3.googleusercontent.com/WYwQcEbs_JDEdMsBDjvMtX_ttgYSbx_KwslyDkSDmIaTcX_CQVNVjtiYw-tm3wuRIh_6bXFeUQkmriIT3wqLd2NyOvIQ", "name": "Lekplats Trumpetvägen", "lat": 59.39954700000000, "lon": 16.47579200000000},{"id": "9f0703ee591f4710972df597f4da90ac.16", "url": "http://lh3.googleusercontent.com/kdiOEyUsJdW_fYs8cwHCrx6KXUzys5SR8Gg8YxJqyxMXFiemPB_ciGnrXqyOXhgJ_2S3jf-huuPfkAtawqphayXNuuWR", "name": "St. Pauli Clock Tower", "lat": 59.39319700000000, "lon": 16.54253200000000},{"id": "9ff32e79999f40c8b1e1233ba162a253.16", "url": "http://lh3.googleusercontent.com/pZ8TV5jF2AL285cXOF1p4uPkgHLbhBj_t7NpEzk0Vw-384GHoA8lLJgGvUWl4HaiSAxehD9rs5hm-Lewi-zleG0IvU4", "name": "Katolska Kyrkan", "lat": 59.36820300000000, "lon": 16.52982300000000},{"id": "a0cc50ce8d45400d9897f592df309db6.16", "url": "http://lh3.googleusercontent.com/HeBUs5kOMZSfATpLud3IKmx8JTj2Bsyly6GWFIh0wcwi_8OFCuBFi7VGSla2IDVrh7wEMpzVBnSi3W5T066U-7gXIM5s", "name": "Kungsvallen", "lat": 59.38460300000000, "lon": 16.67709000000000},{"id": "a113462017944bcb99eca8cbca47758b.16", "url": "http://lh3.googleusercontent.com/_EjagAcoOAgtJfWfDuiq1kQba02zb8oqElNbWx-I25J_OV24958W0v6QjRHhvAopAcM91GONDHfZDaO09UZ_ZQFTMu7L", "name": "Utpumpad", "lat": 59.44674600000000, "lon": 16.62325300000000},{"id": "a1a9e5fe1a5044df804daaea6c70d313.16", "url": "https://lh3.googleusercontent.com/3GgJoez6IyjRTT7KH79nqGyMfvFwBTgjmWoTIG0R_Ov0SVGNMBsGPowp2YWXN-qSFu06oltEHi9AnlED4y9j3ZAzavMK", "name": "Faun och nymf", "lat": 59.35585400000000, "lon": 16.49921900000000},{"id": "a45cf94fe1484d3896516ef77cfbddc5.16", "url": "http://lh3.googleusercontent.com/O7TGwSri3UTbEOCqA7eLqlyJHDZx_xoo9BFACn91Wpkh7VzATPSVj-HMO4SA4v0ZCqlSxjK98DJIpqKAwGu-YYSsLA", "name": "Holmberget", "lat": 59.41918400000000, "lon": 16.47322400000000},{"id": "a4ce28c7283e44308665dd299af6d0d1.16", "url": "http://lh3.googleusercontent.com/8EssI4YLlp95VcObiSydwziKW0q3DsWS9J4DmE6xIYCGLoJjr9BpSMFKoZjjwbul_fiGMFe8BI3DrMF6wk-WBlnpLmE", "name": "ZeroOneSix", "lat": 59.34149500000000, "lon": 16.47932000000000},{"id": "a53838d4e1b546b0b9cae6d31a1210d4.16", "url": "http://lh3.googleusercontent.com/f-YCgJ-EOjtVMyVC1d5-QzHriOOHIUqDIVJrVn34lWXloySP-qms2IyHBhbScd7T3e8qrK4Jh8ucoIvAE2zz0A1qqvo", "name": "Silverflammor", "lat": 59.35490400000000, "lon": 16.48075200000000},{"id": "a76e6e08a8a844c3884d76f6a6d55596.16", "url": "http://lh3.googleusercontent.com/0ll5H4C_Lzz61B7QdsMbgu--2H2ksc8pCipQTzwEXioAC9x_Pbymy32CT6QPx3wAAhw4pXF6LRtJnepQLtuqEQmJUmg", "name": "Åsby Säteri", "lat": 59.36484600000000, "lon": 16.43810500000000},{"id": "a790f8a8512642aebb05903c8167c44b.16", "url": "http://lh3.googleusercontent.com/WWI6-ql7G1sXqygOOQUtDAKkGdLU-ygyjkxf5J9X8OT9qdM3Dav-tPaTIoMDKZR_5XTYqEIk31_Lmdx2BRFhzYCldjyt", "name": "Solbackavägens lekplats", "lat": 59.37262900000000, "lon": 16.44254500000000},{"id": "a87b45df1dda405c999ba635c13a3c86.16", "url": "http://lh3.googleusercontent.com/lRApanEM8YPe8ypx3LXAVXhLel7ZoxM6okC7usulLxsPYBzBLVlQL4DUlJvGIF390uaGNlTPOyHmS01CpFpJdfMOmko0", "name": "Svalor", "lat": 59.36658500000000, "lon": 16.53223900000000},{"id": "a9eda178856047eda4f709c082a0c9a0.16", "url": "http://lh3.googleusercontent.com/gVSDIqtcOmh8iDUcHLwgDVPGGHZf1tXsBfOjkabh_wdWltUQJDXBy8z9-goYG-zJjs_gl1yXkYv8qmxCTZ6JzCfasQ", "name": "Grå Valnöt", "lat": 59.37540300000000, "lon": 16.50653000000000},{"id": "aa086f8514914b5087cfb8de5fd82e0a.16", "url": "https://lh3.googleusercontent.com/OAX8mic5l5tgqDkhmDz_JyRYFm0CiHBeRjAbFQJhzHUQWr9NRpLbOyATIYx9wwXxLCKv1pKuRbdnWFy3TeE4qbWreqGQ", "name": "Lilla Kloster Kyrka", "lat": 59.37032300000000, "lon": 16.55404600000000},{"id": "ac204645f1cb4b3ab64950774b205855.16", "url": "https://lh3.googleusercontent.com/uDisjLdKOLuueweekHrGOxkeiES4MzbG83xWqPLw7fjtLDnaVTZtg0ERuqV30OPjAdRrbZjcJ0l-kvq9Ge3oO7YKMw", "name": "Lekplats Säbygatan 22-28", "lat": 59.41810100000000, "lon": 16.49189200000000},{"id": "adf83000449c4d6e9a0c45ffa4b48129.16", "url": "https://lh3.googleusercontent.com/xRfHVtWrVQYY9DF_IoOkV9nRHZmhjNKgHFnfKsmBZgxj8xTmS0M5NjkkLPLgwD_jl8sJveJifiQsFFuBfLk6wl2n1lXO", "name": "Hästens lekplats", "lat": 59.38010700000000, "lon": 16.45721200000000},{"id": "af43692631a04e91ad0cf53ca6d49399.16", "url": "http://lh3.googleusercontent.com/XQV_-L0Lf_Yw3V9LFlzZnEsYo-4rUF0q3nTcXMgQA8APweqQFaS8p1yhXMZ-IrIsMltmg0IA1PCwsnHwc1CpVUZ6VVs", "name": "Mälarbadets Lekpark", "lat": 59.45188500000000, "lon": 16.43405800000000},{"id": "af5fa52e57c942f2802c6af267792013.16", "url": "https://lh3.googleusercontent.com/G-opTYPCdiTp7IK5vkP3FC2svDKSnwMj0b9Fqsf7lcUt68JhAzLZPk0Df-iL_CFDC7hK4OoXmVtvH86I9W_7FGKDVg", "name": "Årby Naturreservat", "lat": 59.39243700000000, "lon": 16.52788800000000},{"id": "afc290cde6be447aa4060abe90726ea4.16", "url": "http://lh3.googleusercontent.com/oYzeFnoUfRWlqOBBpC9RyJta_JEB9oX6F7VgmRkEEUfxcyWymHWdrz0l15LZOKmUZrhNqiZ7BTm8dnvbWdoTy9W66II", "name": "Norra Sofiebergsåsen", "lat": 59.40689600000000, "lon": 16.65781100000000},{"id": "b0a85113cd914aa3bbf6960ae9fba018.16", "url": "https://lh3.googleusercontent.com/bJcROQgr2xvTozYJbN-wjM49Jd5-5tkLA3kg9w5LLaD03ushvJIFG8l1012E37UU4--2OEimf1L2rU1FqHYP7-5aWpc", "name": "Spelmansvägens lekplats", "lat": 59.38177800000000, "lon": 16.53510600000000},{"id": "b1c4808afe514d8e8857e8b0ddac1124.16", "url": "http://lh3.googleusercontent.com/4h9e859OqJOThjGaqW_h0_T3uDxmX1NQSqCojfb7QCni4l70qV0xr7SwwNwX1VUWd0JqzDfNvuzN-L2mpb3ccsvKRlY", "name": "Mosaikbollar", "lat": 59.37639900000000, "lon": 16.51991400000000},{"id": "b3296ac200ba4b138cb61682a3b70afa.16", "url": "https://lh3.googleusercontent.com/oCAiJvegckNumY_FFohbUKKy-HtF7YNa1NVpFX5bBDXfNCb2HfJlFKvsI85BW4uH2-AQ3vEOAX_eu9W99JdWHDuZHEc", "name": "Naturreservatsskylten", "lat": 59.36472300000000, "lon": 16.47502300000000},{"id": "b3b740175dba4960a95e6f1cb51a3390.16", "url": "http://lh3.googleusercontent.com/8e2IEvTeapHYYxua-6duo82b1M5LTDBWe18qH4SLw0QvS_YGCsRdbYkqxay73udcrOpYHEgM4ZBAjGSv-dLvtL12kI4", "name": "Utkikstorn", "lat": 59.44572400000000, "lon": 16.60372100000000},{"id": "b7f7471b13cf4da588aef1c8b723a20e.16", "url": "http://lh3.googleusercontent.com/fv5bJ0dOEPXcxhOHq1tev-18Q2cLeBmR6J7J0sOWfBNjUhpcjSb-CKQ6g4DUzi3W4U7vexDBW8ReN9ThCSgy3BR-VUY", "name": "Ljugarbänken", "lat": 59.42694500000000, "lon": 16.47404200000000},{"id": "ba32416c152748d7980c86f7519e4f56.16", "url": "http://lh3.googleusercontent.com/dhC7cWSWXboKqgcCrDmvJuCsuXhz99zqPlN4HAdbugbs6a0uxv8kebzI64-Kn_t5TUhqTE0tbmISUE4O65LdbGeYLIHu", "name": "Pelare", "lat": 59.37270400000000, "lon": 16.50128200000000},{"id": "bae82e585b4943fe81dd8b92dd4008bb.16", "url": "https://lh3.googleusercontent.com/yWc7VOHKKlbW2ikDxvyoQ6ZhC3xD-WuUmJ4QmxfgecEIy6qsAjscNigKRzfd7ZQjP3As2vKSdwvoD1EjOYfb3TrAe8g", "name": "Häst och Pojke", "lat": 59.35840200000000, "lon": 16.52670200000000},{"id": "bb7b668fadda4df3a5ad59fc682f5cd0.16", "url": "http://lh3.googleusercontent.com/M2l5oX-D5k5wggQwXelP_u9brS5ZBkQvRCiARJP8nNPYREczs4mLGVjtgZ-dSfLzHWFTGgZTw7jB5rK9UhtM8DlsRJzO", "name": "Soccer Field E20", "lat": 59.38926300000000, "lon": 16.49918000000000},{"id": "bbdd0e8d1355463fb3914bff825cfca3.16", "url": "http://lh3.googleusercontent.com/XUUT_3r1IxzaXIsbS2sBaDmuOKB8EX49PQMdKBLleJgHZ4JujZxmSI4dZNxfwTOjZ0VZKWL6K7B0cg62lpocobCSNw", "name": "Welcome to Eskilstuna", "lat": 59.40513300000000, "lon": 16.28525900000000},{"id": "bbe81178326540bc9a9c4995f845e1f6.16", "url": "http://lh3.googleusercontent.com/hwbgSczbunsbFAUM1YXKgc76m6GI6krZYhB7KIjNIGOdMNX3NeGikhi9YAutJFMDW_wao-BOe6SRmUv-F_FydFhaZw", "name": "Mälby dansbana", "lat": 59.45044700000000, "lon": 16.45931200000000},{"id": "bc7ed8f869604ea587c054a2fed54b31.16", "url": "https://lh3.googleusercontent.com/AmljNXMqLAb1u8ZCLIBpdZnKQ7Q4PbFXLv-IVBTz17JCDMMIYByvkiHPHQ40dLjwFvFcATkcamZ5afq-kePZM0dvvUg", "name": "Välkommen Till Vilsta!", "lat": 59.34891500000000, "lon": 16.50464600000000},{"id": "bf337b92be59467e8143189cc6a90bb4.16", "url": "https://lh3.googleusercontent.com/YbzvTTcnnqQTy3uozN-2e54MARvszsjQg9mgcJlW-k-D2yJ7fBcROmGijPMNxu8Rw0LPA7K3jLSEvWtww-pKZUNW5w", "name": "Borsökna Återvinningsstation", "lat": 59.34843300000000, "lon": 16.43926300000000},{"id": "bf3ab40453e44a9dbbaa0f5cf74c4cf1.16", "url": "http://lh3.googleusercontent.com/s8sZ7Z318fn0BcYPACESQ7G6TeR_AOdRFeAaiAEd_3VE00-AWWr4fCNi7iVN2SXGV4sTcK1QY3GYnlUs1vH6KVlvsfk", "name": "Pingstkyrkan", "lat": 59.28065200000000, "lon": 16.67838400000000},{"id": "bf7e354c0be645b6b162299361b48470.16", "url": "https://lh3.googleusercontent.com/IFHdr0VpOAmnnBuaDbJffVLybfFywUqOEkAud7MlstjVXQTg1kn0dHN1QOyX4bQbIsbmlHQ6hyiUxUv3Bi8HA1AyqNQ", "name": "Hälsans Stig Germundsgatan", "lat": 59.41893800000000, "lon": 16.48449100000000},{"id": "bfd2172692744ae5bb4fd7430e71db5b.16", "url": "http://lh3.googleusercontent.com/fUD2VIfOnoaT7owD0bSNTelMsgRfGX2rIn5jFSNmBTbhXRIqrjXv59jvsDfaOWDWH7G9eYQAYXlSCBKFnP72GJPMO_Q", "name": "Hundträningsplats", "lat": 59.39101000000000, "lon": 16.63479100000000},{"id": "c07326931b694006846b2a4bc384aeec.16", "url": "https://lh3.googleusercontent.com/YLxSl3DGL2UNQlGhK94N1CHtRKms1D3ST7UAB7vG37dQ21z9omuAWT1-ZLZtlI5asEh8lPGjOBK77CXmxc1CbsFsBHk", "name": "Venus Statue in Eskilstuna", "lat": 59.36355900000000, "lon": 16.51489600000000},{"id": "c1038ca571ca4c1d81332cedd2af2821.16", "url": "https://lh3.googleusercontent.com/_TynAaT5ceWhI4tTIkYIiKY-bmeTUpUiYJbbjfgvMNfKeZ7FJwhKt77zIDb35A0UElctHwPrLlfAEKyC53fhGM_cfds", "name": "Regnbåge", "lat": 59.35302400000000, "lon": 16.48133000000000},{"id": "c2331f53f0a042ada1ebbb5450e4b7f1.16", "url": "https://lh3.googleusercontent.com/JNPt7euKjP7xvvBSACdtyMrJ9dCjFTwoqI_ZFVMt8F7jWQJYJBoDyJNxsVKLlUdacVh-mhZP4Ia67AJz-krelbUdSv30", "name": "Långbergsparken", "lat": 59.38905500000000, "lon": 16.54225500000000},{"id": "c26e5c7e36fc4c8e862bb15035345335.16", "url": "https://lh3.googleusercontent.com/cuguKbiL-GWLu8tlHm7335xvmWdxaSUhLKMAeOtN5TPYOx8FI7tDFwITQEvYsa2GxIB11DMgbO8IIbmB_QOQJXgAaF8", "name": "Lekplats Vallängen Syd", "lat": 59.38463600000000, "lon": 16.49649500000000},{"id": "c2bf5f83f4cf4b4481034a17d1c15c2a.16", "url": "https://lh3.googleusercontent.com/rjokDdKExe-QqjYiIRTJPwBYjWxKFz1b636a9soa-xKO6yVUvK9eC4pfvlE0ZuiA628DKPEuYzzPyyeiK5_x-5ZCKnE", "name": "Blåa Huset", "lat": 59.41339100000000, "lon": 16.48130800000000},{"id": "c2e70f33691e38dc85de068ef1b27a85.16", "url": "http://lh3.googleusercontent.com/iYnzhUBPlf0b3dg_-Io32mwNDNHDeygMtA_6VRS1ZaYNBTcHVXhhZHtpxBLXU3uiDiZmmRPIhDYXeleG0pTx7LzNGiVIRc0XRCHqfhfVTw", "name": "Morabadet", "lat": 59.45022200000000, "lon": 16.63836800000000},{"id": "c2f8f8cfb34f49e0afbf2a9abec8df8a.16", "url": "http://lh3.googleusercontent.com/s20lDGqFm6CV3u5129Ht0_cLD785FaLHbUOB0Cxs_Mi9mVaYi9bQSFM_V3wZ6kuFV-PmEdZQU_gic1e1Bu_czPkztGg", "name": "Tegelbruksgatans Lekpark", "lat": 59.42594500000000, "lon": 16.47637500000000},{"id": "c341db33aca24da590e38a467af50df3.16", "url": "https://lh3.googleusercontent.com/wB-vJ6lT5jFlRwmsO_eyucLnL9KHuRTj_9liWJiakvbSlhxspiJRLgECbkmdcYZOoPUMQ5eHd7bQXHVRnCWlwzsmnYDP", "name": "Parken Zoo Camping & Stugby", "lat": 59.37004100000000, "lon": 16.47183600000000},{"id": "c4daf42c2e344181b442a81631758511.16", "url": "http://lh3.googleusercontent.com/bxoPA4-k4K3JMfEB8F82iQ-4th_pp6S99SOBFa_rsxUoPr7QRGOmZN7Cfvi2WBNX4ZAuGbgbgblnL5OPWbVbLlH8Q38", "name": "Lekplats på Borgmästargatan 20", "lat": 59.35275900000000, "lon": 16.47569500000000},{"id": "c5522da6c6bf442a9f82e277d1de244a.16", "url": "http://lh3.googleusercontent.com/mJ0vy6wE6wTSYD4_2eqfCSglbFIAu2Q9mleVxmG7RqgzvY03lP8bGUyHSc7tcSaG5xMn3_N70sCPIG49av-BSFS5oA", "name": "Grusplan Slagsta", "lat": 59.39441800000000, "lon": 16.49119300000000},{"id": "c5d67cd898744a3285e199b2203a4068.16", "url": "http://lh3.googleusercontent.com/l6mJlAeJw-pBHfd3XbtbhTLhGSN9gEcvzTuPPsyOKd1bwGqwFfTdPQugf66g2M5_1x49GA5juKhCCmadhROIz7ixO98", "name": "Sundbyholms travbana", "lat": 59.43810400000000, "lon": 16.61172600000000},{"id": "c8bb2eacab15472eb569d5f2bffdc4a8.16", "url": "https://lh3.googleusercontent.com/Q0U4jkzinrft62FsXE89bwMc86aS-e2N3Nf000m79N06JFg4idup_mmJbmxUozhrSREn00p_0uFVzEDzwFHbCiiPjUE5", "name": "Man och Pelikan", "lat": 59.37184200000000, "lon": 16.43956200000000},{"id": "c9262099d93e4812a77e120f885ab7b5.16", "url": "https://lh3.googleusercontent.com/oVkeumwynefSaWfi6z92aWn5nj76iDp-X7QpTlF5baXayf2RL91QsG6HKVcw29fEE6VwE99WL1V1l6zSWY6kk-OiFBPR", "name": "Fågeltornet", "lat": 59.39111600000000, "lon": 16.45299500000000},{"id": "ca3511b7e4184208aaeb22bef485a185.16", "url": "http://lh3.googleusercontent.com/0AfYeZH6IdsMrjjvI0jzBAWj5uO0Kxb3STESPyaQICzQxh76mrhxUWCC_k7_D50RBnGvWmDhrxv4RT6c6WkUX7Guu3I", "name": "Kvarnen", "lat": 59.28416200000000, "lon": 16.67467100000000},{"id": "cb08795a30564093b1c5f72215e2b7f7.16", "url": "https://lh3.googleusercontent.com/Kq89b0I0ybPnoWgGphQvIocMeYzbNCKfhKy2co-qP5HpGJ_yC80WYFviWiiooK-ax8eXsqMEqR347pDCOZRN2ygFq7k", "name": "Artistgatan Lekplats", "lat": 59.40770400000000, "lon": 16.48713300000000},{"id": "ccbdc251ef184c3b9d3940bb31d63055.11", "url": "http://lh3.googleusercontent.com/VrsfacNVu25sqFI_oLUliiJe_i8b-ySCyJu96tnYcN6xG63SKCgRjBtCUpXg-dPyKroviysv1qEouZiVzljPzgNW0Uc", "name": "Rinmanmonumentet", "lat": 59.37278000000000, "lon": 16.50371900000000},{"id": "cce4f9a106854642801e13597ba664c3.16", "url": "http://lh3.googleusercontent.com/WFGIchvuje0xv6-LUzMR1ELrl-H0c3C0K4krhqs6HwA10LDPw7XdKaWtjhTBYqjWt-7KclPP8vytqFUBrbEgVsVk_rBg", "name": "Klocktornet vid Ansgarskyrkan", "lat": 59.35718400000000, "lon": 16.49948800000000},{"id": "cd63e8e30be54c328f4a3c2755bae66a.16", "url": "https://lh3.googleusercontent.com/iOsI4nxB849tfBOIcywUNG9sYnA_dFv4Um1BP-yeLkymMtZLYJFu4ZgZl_gtaTGQ0w6SO_HXntSmxS-PUGhcGn5leQ0", "name": "Nyby Borgen", "lat": 59.42192600000000, "lon": 16.46260900000000},{"id": "cde933d4a93e449294cc9721aa778275.16", "url": "https://lh3.googleusercontent.com/m9ds0TWQwqfNH0RYbfqSw5BdEKVIPNoasnFZiRXfUHVC1EwC0wX1_P72-ZlwKMCbIMY_Zx8OdBTG-QIwQQAWuuVCm6UY", "name": "Rubingångens lekplats", "lat": 59.35900900000000, "lon": 16.47010500000000},{"id": "cfd733dce3f34a98ad912790ee22fafb.16", "url": "http://lh3.googleusercontent.com/C7lfMOQqYRbMbu_V8yYPJY4YgJZqc17OnfvVbX7NyBCtp6BPVNUKC8ehdRXgdZv07kUSJwOqkZ-ljM4yW4j1eNgU14Oo", "name": "jazzkapellet", "lat": 59.41277700000000, "lon": 16.47610700000000},{"id": "d0fc64ca39fb4dbb9d3aedc66a8ca323.16", "url": "http://lh3.googleusercontent.com/ZHNrlnZ8obZ12Fu3aWySZlNHuUDs-Z3zDIFyCYnAY0Hm59Co5S0EJ1njkNb8QSbU-2WjmYkcxOWVwhdzoD4FlO8Ma-8", "name": "Klotet", "lat": 59.37154300000000, "lon": 16.43822600000000},{"id": "d23e5b7ad9d14bf1a2c7f6ac9d737aee.16", "url": "https://lh3.googleusercontent.com/LSxgYUeZ5LGn0vpeNJgNJcuBwgdRyLEMzg9Q-32ubt9ghr_A4oEZ-fHv8k53UHf9W_OH_6h1Xj5s4cUFuvgA-V-7vD8E", "name": "Välkommen till Vilsta Ridskola", "lat": 59.34888400000000, "lon": 16.50322800000000},{"id": "d6033604b04d4890821cb2a715068cc0.16", "url": "http://lh3.googleusercontent.com/5i7wMq-AVFf33waOIhicV_fXuGhExCv6sSxSz5wiYR8TVBelGwKb57K70cAZpzJ53FLfRmVialpxjPC8z6td4gTYa8Yb", "name": "Kvicksunds Ip", "lat": 59.44617600000000, "lon": 16.34458600000000},{"id": "d6b961c9751541df9ed9923a86dad9bd.16", "url": "http://lh3.googleusercontent.com/wObZKNVxr_aXFZ3z3tSd9Ah1s-Y_-skXFWGUg--WSTBuiOz58YRMOi6NTLP3rn78mw_q1Sbdaj64AjvEI4Doz4wShHw", "name": "Why Fit In", "lat": 59.34954300000000, "lon": 16.51311300000000},{"id": "d85af004a11447f691619a33fb0bf58d.16", "url": "https://lh3.googleusercontent.com/xkgIXVBsrM_VYuHDNceExEeyLARw2EyTFw_V27uBaPCR3aDqOrnP0BLdU6gx3btXyoJQmZK_5n4oJ2S4b--TpfzloVV-", "name": "Näckrosen", "lat": 59.39956400000000, "lon": 16.41253500000000},{"id": "d8f805af67594795a8997362d1e7e817.16", "url": "http://lh3.googleusercontent.com/btDFXHxqtOCDKj_Jh5YmSjtED6a-z5Ny8CRhonpDlVXFK74fTep3cvcWUZ-Ik_I4QIR__CwW5R5rb6cevf2XgCWXPJ2T", "name": "FOLKSKOLA FRÅN 1 900", "lat": 59.42167800000000, "lon": 16.46683300000000},{"id": "d9c393b622634981a658df0a87089b7f.16", "url": "http://lh3.googleusercontent.com/11C0sTa8tAWdqctRA4lcYTD25O08Te1FUD957gliHLg2JKRk32hXd6xTq0LJPYUgoCwmZDXK2rHZTOVUgaGLHzvKBsg", "name": "Djurgården Vattentorn", "lat": 59.36545800000000, "lon": 16.54383100000000},{"id": "d9d5798c272d3b03a274ea03e99e93b8.16", "url": "https://lh3.googleusercontent.com/AyTvwoDPJQ1i1Al-FVwIr750C0aCiDFzgE6JWy8M1kudGXEiNZnjYbyAlvR0lLGA3Rz46xac_PabfrATMzc9bOPh0neFTikCgm60LFOk", "name": "Död ved full av liv", "lat": 59.34965600000000, "lon": 16.51699500000000},{"id": "daa56d0e8c0745d985007dbc98bb35ef.11", "url": "https://lh3.googleusercontent.com/xx4z8oI1KDmh9Q_goNrSwAQk1ThAh4PcSDLQQbqSnzuvCDjwWYkvV6-YkK9g3bBzFaRUf1NDwfkqR6nZOJrCPUXPvQ", "name": "Slakthuset", "lat": 59.37989800000000, "lon": 16.51024700000000},{"id": "dac8c88166f54ee79d68339d89192a1a.16", "url": "https://lh3.googleusercontent.com/Ggbw-bgCuTB1ifylqOWMc-vVivmthVgJ8-1L8Q6JbmcSVnfXRseiTZRcSzY1BeJ6nhgAdnzcewLxc_R532w1MZyHpQ", "name": "Pouring Paint Down the Wall", "lat": 59.38432500000000, "lon": 16.50865700000000},{"id": "dbd263e158ac4c429ba7e3854e0ea510.16", "url": "http://lh3.googleusercontent.com/SpwpdjjuURUpA9oQ3B2lakihKoTlDDpZoDOx4vu2rLFWRm9MR_U8TgHHp4OWyS3PWr421FmZa_vW5GWE0eooEIHZL4I", "name": "Tunavallen E&F", "lat": 59.37093700000000, "lon": 16.49644800000000},{"id": "dc5dbdc1e75d4bbc89783efac5bda9ef.16", "url": "http://lh3.googleusercontent.com/DEgqOzgHU1QuSM6Jdib7rQWlIk_S--sBuVPa4mivQqqHo14X4PsmwqTbL4-2lViilrBoTPliH9rCyoYSL7LF6AUW0w", "name": "Fotbollsfält Västerleden", "lat": 59.39494500000000, "lon": 16.47089700000000},{"id": "ded81f3507d1418c90edb3acd2c8acfd.16", "url": "http://lh3.googleusercontent.com/mEMxRx8JO_X6Qz2xdD4a3HdeBSFpf5frubnasOsVAeDtqXRlqiU2Pr3hKigAweSYrWemSiS5vB636GS0b-dGd3AQiVU", "name": "Hammare Och Städ", "lat": 59.36941300000000, "lon": 16.51370000000000},{"id": "e0c78362ad5d41f4ae85b08d930110de.16", "url": "http://lh3.googleusercontent.com/UFH9wqfZCVFzULNB0gmTcMGdoC9khh4L5x1GPuc1d-KssOhLhDwYXeF0QJoMaN3wtspwoLaWlRQGKmQfGccZQNWBbMY", "name": "Skiren-Kvicken Naturreservat", "lat": 59.35409100000000, "lon": 16.38361200000000},{"id": "e0dccef3ec2d4fb7adeccd92c56fa8b8.16", "url": "https://lh3.googleusercontent.com/dnIijV7SpYU6itPCNvB-_2w2W3ZstgZclc0AZ2AXlAfXYcD9kReKTCmDa4VqyVLeQaKCX1iyFwqU5LjzgYMgRLD1hsQ", "name": "Skogstorps Ip", "lat": 59.32359200000000, "lon": 16.48142100000000},{"id": "e1e48a3d17bf45619b5017d4780fb28a.16", "url": "http://lh3.googleusercontent.com/Jrhtfp4ADmuoy1xISgCUTJo_EA9snmaWidnOa6wFseh8X4QxHz8d0Hg8nlERAs-2l1nHBUxwOsg08KhSaHO7M2mm4M4", "name": "Lekplats på Skyttegatan i Nyfors", "lat": 59.36832900000000, "lon": 16.49670000000000},{"id": "e441cbf36bb6446a820da5ef2e202988.16", "url": "https://lh3.googleusercontent.com/onrr7ObVvUySY2DDvkkB16XSThhHBK8aHfmu2Tecp_RH82XR5SjmmT9vCjqAy5dB4HDGQ5-yYonengSO_rCk2jKrgO3O", "name": "Palatset Skiftinge", "lat": 59.39032800000000, "lon": 16.53796700000000},{"id": "e4c7c4f5363d4fdd814ece325b2abfe2.11", "url": "http://lh3.googleusercontent.com/Gz_Prlt8RAtnKqNrzaBlsYIDYil6ZbSYElwzU2xxHq6xKA27mqGMeNHpTlQfc0m_tKhdgM8A9UFFKP98XGWwOy8jF7k", "name": "Harlekin", "lat": 59.39491000000000, "lon": 16.49179600000000},{"id": "e529ac4a568c470382b075450df1acfa.16", "url": "http://lh3.googleusercontent.com/an-0lWcatNlvOeaRdfXs20i6pvG3Mn7SxUfelVrnJ8HAr4n8XeqSaUOPwA3kf_UnftLoaJpJB5Vy1cS_VHJBersti_o", "name": "Sundbyholms naturreservat", "lat": 59.44729800000000, "lon": 16.61506000000000},{"id": "e75bb04ccd2448c5bd0f3554e3f42178.11", "url": "http://lh3.googleusercontent.com/OIb0fLouesQ0wTr2_DdazcVbKr3SmWXZ5UNxEA-poVYSP0xrEGFSJQisPduOxchgB2EYd5BRRjtTdCzgVYlM-95hInfS", "name": "Bell of Gredby", "lat": 59.37553300000000, "lon": 16.48496000000000},{"id": "e93a765de50344af9a612600ff8ceba1.11", "url": "https://lh3.googleusercontent.com/ugW6DJk9YZe0kg_V8I2T1oehwZIVJKYynz6Gw20TLHh_VEU0J7c1BYn2dILWBo9aqHimWEMJt-gZ7gHPb9fXzdJ5gpE", "name": "Ugglor", "lat": 59.38994000000000, "lon": 16.49316000000000},{"id": "e94fc99a74b6423b84688b8304e1d437.16", "url": "https://lh3.googleusercontent.com/C-t-nTmzKD_rCjJYd4Mz18Ztg7UCKadO-5D7PM1v0FFcCydY1Irj8R-8uRiU5jFVeuvUYBfIomaiaZaiautzX4e4rDtJ", "name": "Lekplats Hagnestahill", "lat": 59.37585000000000, "lon": 16.55587900000000},{"id": "e9d920c607264c6d89562992677e072d.16", "url": "http://lh3.googleusercontent.com/LrLVO6jjxJFVqnyMI1HfKDljxdLFs46UdgssiFrcalRibJDkXVXnPC62wcdjqoUn71I6aTKDfrccrAe34hcr-Ul2EqU", "name": "Hovängsparken", "lat": 59.35427100000000, "lon": 16.50298000000000},{"id": "ea4f70b09a2b433b8824c55713199740.11", "url": "https://lh3.googleusercontent.com/OkevBFuEqPeYPSmn1pZtW_51tzRcsxlaIEoRU7ddhXHivXp0YuzNoAgN1nNvwcTTcir_O0S-wUVLtQBkvR7LPGhIe8Mc", "name": "Faster", "lat": 59.39197500000000, "lon": 16.50480500000000},{"id": "eccd1d08f31c483dbb2ddf1cb21e3d29.11", "url": "http://lh3.googleusercontent.com/Xb29exVnQRD0C8icYLDZm_xW7X0HkHhof-T2fzigjG-wUN4M3HRdz2utKrD8c94YBj4RT1awJiw5hVfxwq58teTBz44", "name": "Leksint", "lat": 59.39295000000000, "lon": 16.53351300000000},{"id": "ee4163ffb75345efb7264434407b6931.16", "url": "http://lh3.googleusercontent.com/_xYvj7VG6e3W9NXtjHCWdJBgK1hVO_2ZEFE7qjLLZv23CHR2zlT6Zc2y4oSo0kaljQ6b4DkUJqvmDDiPhgAuBkB0tQ", "name": "Holmberget Main", "lat": 59.41999300000000, "lon": 16.47216800000000},{"id": "eedea98002444211ba424ad2aa82f010.16", "url": "https://lh3.googleusercontent.com/TMTwm_CUB_hAMpRKJjAPRlwvObmZzgKQ9w_rjhzeQ-xvCtaaMz2OA4j8FzA0YMc8f0RHwwdqpyLKqGTAlm7Y3q90VA", "name": "Söderbyvägens lekplats", "lat": 59.34813300000000, "lon": 16.45639800000000},{"id": "f10fac352efb4d7aba6e844f1582221c.16", "url": "http://lh3.googleusercontent.com/85kSa5TvltrdmaZKXgSdJJ8MYe3loTl0jC3rx7tiALNSY8eNzJnxu7kOVXByoNC5btRox_z1IEWXB31ijYBGY1EkFqU", "name": "Rådhuset", "lat": 59.42162600000000, "lon": 16.46918900000000},{"id": "f16a4587102b4a34a48d57648f7eb176.16", "url": "https://lh3.googleusercontent.com/09EPhlUog-iyWOrUJhQeE3njqxhXoEckNtoxobp9UaUG-8GgIUQsOgvy926xZQdW8kWKeFloe50MyMPhejUYGfCQPg", "name": "Skogsängens IP", "lat": 59.35725400000000, "lon": 16.53085300000000},{"id": "f269833c60ab4894b7388845d5c10ba7.11", "url": "http://lh3.googleusercontent.com/jHai7dE28-hz5vsJCGRlPpyKhHuc6nAGHxawT97eDFxD8K1E3kBPydpa9hHzjXLJe9jf2Q_eRJIs6ThzPdi4wRpFwQ", "name": "Kvinna med ymnighetshorn", "lat": 59.36953300000000, "lon": 16.51812800000000},{"id": "f3ace80ef3d645f583162fa298db4fb1.16", "url": "https://lh3.googleusercontent.com/dQVSWCyG7zyxIst8O7N3cJmZE8JaRtrBgahem-gCzLVV_HK6P9Ha7iJfynpbbff2RzC1awp8dEAPRNp19LwRQWlX6fs", "name": "Steel Flowers", "lat": 59.40739500000000, "lon": 16.47953000000000},{"id": "f4307dc0efd24b32afa4e19d3fcdfd1c.16", "url": "http://lh3.googleusercontent.com/xT4MEbVCUQa9Bp3-E8TgSFhIWJRCZW7aguRoeR00xe8ucNA2W37jXM8OHN5ZL0CwKiBzEtJczkgwMY79tfkz1eVTWE-w", "name": "Zoo Tavla", "lat": 59.37299700000000, "lon": 16.48297300000000},{"id": "f6af0ccde00f4b9c83fa655651b0464a.16", "url": "http://lh3.googleusercontent.com/ltZCloCbe4-TjtIs9GMvgCdouFx-bbfW-GH5nhADb81spB7yVRLc-P85i6PY9LCsCagmFjbmJfyYbobK1sNwbAyDzwo", "name": "Skäret Naturreservat", "lat": 59.44766600000000, "lon": 16.42315700000000},{"id": "f920ed8b3ad94d30b1eb8cf70e5632a7.16", "url": "https://lh3.googleusercontent.com/aqSQ9rRfr_WkQiZfkEPKQni_2dfp78cSHCkWt1m4lJVnbh7zhH7RHOoIZ7wR-MQVJ2_7-HpaueHwMEoXGZM4An5dTSo", "name": "Hällby Skogskyrkogård", "lat": 59.39780900000000, "lon": 16.40778900000000},{"id": "fad8a0af8cd54b0eb092abe24d048088.16", "url": "http://lh3.googleusercontent.com/bPh-myFDfCx8M2aa-MHBr5vBBOidqkfDDaDrHLoDtaHMJWkaqzpzZpmOfi2PLV2kJDLY99kj4uciG3EAYvu4TIXj9g", "name": "Runskrifter 106", "lat": 59.38336000000000, "lon": 16.67203600000000},{"id": "fde12e1f86314d4e8b0a75772b04d2d5.16", "url": "https://lh3.googleusercontent.com/5PZy6vw_VkxnJcU7Dk7zZE7CwZLIGG51uGYyDrd0WXrN02gxAJ6ahN0f543ZBaRFupymwHg7Qx0F3dt6Eldlwfd8C8FL", "name": "Oxel", "lat": 59.38031000000000, "lon": 16.49973400000000},{"id": "ff56a4e82cb6441cbaa386baf72bdc6e.16", "url": "http://lh3.googleusercontent.com/qaYc_OzI9yK90Nd0W1aM3pPVHdG46sIJMMEhWJFmxk2mHsmwNam9dcnau2WfcticVnSF4YK2zCg4Nc3L37X5ctu6AHA", "name": "Solur", "lat": 59.38984800000000, "lon": 16.50418600000000}]
