[{"id": "05876b406eb14a9699361a3863ffcb25.16", "url": "http://lh3.googleusercontent.com/mndPCVcPvgS7QI7QurPMmTjjdrpnp1VzN-6662tC01VlF9waYe1um2sX_OTFTDJp9svFfo7Me5a5pCwkhgmNbVrK8w", "name": "Entré Till Gjuteri Museet", "lat": 59.15175600000000, "lon": 16.48991500000000, "team_id": 3, "bs": 0, "bc": 0, "rs": 0, "rc": 0, "ys": 0, "yc": 0},{"id": "160d00597eb845fc9602fb9cb7ee9ae6.16", "url": "http://lh3.googleusercontent.com/PFoTN4DY4tiCJN_3t7rF4ZX7qX6GSg8sBL5-UhOtthWg912Gi3zH1VkVKMML7IE0YZm8wBdXAX-yRDCT3qA3DN5zuA", "name": "Björndammens Masugn", "lat": 59.20451300000000, "lon": 16.82588800000000, "team_id": 2, "bs": 0, "bc": 0, "rs": 0, "rc": 0, "ys": 0, "yc": 0},{"id": "2ce45e3103f34b0a92fc8011cc466440.16", "url": "http://lh3.googleusercontent.com/RRhEJCfM4ucmqtSe4WyiAfriBV-W1XJoxEwlbkNrl2aBQWjsuSGPx94P4OGmeHWzruCEmz3a87XOW9UXS1n6Yu9cgA", "name": "Folkets Hus", "lat": 59.15164900000000, "lon": 16.49810700000000, "team_id": 2, "bs": 0, "bc": 0, "rs": 0, "rc": 0, "ys": 0, "yc": 0},{"id": "670f7d6cc0a74849831d7efcefd3735a.16", "url": "http://lh3.googleusercontent.com/nusmPEZoinDixn_Lbl-jjizMxuVyKytKQf948iwBagNzYVj_Wn9dkEAPk3ku4vFbZeMMYGD73dGDl_vYmJyIwvp_8d0", "name": "Faktory Art", "lat": 59.15127800000000, "lon": 16.48894500000000, "team_id": 3, "bs": 0, "bc": 0, "rs": 0, "rc": 0, "ys": 0, "yc": 0},{"id": "8b34c49d96e3431e8c39068341457612.16", "url": "http://lh3.googleusercontent.com/7kUz0aYmnTnqJ_xaXcjsPpR1knuarbJDD2oNGErTConiO1CbAAG3vYzt4cT8dIiJXnUNIeF7dBk-mWoGE85TdHFftCE", "name": "Hälleforsnäs Station", "lat": 59.16166600000000, "lon": 16.50425800000000, "team_id": 2, "bs": 0, "bc": 0, "rs": 0, "rc": 0, "ys": 0, "yc": 0},{"id": "b5ad2e0067854e5ebc1a28785988f452.16", "url": "http://lh3.googleusercontent.com/oOGUT3NIoPlStms4dC-04aQ7cht9E-W_fF9l-BCAacZj5ZzOgpbVOGQa5GxCFUcIvLAlWKG3lsAk_-9Ln4uoO-Wljg", "name": "Lekpark Västmarksgatan 3A", "lat": 59.15590200000000, "lon": 16.49856800000000, "team_id": 3, "bs": 0, "bc": 0, "rs": 0, "rc": 0, "ys": 0, "yc": 0},{"id": "c72a445186f34c85b790bbda285881a9.16", "url": "http://lh3.googleusercontent.com/4ovOiYYfm7y2RtTNt8_pEHJM2SLHT2bCA2dLLUtmVpcXK0fCJTQIKrChtdXWZY_x3HErdVwqCyVdpUrEYJd0V9BxRvg", "name": "Gjutaren", "lat": 59.15078800000000, "lon": 16.48970200000000, "team_id": 3, "bs": 0, "bc": 0, "rs": 0, "rc": 0, "ys": 0, "yc": 0}]
