[{"id": "0009996f089b48c1bc1d9a8c382046df.16", "url": "https://lh3.googleusercontent.com/xj2i5Tnj0GS_rVZL8TYLtB_XYz5Z4Q7J4arWzkd2fMwIZkQAd2EJANJgmVHYcihExe4PNqzMJ34ywrfY0YQ-PWdiZDTJ", "name": "Länna Stockankare", "lat": 57.71605400000000, "lon": 18.80357500000000, "team_id": 2, "available_slots": 4, "bs": 1152, "bc": 2, "rs": 3253, "rc": 2, "ys": 1027, "yc": 1},{"id": "011c54f3ef6541379590b7871a9e20e7.16", "url": "https://lh3.googleusercontent.com/yFiovb3CoWRerlq79l5_r8pMC-oKrXdjWaDOf1V_YSnnT1_PcYhLquWG652iT9Cf-pgnCcZ92nNzwRBLG74H5klV5AjA", "name": "Hangvar Kyrka", "lat": 57.83932000000000, "lon": 18.68851800000000, "team_id": 2, "available_slots": 5, "bs": 1373, "bc": 2, "rs": 1897, "rc": 2, "ys": 1649, "yc": 2},{"id": "014a81bfef4342efa104df2643d52523.16", "url": "https://lh3.googleusercontent.com/FsZIOTFC80oIqYoqPziEfCFwhh5rFJnFqqj_lSx7xHeZA8tS3SBHz2ce-A3D6eKnDNHN523EsuijXMpuwFM-0T_yTA", "name": "Trullhalsar nr 2", "lat": 57.50762200000000, "lon": 18.74306600000000, "team_id": 1, "available_slots": 5, "bs": 2244, "bc": 2, "rs": 1935, "rc": 1, "ys": 1525, "yc": 2},{"id": "01acada890dc417b8d378219971acf3c.16", "url": "https://lh3.googleusercontent.com/ljfdnNUOheGmb9di67dp_C2X6vDILl-LX78hkdch8CQQhNwDFHpnq3f6wLAQWpEMmdHy__wJ5-1dJFkskbJgrIKH_YE", "name": "Norrbys Museigård", "lat": 57.45353500000000, "lon": 18.37179100000000, "team_id": 3, "available_slots": 5, "bs": 4211, "bc": 1, "rs": 1029, "rc": 1, "ys": 3656, "yc": 1},{"id": "01ed8a701521409b95ab3dd5b25b5fcf.16", "url": "https://lh3.googleusercontent.com/lZ0pPaOLsDHuiBb6No376S4h7ITjEZjRQHX2bWk_2cld5RDG6BoKjCAkdaAoNN1yBPC3b4tlNH9RRCSksW-iyEB6XA", "name": "Sudersands Strandcamping", "lat": 57.95254600000000, "lon": 19.24334300000000, "team_id": 3, "available_slots": 3, "bs": 1922, "bc": 2, "rs": 0, "rc": 0, "ys": 5410, "yc": 1},{"id": "022070037afe478385898154b77ace44.16", "url": "https://lh3.googleusercontent.com/PdugdwVIbzfX3kGz24xjEZ0tlEhPK47xfzVz2iVba7YRVCiDyiOOcmOrG5vKGeBso0jW10NS36nJ_H41T4f73CcTaQ", "name": "Kovik - Strandfåglar", "lat": 57.40813300000000, "lon": 18.16138100000000, "team_id": 2, "available_slots": 0, "bs": 1025, "bc": 1, "rs": 0, "rc": 0, "ys": 580, "yc": 1},{"id": "02dbe612086f3ecb9bb8ab6877e00f70.16", "url": "https://lh3.googleusercontent.com/7Y9R1_Udz58Mxog5z04KNmmFNy_fXkl6iptPsgnZlsPcEBoj70XI_W79hButBhv0PeezFMbqQccn8v433zzycxJVW0kGiTJ1NsSn0sU", "name": "Svenskbygården in Roma", "lat": 57.52754300000000, "lon": 18.44322200000000, "team_id": 2, "available_slots": 5, "bs": 99, "bc": 12, "rs": 77, "rc": 14, "ys": 310, "yc": 23},{"id": "02e882a77a2b4d7295c86a2ba28c9678.16", "url": "https://lh3.googleusercontent.com/aNMJMPY5NGk5UENwPGzgC1SPu2mFSH8x97CqmfJSgPiLzuA46Ygsz9o6ikZuC7miUIRbxaqbuYemX7WRVNKemw5beVk", "name": "Vibble Kors", "lat": 57.60075900000000, "lon": 18.25038000000000, "team_id": 3, "available_slots": 1, "bs": 15, "bc": 111, "rs": 13, "rc": 96, "ys": 40, "yc": 174},{"id": "034cc0b796e44cd2b45f05fa40e94d07.16", "url": "https://lh3.googleusercontent.com/NustivKSdXns3QGIjpesvFsuOxA8iSqzjz5-bdLR3vL1oct9EDs063SlEl-nlT0q2iIbLoNNEiLgmrD8MGeQAdR5ssI", "name": "Two Islands", "lat": 57.30750800000000, "lon": 18.14833900000000, "team_id": 3, "available_slots": 0, "bs": 2343, "bc": 2, "rs": 1529, "rc": 2, "ys": 1729, "yc": 1},{"id": "034f5959efe7443b90d006a4cec52ffb.16", "url": "https://lh3.googleusercontent.com/UvZFegskmIzaVp_Nc5s8ieWFKZLuJnZTle_k082E4ZP_h6FljPsiT8cQkc9Xg2Mm2FMtFQ-rsGQnqOwJGKkeFYPagb4", "name": "Torsburgen", "lat": 57.41666900000000, "lon": 18.72183500000000, "team_id": 3, "available_slots": 5, "bs": 2039, "bc": 2, "rs": 1834, "rc": 2, "ys": 1727, "yc": 1},{"id": "03c2c8d299f54175b6f084bacdf0439a.16", "url": "https://lh3.googleusercontent.com/JYAXCRrVLzMT_fdnS8yR65f_1jOHYLeHHrFkESPfKXfkaM3PZAf4DrzTl-mJt9-TpwRpLstqsl58Y1yYKkR05I9XYHZE", "name": "Landträskdammen", "lat": 57.75921900000000, "lon": 18.45857300000000, "team_id": 2, "available_slots": 5, "bs": 242, "bc": 2, "rs": 1805, "rc": 3, "ys": 1445, "yc": 2},{"id": "03f08e0603cf42dcb3249fa86707dd32.16", "url": "https://lh3.googleusercontent.com/LgfNY493UZ5uujCyqfRcq3z36NEwfKEkBzN3OyNXuW39vYlteAwpCy4AvtS_AI4bNIaFaq8ZNXSBiFB-4Dc3Rjwb_20m", "name": "Visby Airport", "lat": 57.66112900000000, "lon": 18.33922200000000, "team_id": 3, "available_slots": 5, "bs": 18, "bc": 156, "rs": 19, "rc": 148, "ys": 24, "yc": 179},{"id": "0455ad8e1b474f4d8266988f091eb9d6.16", "url": "https://lh3.googleusercontent.com/0COsvN8nDeslguCtOtJNs8xDkK2Pri1jFP9BLlFSIo7JvHoRJMYZbWzNqC2iO9Z72vrmuBKn1-IhogL6nHy6qZY5e38", "name": "Franska Kasern", "lat": 57.86616700000000, "lon": 19.05004700000000, "team_id": 2, "available_slots": 2, "bs": 2229, "bc": 2, "rs": 3654, "rc": 1, "ys": 1727, "yc": 1},{"id": "046a665707a13fd489989db6e639129a.16", "url": "https://lh3.googleusercontent.com/t6-S3iI5fY1qYz8MTjILYe9aecJ3zaCyi8E_VPQKCutpWyCTBewjDxo04XlPGo3jzkNu-bup78FH6aVC_CBL9dPtgKDbH_H4Wq_5fwqs", "name": "Rastplats", "lat": 57.35615000000000, "lon": 18.17534300000000, "team_id": 1, "available_slots": 5, "bs": 1029, "bc": 1, "rs": 0, "rc": 0, "ys": 579, "yc": 1},{"id": "04c0fcc2f1734c9a9822998e1d22154c.16", "url": "https://lh3.googleusercontent.com/ZbT8QhudF8sKwbp-uHF86H1jZST4PtCgEY6LrEIGBCX4k8Ih_cEhurKl6lAj6OpVtoDQrMOeqGk_5neOSFboER1X2kGD", "name": "Museum Lars Jonsson", "lat": 56.96922900000000, "lon": 18.22929500000000, "team_id": 2, "available_slots": 5, "bs": 1219, "bc": 2, "rs": 3007, "rc": 2, "ys": 1028, "yc": 1},{"id": "061481e9b88c451a904cb4919bd3c612.16", "url": "https://lh3.googleusercontent.com/0CRsYbsEcGrCTmMyEKDz82PHc4iUTxXbUaUz6tyjm9yhuMLHA-zelkM6pNkTW76NezU9jM7OCOyr0ALtc6k7E_zrX5-Z", "name": "vilda bin", "lat": 57.34148100000000, "lon": 18.71989100000000, "team_id": 2, "available_slots": 0, "bs": 0, "bc": 0, "rs": 0, "rc": 0, "ys": 0, "yc": 0},{"id": "065f562783a6482bbb4d347b61b69a1b.16", "url": "https://lh3.googleusercontent.com/GvjHUywVEbF4yL3eyGXX-Jv9KiLpSaKMJUdtchY4L_YeMKeM9ORVheddfnWcRd_IrpzVHFG3MFycwNc59Dd4ynlusylh", "name": "Herrviks Hamn", "lat": 57.42204200000000, "lon": 18.91703300000000, "team_id": 1, "available_slots": 1, "bs": 0, "bc": 0, "rs": 3492, "rc": 2, "ys": 1245, "yc": 2},{"id": "0676a988c6c54d3e8e28a2f57333cd4c.16", "url": "https://lh3.googleusercontent.com/yM1a_DR7P_hS83SKGZhmozopDJPawpDsZrQVhcdBQwIFBIqeRHws7ppSaOnvdbfnt8eUfmQw2Emq_pXnUggKHS4x0g", "name": "Kärringen", "lat": 57.62852900000000, "lon": 18.28218500000000, "team_id": 2, "available_slots": 3, "bs": 63, "bc": 83, "rs": 46, "rc": 57, "ys": 38, "yc": 54},{"id": "067c098a05b0411eb3ed82863931ac7e.16", "url": "https://lh3.googleusercontent.com/M748ifQZh7xSp4556pk1t7utz-_mQxca1F9vpDeSXW3uUx_rWeN_t1ucgttcEKVkrerGeKtqQWSGtl8JYOxFb8EC1MA", "name": "Grodda den Gotländska gården", "lat": 57.87263700000000, "lon": 18.87993600000000, "team_id": 3, "available_slots": 0, "bs": 6424, "bc": 1, "rs": 0, "rc": 0, "ys": 2832, "yc": 1},{"id": "06a1303ada984ffd9412093fdbcd9a2d.16", "url": "https://lh3.googleusercontent.com/veGd0Mvgao53bygvMjo7jzOC1J89MuV3gHhe63W0htRo2gk95e7ouTgrE516DUoE9rydYLEWrYJWfDhNT9gKhMyC-i8", "name": "Fiske på Gotland Varbosån", "lat": 57.39568600000000, "lon": 18.19316100000000, "team_id": 3, "available_slots": 5, "bs": 1598, "bc": 3, "rs": 1030, "rc": 1, "ys": 1825, "yc": 2},{"id": "075ac8495e6a4e418e36482394f09dfd.16", "url": "https://lh3.googleusercontent.com/yk50W1KemJAXORQHqqyWta9X-e8k1T4SASr4ivndSTbXcr1ABmufEjx6V8VULoqWJf7nD-tsn590UU_UWpbTQnvZpw", "name": "Snäckan", "lat": 57.39444200000000, "lon": 18.18719900000000, "team_id": 1, "available_slots": 0, "bs": 2487, "bc": 1, "rs": 0, "rc": 0, "ys": 6408, "yc": 1},{"id": "08144e7bc07e4352a2d9271558f6de51.16", "url": "http://lh3.googleusercontent.com/lFztIkmhiFwAcWiNq4EQsHH5v0gKDJy6XyWQG80udyIDqAhN_zqOVFksH-sdFdqbh-7EfqF0qWW6Dh5p7eV-VaV2xQ", "name": "Vägvisarsexemplaret", "lat": 58.38882200000000, "lon": 19.20096900000000, "team_id": 1, "available_slots": 4, "bs": 0, "bc": 0, "rs": 0, "rc": 0, "ys": 0, "yc": 0},{"id": "08787056892239458b941568ca6d26b5.16", "url": "https://lh3.googleusercontent.com/ZNL7b7VmQFoQUBlM_3Loj85CS7Z_3SpzLUXggamqvOe28bKvPyOrEUhg4DEmy_bdWL24V-tMbNB66KNhGfRX0BgEbMbWqQH6LsWHyz8", "name": "Östkustleden", "lat": 57.36655000000000, "lon": 18.75916600000000, "team_id": 0, "available_slots": 6, "bs": 0, "bc": 0, "rs": 2237, "rc": 3, "ys": 1385, "yc": 2},{"id": "08b5e62e9cd64573930ced8bf3c760f2.16", "url": "https://lh3.googleusercontent.com/mdIIufcRP2MyekpWkVxyKOtU0tx_R0hh2rfaF98mloUDYtfHk577TOZBa1EI9UXe31cM9l_gYLn5Ok8ey0X-E4E4Yw", "name": "Langhammars Raukar", "lat": 57.99677000000000, "lon": 19.18009300000000, "team_id": 3, "available_slots": 5, "bs": 9839, "bc": 1, "rs": 0, "rc": 0, "ys": 0, "yc": 0},{"id": "08bf009797be420ebdeabbd8c69ea21b.16", "url": "https://lh3.googleusercontent.com/TBCCYWV-VoAh4CoQgowHTJhYFxrIbQKhOhmD2jJ5ktcUQ9wcVjNhYCAZhXD-uQlOYDMPD95xa4TW7Mkk1XFv_0tw3Vo", "name": "Kolgårdens Lekplats", "lat": 57.63184000000000, "lon": 18.30652200000000, "team_id": 3, "available_slots": 5, "bs": 13, "bc": 118, "rs": 11, "rc": 150, "ys": 30, "yc": 226},{"id": "0947568e60f64f9fa27686b208f2e4c2.16", "url": "https://lh3.googleusercontent.com/h7nPflVnP6p05oSHHKsGFep3HZg0rQuRmUbOEednnq8WmH00dU7bOlCR5OdtFharU_fwe7In2RpU3z3BxcoAA2Z3xQ", "name": "Västerhejde Kyrka", "lat": 57.58058100000000, "lon": 18.24787800000000, "team_id": 1, "available_slots": 3, "bs": 1033, "bc": 7, "rs": 141, "rc": 5, "ys": 205, "yc": 6},{"id": "09e45641fbae4f6a81619e231ee3aabe.16", "url": "https://lh3.googleusercontent.com/f2FKDbKe3Ev4gzRmsCTcRJ0rok46EIEiRv_9PSv97c_piNEDqsFsfDQJ1GlIYvIhbLKmYqRWk9XWxRW9o78On4V4zw", "name": "Västergarn Kyrka", "lat": 57.44080100000000, "lon": 18.15079500000000, "team_id": 3, "available_slots": 4, "bs": 2240, "bc": 3, "rs": 1028, "rc": 1, "ys": 1729, "yc": 1},{"id": "09e60da60ee7389eb8921d68b24605b5.16", "url": "https://lh3.googleusercontent.com/55rWuoOCmFbWS1ARwCRhvLNHTmPXXV-7n-IOIyfIz1Q0P0f1hnUNpxObVkbBfAbhPU-HtSmn8SbO9y-6bJdFZeZLsDer2Q9kOPmZklEW", "name": "Beach Info Sign at Släktäktsvägen", "lat": 57.49654100000000, "lon": 18.12425800000000, "team_id": 3, "available_slots": 1, "bs": 1729, "bc": 1, "rs": 1410, "rc": 3, "ys": 1028, "yc": 1},{"id": "0a9702cfb7634586867883a3d1cdc49b.16", "url": "https://lh3.googleusercontent.com/vKXwDdnRuPVw70RHMogAwVhTZv3qAZwLlNJvKStRJHm-0IZro1ESX3DMY7knj4ZkAND_kGUqYLTykz8ObvSZViMvQA", "name": "Linnéstig: Vitmåra", "lat": 57.25900700000000, "lon": 18.61737700000000, "team_id": 3, "available_slots": 5, "bs": 2383, "bc": 1, "rs": 7091, "rc": 1, "ys": 0, "yc": 0},{"id": "0a9ca03c6d904cb395a34f714c45cba7.16", "url": "https://lh3.googleusercontent.com/1TNyI1JpBcKbAT8AvtnGFoslGyOoxbCwRL1MyUy1HeK8mzpFn0-64a2cP9JY7s7UEfE3nry4MiVcD90o6ofkuq-H1tve", "name": "Pålverket", "lat": 57.31997900000000, "lon": 18.41990500000000, "team_id": 3, "available_slots": 3, "bs": 1152, "bc": 2, "rs": 3584, "rc": 2, "ys": 0, "yc": 0},{"id": "0ac7a79af97449658c66b267c7fb5e50.16", "url": "https://lh3.googleusercontent.com/s_44XSSgzhj3Ty-C3bNJ6IzOdNzvOHIVVR2yrssKV5Ti4QoZaHCLfqOfWdZLtH2GNq8Y0eKbFd1sSAK44sKuIhxp84c", "name": "Burgsvik Strandkyrkan", "lat": 57.03348600000000, "lon": 18.27963200000000, "team_id": 3, "available_slots": 0, "bs": 1374, "bc": 2, "rs": 2211, "rc": 2, "ys": 1729, "yc": 1},{"id": "0ae8b750117240ae8c01d56c510742ff.16", "url": "https://lh3.googleusercontent.com/ysAu2oIBNK55-Xtc_C8jE46Ww8TXwxKAaly63hLizRz00Cx-uqhc8JefTIi3zjszBW3uQH7gffHYHdRCJGxrS_WwB8PY", "name": "Avaeken", "lat": 57.94781300000000, "lon": 19.29209300000000, "team_id": 1, "available_slots": 0, "bs": 0, "bc": 0, "rs": 9254, "rc": 1, "ys": 0, "yc": 0},{"id": "0afe9aba63a148d8a85ec0a1dcc41531.16", "url": "http://lh3.googleusercontent.com/pVUERNivzFKyqoU1Wf-r9S-Fw_qHGA5-MjDTQEGjv8C4WlBCpiSZl01wryFVJcw8JUQITmuuy9Os2IzFqicm12d2M78", "name": "Gamla Gården", "lat": 58.35023200000000, "lon": 19.21762400000000, "team_id": 1, "available_slots": 3, "bs": 0, "bc": 0, "rs": 0, "rc": 0, "ys": 0, "yc": 0},{"id": "0ba604edee38449ca806a6577aa463f9.16", "url": "https://lh3.googleusercontent.com/7qZ5DlA_6WSRGeiX8bdaLU-RR-_fsDfMFm_ZvvSVL_oMrdpCbmgOoExJWqtk3Q68PF-4RBhts6DQAaoW_PAZw2YyAw", "name": "Bockmöte", "lat": 57.62760600000000, "lon": 18.28557300000000, "team_id": 1, "available_slots": 3, "bs": 50, "bc": 89, "rs": 40, "rc": 82, "ys": 35, "yc": 61},{"id": "0bfa7fb66a5d4460be64b6bbe13cc2ee.16", "url": "https://lh3.googleusercontent.com/Q2En72RseZx6WOXO8Lafzg9UgcBG2015yb74lw2NtAdV_GgAym9zKQfD8zTxjjvGBYvZ447hPO1lRgv5NBFNYsJx84o3", "name": "Vallstena Fotbollsplan", "lat": 57.60575800000000, "lon": 18.63908900000000, "team_id": 3, "available_slots": 0, "bs": 3455, "bc": 1, "rs": 1028, "rc": 1, "ys": 2388, "yc": 2},{"id": "0cb8e6b693e7400daba8ec839e45e48f.16", "url": "https://lh3.googleusercontent.com/qK2KV2sD0kqYLWm0UpTkDT82ettJCwL2ZixKgtY_Nc6Q3XJQNQJiYUUn9dBUOebpK8p0ifxLO5976LrXuNjGqXUHGF0", "name": "Gården Rings", "lat": 57.70521100000000, "lon": 18.63210900000000, "team_id": 3, "available_slots": 1, "bs": 1251, "bc": 2, "rs": 2832, "rc": 1, "ys": 2250, "yc": 2},{"id": "0d2bcc64d0304f4381b52c75cd90cfd5.16", "url": "https://lh3.googleusercontent.com/WP72Ogy803fBk3_zYsZ6U_N68mmp0ONJ9rdqgWGK4dWqgj1NICoA-RHAgZ4U7dYugpDEfcnKNnOR4rz9eJPUK3fA8VQ", "name": "Martebo Kyrka", "lat": 57.74828100000000, "lon": 18.49425200000000, "team_id": 2, "available_slots": 5, "bs": 479, "bc": 8, "rs": 244, "rc": 6, "ys": 574, "yc": 7},{"id": "0d8ff185ad524376b9776b79a11e4b20.16", "url": "https://lh3.googleusercontent.com/6DmGPqcVwHgX_wulGivQCD6qgnfYzEaJZIcmA1aqXXeUbM7ZzNaUU0KfkWdExRua406FpTavExBada8Imawfw5bM-9-R", "name": "Lummelundagrottan", "lat": 57.73778200000000, "lon": 18.40601900000000, "team_id": 1, "available_slots": 3, "bs": 153, "bc": 26, "rs": 98, "rc": 17, "ys": 179, "yc": 21},{"id": "0da49740842a44e68adf373405ab7158.16", "url": "https://lh3.googleusercontent.com/-w_lyTPuaFqSqq7H9bQthRnI_1Fm61ng7iJEDkELkYkr6FhwKr2Sy-fnqGwfi-Y1AW2ZmeHqFlgYAvOvoqoajwTODI1S", "name": "Cirkus Hemse", "lat": 57.23821200000000, "lon": 18.37640600000000, "team_id": 1, "available_slots": 0, "bs": 3074, "bc": 2, "rs": 0, "rc": 0, "ys": 1664, "yc": 2},{"id": "0e244f31020b3a13a7d34f341db8deb3.16", "url": "https://lh3.googleusercontent.com/MXtVT7LGSyX_xAmBC6UOfDSZS0kbytRz_RXScYpIBImlPC4rkl6u1bWG2oofQdSt3D5k4S8oTep7COIYg7eqjFlvEGDhjuYcm8FuqWk_8A", "name": "Gothems tennisbana", "lat": 57.57471500000000, "lon": 18.72709400000000, "team_id": 2, "available_slots": 5, "bs": 1731, "bc": 1, "rs": 1717, "rc": 1, "ys": 2488, "yc": 1},{"id": "0e36d8ca5fad4af0914917fd427aa72e.16", "url": "https://lh3.googleusercontent.com/wS6EQI-tabQn_uHBXWKgXSdMg52TnW6zd2k5nUzi08w_pXN4U_0cip-BoFKJWiYrFaC0eKmrEOTKjzREtXYEByNKh43M", "name": "Stone of Oskar the First", "lat": 57.61865400000000, "lon": 18.27464600000000, "team_id": 2, "available_slots": 5, "bs": 285, "bc": 10, "rs": 166, "rc": 5, "ys": 631, "yc": 10},{"id": "0e5fbf4f806e4e48b628bec80615e01f.16", "url": "https://lh3.googleusercontent.com/bvS-PyONmHvEVsEWZnUiy_c2liP5hsBwsUy62ecdoDndFAxbghYKvwFBNBJWo9v6mAYPVplkWIVMJi68fH4jx60oZEHkQFFdrg5vHgOI", "name": "Gamla Wisby Apothek", "lat": 57.64126700000000, "lon": 18.29292200000000, "team_id": 3, "available_slots": 5, "bs": 23, "bc": 212, "rs": 16, "rc": 174, "ys": 15, "yc": 151},{"id": "0fcaaa447730462c9ffa6dcd54b8b712.16", "url": "https://lh3.googleusercontent.com/U34AGW95T6pCjDJi7T3jCr5Ub9cz54MyyxX2JkLOVfawSPpJUyvp6kHP3VQyCJKoD0wU_0ujJtGxNbXjJUEiOH2aCQ", "name": "Roma Kyrka", "lat": 57.52834900000000, "lon": 18.44188500000000, "team_id": 1, "available_slots": 3, "bs": 49, "bc": 13, "rs": 362, "rc": 9, "ys": 293, "yc": 19},{"id": "0ff3d1b66dd54164901af9830170c344.16", "url": "http://lh3.googleusercontent.com/8h6yReyA3HhaiRaoeGjZZqbhAhgjoyH9wDcIO5Y4bfZosrK9NwIUpVgTC4VAjYeQCeTcEh9Apr_NIl5SZJe3MXkW3Q", "name": "Tärnudden Info Sign", "lat": 58.34029700000000, "lon": 19.28595000000000, "team_id": 1, "available_slots": 5, "bs": 0, "bc": 0, "rs": 0, "rc": 0, "ys": 0, "yc": 0},{"id": "10696dd3785f4f38a3eee6951e48972b.16", "url": "https://lh3.googleusercontent.com/1ggtzuYEVl47BlsbWdaxlbznWJzvDmJhz5CdFv50xxL5NKHAjdRj9gh2t5jwl_BooHe2tKLO_ONI5ZIkWKRnao4fcDc", "name": "Gammelgarns kyrka", "lat": 57.40448900000000, "lon": 18.80425300000000, "team_id": 1, "available_slots": 3, "bs": 2681, "bc": 2, "rs": 579, "rc": 1, "ys": 3534, "yc": 1},{"id": "10a9b747eabb466d9e39db0fe66a2a6c.16", "url": "https://lh3.googleusercontent.com/AHwmD0jvHCAxQJfswUz3WGIvL8bAmwwCs-UahbcJlFEqluOrg9Cy-rfvnQoq_KR8z1cAae-TckhXh2GJ6bD4GSQVN8E", "name": "Slite Golfklubb", "lat": 57.71771800000000, "lon": 18.75140900000000, "team_id": 1, "available_slots": 0, "bs": 2837, "bc": 1, "rs": 1382, "rc": 2, "ys": 3657, "yc": 1},{"id": "10cdae8a845543fab7d5889cf123f718.16", "url": "https://lh3.googleusercontent.com/kYhjzKjOB6j2P3KZUJaOkyEEvBe4Xcl9zi4WCQ1-z8dEBdkuQ46CCNxxUrQ5RIxr9xKQyIF8nphe-yNxEzW4GxHRhQ", "name": "Gustavsviks Bad", "lat": 57.66315800000000, "lon": 18.32047900000000, "team_id": 2, "available_slots": 5, "bs": 96, "bc": 47, "rs": 80, "rc": 39, "ys": 53, "yc": 41},{"id": "1126bbb155dc4411aa78e9a98c7d996a.16", "url": "https://lh3.googleusercontent.com/6oQyWLK8sSS3ip0CMtF2RCcQ0MlqhMQkqMmrbx8RyJVfyOIZYFfCZ0PZUtDyXj8_am3Vwyyyqrk24C9FawLERyJJDw", "name": "Burs Kyrka", "lat": 57.24566500000000, "lon": 18.50836400000000, "team_id": 2, "available_slots": 3, "bs": 1738, "bc": 1, "rs": 2472, "rc": 1, "ys": 4683, "yc": 1},{"id": "1198ffffe764405aba84dd653e9ffd33.16", "url": "https://lh3.googleusercontent.com/Gkpdz3e528Om7UGPY3ggSpGGBhbhYho-uVf0ccSBjMbtf--2deR5wkQCylYRTkhgp9KqNlrkTZ9grHRJzFWziU4tBw", "name": "Mulde Ridhus", "lat": 57.36537100000000, "lon": 18.22273100000000, "team_id": 1, "available_slots": 0, "bs": 1726, "bc": 1, "rs": 3653, "rc": 1, "ys": 2488, "yc": 1},{"id": "11e72af80d9d359b95f0633b56523258.16", "url": "https://lh3.googleusercontent.com/LEgkev1swtGcweNp9ri33GghHyVVCRNXT5e8fU4_3cUWt_psyujYIXfVcTbjCm3lM2YtnPIv2u9NfEUQmtUiNi7vxnf-Klg7xcgXFNGN", "name": "Grillplatsen i Histilles", "lat": 57.45108300000000, "lon": 18.79562100000000, "team_id": 3, "available_slots": 1, "bs": 0, "bc": 0, "rs": 1480, "rc": 2, "ys": 6519, "yc": 1},{"id": "12364d72ad694a50b0e751ffacecbaf1.11", "url": "https://lh3.googleusercontent.com/wl68QIEXoXKT46dzybYbhIhdDyCruiZOpFzPtZTo3wsPjcGeCUsRr7OndH9wvxH8vinvrkL9Jik0IOJu2O0_EoK0TUc", "name": "Hemse Library", "lat": 57.23924500000000, "lon": 18.37607800000000, "team_id": 3, "available_slots": 0, "bs": 4228, "bc": 2, "rs": 0, "rc": 0, "ys": 1022, "yc": 1},{"id": "1242f646d74c4170bfed8e5d565fe035.16", "url": "https://lh3.googleusercontent.com/tNDTbFdPvd1bjRl0BbXLorPkXLjyDx-4wgW_QgQFnNCpiEvEQ7IGfw1Qvku3_Jkk7m6CRqVq3z87X8J9wQaf4nQqIuI", "name": "3/4 Mil från Visby", "lat": 57.58394100000000, "lon": 18.22220700000000, "team_id": 3, "available_slots": 4, "bs": 28, "bc": 63, "rs": 14, "rc": 32, "ys": 101, "yc": 76},{"id": "1252344360ae47a39b5066983fe56fa0.16", "url": "https://lh3.googleusercontent.com/lSmy26uBdu-EsULnhSrRCyW7kXv4vaT5iULjKxSFmwPYdgCazV4oTSqKsB26iiZMYNxVLp7o6I_uhF_G9mc2o9UlR3c", "name": "Grogarnsberget", "lat": 57.44272900000000, "lon": 18.88480700000000, "team_id": 2, "available_slots": 5, "bs": 631, "bc": 3, "rs": 2033, "rc": 3, "ys": 349, "yc": 3},{"id": "12761b0fdab8450b9cc8c8a60a9c4e24.16", "url": "https://lh3.googleusercontent.com/m3EIWK3k75wv9SC8ib8nbVSkrjDEYaa1T9Go8RTUDVLfHT48MevFzsgT_G3L3Q49Ng1JpZEhJuvmHb__RD3f2GU58WQ", "name": "Geodesic Ball", "lat": 57.64452300000000, "lon": 18.31533600000000, "team_id": 1, "available_slots": 4, "bs": 34, "bc": 171, "rs": 17, "rc": 157, "ys": 15, "yc": 95},{"id": "13b1e0ea887641e78d1cfeecd8233052.16", "url": "https://lh3.googleusercontent.com/HEEQ4qSFYJvhYK4bVsffU83tSLYyaEiSam4OM33HX4i13bHcq6SKMeyw-79v16KmkSQea9gJc46nJruqwnHKL-JoQxw", "name": "Galgen På Galgberget", "lat": 57.65034700000000, "lon": 18.30758200000000, "team_id": 3, "available_slots": 5, "bs": 81, "bc": 77, "rs": 24, "rc": 49, "ys": 45, "yc": 55},{"id": "13f2642db91f43fab4b2d11e8d04faea.16", "url": "https://lh3.googleusercontent.com/VPr8V_4QH5MdC_Cq-S9N3H3Om66pL8RA8bzJj22yK_pXW8Hs6UfhRHO6sWjA8NV2E9g8kxHFWGHzsdG_43mnLXGuWl1A", "name": "Psalm 103:11", "lat": 57.79218700000000, "lon": 18.98757600000000, "team_id": 2, "available_slots": 5, "bs": 2818, "bc": 1, "rs": 0, "rc": 0, "ys": 0, "yc": 0},{"id": "1426e732599e4abab5a741e706e94cee.16", "url": "https://lh3.googleusercontent.com/Uu9e2WKZjLoPHPGXYu3-PhCqTCNpSeoCeIigDFnI_KVpA_pvk-EHjCII36-iSJlFCvmGCrlx945K3VTEb5xGjjgHsV0", "name": "4-milastenen I Tingstäde", "lat": 57.73612400000000, "lon": 18.61599600000000, "team_id": 3, "available_slots": 3, "bs": 2387, "bc": 2, "rs": 1154, "rc": 2, "ys": 1373, "yc": 2},{"id": "142de61b924832beae00e3050d7ccb35.16", "url": "https://lh3.googleusercontent.com/WXz_2Ke5kgQvHRqfSfN4bI2fteog5j6yDkOfvLNcxagmCDeklXhymEu6b55BrDT6lLnl7cFXBTj6JnqTLhHpV46DyW0z10UFY06RQNo", "name": "Tystnadspärlorna", "lat": 57.37719300000000, "lon": 18.23384100000000, "team_id": 3, "available_slots": 4, "bs": 2487, "bc": 1, "rs": 0, "rc": 0, "ys": 0, "yc": 0},{"id": "148687d4a5b54ac1890409758ef89f55.16", "url": "https://lh3.googleusercontent.com/Ce0_dx7Z2TwpMD6Hsgj6X6e0XBrSA6veYevbjpufpUALsD47GPYvvOTSj4MTC5kjaZ8x7XXlydy555S1VjpKIXTIUjjJ", "name": "Boule court", "lat": 57.13089100000000, "lon": 18.22376400000000, "team_id": 2, "available_slots": 2, "bs": 0, "bc": 0, "rs": 3582, "rc": 2, "ys": 1155, "yc": 2},{"id": "14977bbeee224ee6965a0a67b64c9b14.16", "url": "https://lh3.googleusercontent.com/5ZOzZQ2sfkhBgf_7BB2Uxi7ZG79QCF3oMP1b4De3ju-sAouG16uPPVkwYGj8Es2qpzTTf0lLGvJl4pMsj5wosF7sFKDIqotdwXhByxxF", "name": "Mangsarveänget", "lat": 57.59263700000000, "lon": 18.51305100000000, "team_id": 3, "available_slots": 5, "bs": 963, "bc": 9, "rs": 107, "rc": 6, "ys": 46, "yc": 3},{"id": "14d6dfdf29d64fbb91ea9a5468f55cbc.16", "url": "https://lh3.googleusercontent.com/U-RB0lxzm7XK-AShMN9_LyOwU5blDIXBXPtg0zL-NUM5esFzBWMSbd5vp30DD1bwzgTZSKOudSBa-EmqBinpLdFeYz0D", "name": "Rävhagens Ishall", "lat": 57.62603800000000, "lon": 18.32976000000000, "team_id": 2, "available_slots": 1, "bs": 49, "bc": 78, "rs": 35, "rc": 77, "ys": 41, "yc": 80},{"id": "14dceb6025293844a1bbe73bbdcaf587.16", "url": "https://lh3.googleusercontent.com/9JFSqVjxyEZktu1EBbdU2DBAn7FAAE5gvgtj_cntq-iA2hfJ1KkYsjvaZYPX2yYogS_31aCKJIAjuFhsA0RO922ZOYRcAAGq8c2UO6ao", "name": "Apollo-fjäril", "lat": 57.64695500000000, "lon": 18.32400800000000, "team_id": 3, "available_slots": 5, "bs": 620, "bc": 7, "rs": 1842, "rc": 1, "ys": 466, "yc": 8},{"id": "155af2f8c7e044f79919a1ec5abbebea.16", "url": "https://lh3.googleusercontent.com/R7B7Fp3kgUT2Z_COocB1anlNiiNEdVjDukI4reU1XYWxOGqyxx1qVYSrnMYZcu6O-J6Y48vmEYpSmcTf9PAGFCyozg0", "name": "Enholmen - Östra Donjonen", "lat": 57.69520000000000, "lon": 18.82421200000000, "team_id": 3, "available_slots": 4, "bs": 2277, "bc": 2, "rs": 1742, "rc": 1, "ys": 0, "yc": 0},{"id": "15e3428e7bb746eabecc52d940a4bbec.16", "url": "https://lh3.googleusercontent.com/St9LRpb2VW0ORYulIdKDvxlCDV0BFLe-LpxZC36cOoJcUQhnaPqlqp7W-DYj1LLMNMnfHuAcTVtfvOlGK1mv8eN8bQQ", "name": "Kyrksten", "lat": 57.78614200000000, "lon": 18.79431300000000, "team_id": 1, "available_slots": 0, "bs": 0, "bc": 0, "rs": 1936, "rc": 2, "ys": 5383, "yc": 1},{"id": "1610d020c8724ba0a0b3784747b84c05.16", "url": "https://lh3.googleusercontent.com/AXscvlLiPllONqMNV-edPpotacrD9hFVXxtn4oYAoUnG5b4pbS5z77NS_28r9fiyUwzj7r8wn5BuzOMumUs_Sxcq6sQ", "name": "Alskog Hembygdsförening", "lat": 57.33166400000000, "lon": 18.62850100000000, "team_id": 1, "available_slots": 0, "bs": 8895, "bc": 1, "rs": 578, "rc": 1, "ys": 0, "yc": 0},{"id": "166edbbea5954ecf89c50350ea63f1ff.16", "url": "https://lh3.googleusercontent.com/mQOqVh2a7Ef4IrK3Lu6AuJWNQFYb_EKrjGGTI6fARDstcaRj1pXmwGWjzUNUt7II9AA0dv0Rp1UD1iovdGrwa1aZ5KU", "name": "Kittelgatans Aktivitetsplan", "lat": 57.61121500000000, "lon": 18.31899400000000, "team_id": 1, "available_slots": 3, "bs": 77, "bc": 62, "rs": 56, "rc": 38, "ys": 62, "yc": 45},{"id": "1690f258f5f143afb886894ebbce3d24.16", "url": "https://lh3.googleusercontent.com/n0DmxBVFIO0dT6JTvYyNwZSsQXP7ugKS6TUPzY_pHJvX9IklAlEZU0VEVIpAeZJGe3mOpchrBX5nPeCsjyHJ199-K70", "name": "Bästeträsk Naturreservat", "lat": 57.91583200000000, "lon": 18.92871800000000, "team_id": 1, "available_slots": 0, "bs": 4683, "bc": 1, "rs": 4577, "rc": 1, "ys": 3, "yc": 1},{"id": "16e374ab0a904535a9f14e2faf84d03a.16", "url": "https://lh3.googleusercontent.com/_zsaa16VSMhH-2kkwGw0dH3uE6QoUdwgAiZ1APsCusbYhkQLxRI_UqaxnFZ7P_KwuPP_j1jeHjXmk1K6byyunqrzJIc", "name": "Hejdeby Boulebana", "lat": 57.63138600000000, "lon": 18.44223000000000, "team_id": 1, "available_slots": 3, "bs": 2558, "bc": 1, "rs": 2115, "rc": 3, "ys": 501, "yc": 1},{"id": "17573cbd802845d292dbf1f600eff407.16", "url": "https://lh3.googleusercontent.com/tj7Dd_Wl8wQlH3Gj1KD9t3ixJKe2KlTQSOhxMOc7yfnfABLM6MAYkAfsog9l0-4vN2y0euUklTVGaC-ANv7eOGHM1w", "name": "Dagghagen Naturreservat", "lat": 57.75901400000000, "lon": 18.85615800000000, "team_id": 2, "available_slots": 4, "bs": 1738, "bc": 1, "rs": 2845, "rc": 1, "ys": 0, "yc": 0},{"id": "175c1cd82d3a3528840d6644fe9f74c2.16", "url": "https://lh3.googleusercontent.com/WZ4sUp7TMOWnnk2yBBlGpHTqFw7TZxZ7YQlj6JE1Cbck9-WXyL7FPtcLTxi4IJXbFonEsE-MU4z9rWwfkpNO5aEgPtYX--iMtKRGzKyn", "name": "Torsburgen, slottet", "lat": 57.41183500000000, "lon": 18.73149500000000, "team_id": 2, "available_slots": 1, "bs": 8895, "bc": 1, "rs": 0, "rc": 0, "ys": 0, "yc": 0},{"id": "17648e2e4a244cd8a565b4145c161ba4.16", "url": "https://lh3.googleusercontent.com/_vRmOU8saxanbfQTzab6w7lSunttAFRatKqXI9Zz7e8yoQdJ6Woocx7RuZDlB4cVOvHIwnW84127L1Omy4ZGOXLld98", "name": "Bangstenen", "lat": 56.92255600000000, "lon": 18.13316400000000, "team_id": 2, "available_slots": 3, "bs": 0, "bc": 0, "rs": 1825, "rc": 1, "ys": 3656, "yc": 1},{"id": "185377afb52a4c0a8a9e04393a2e7f74.16", "url": "https://lh3.googleusercontent.com/aQnKDOC6Sqb86c0W3jSle9C9h6YjDtwzrTAZQwxZ7p8yB16GhYGUqA512-3D3hJTA1yB1RLEbPVCsZFfRwI5DCPClQ", "name": "Rute socken Naturleder", "lat": 57.78776200000000, "lon": 18.94849400000000, "team_id": 2, "available_slots": 4, "bs": 2309, "bc": 2, "rs": 1924, "rc": 1, "ys": 2720, "yc": 1},{"id": "1913b8fe8af349468d6e96ec571f850a.16", "url": "https://lh3.googleusercontent.com/sZac3W83Bbhg0vPNwYFiQads0Tvz8sud2rwK9qiOls9u7b0LRw8TPZXZNLEvDwf7CkGlZs7S9cVEfGajSuvWqift2bE", "name": "Tofta Kyrka", "lat": 57.52152800000000, "lon": 18.16881500000000, "team_id": 1, "available_slots": 3, "bs": 1741, "bc": 1, "rs": 1155, "rc": 2, "ys": 2711, "yc": 2},{"id": "197d3d1660574b93848694ade8300d3f.16", "url": "https://lh3.googleusercontent.com/7ofvzrnpKcsY0s977S94dMBvyZISBM507i8dZm7ccbmjGBZQE12J4ThpPTpqAqXfXfjF5aQRs9QAQc9JqaTDqBYnHrc", "name": "Barlingbo Kyrka", "lat": 57.56443600000000, "lon": 18.46333400000000, "team_id": 3, "available_slots": 4, "bs": 392, "bc": 12, "rs": 352, "rc": 2, "ys": 361, "yc": 11},{"id": "198df852b80d4802989ec648d9b93e21.16", "url": "https://lh3.googleusercontent.com/rCZhD-_Ma-TQ8DOYGe63cd_96Fc3TC-fVVsxVSNvm6k_0LMP09LKysDWnxu9IiiHHvkzf2lhSVdamnJ7wZ9nFuFScUxe", "name": "Sandvikens Naturreservat", "lat": 57.39970600000000, "lon": 18.87330000000000, "team_id": 2, "available_slots": 5, "bs": 2356, "bc": 2, "rs": 0, "rc": 0, "ys": 1589, "yc": 3},{"id": "19fd75b372a94307ac45b9c608864567.16", "url": "https://lh3.googleusercontent.com/lv6vEZi-u4v9nJQiY0WwKI7-u7T3Nq2OTuYar9dAViRCRU8-zscButltPkea4gOIGFEKpD9tK8tKy8c5G8U_gXaMEQ", "name": "Buttle Kyrka", "lat": 57.40268400000000, "lon": 18.52977800000000, "team_id": 1, "available_slots": 1, "bs": 1028, "bc": 1, "rs": 1718, "rc": 1, "ys": 2242, "yc": 3},{"id": "1a78d65695264ca68dac4abb9e36f562.16", "url": "https://lh3.googleusercontent.com/TX2C-GqUR_PK4u9DM3-6P-dPA22emivOsJEzAokwl44tIUge03jO93MDpnDUsa9r6fHQvKhsnKZ8JdzeLbxY8yN6iwHg", "name": "Sproge Kyrka", "lat": 57.25356800000000, "lon": 18.21083600000000, "team_id": 1, "available_slots": 0, "bs": 1733, "bc": 1, "rs": 2376, "rc": 1, "ys": 2393, "yc": 2},{"id": "1aa68c17ac1f49868c1b256acd06fce9.16", "url": "https://lh3.googleusercontent.com/BUk2cFstNkoDEm9GYyfxMcqUGbeSPRsOoh68lAYCYhXsAn5dWVa8u8A5Q_gM0yPvnAOu994dQaf02nHHgPQ_whMFv_j5", "name": "Alva Kyrka", "lat": 57.20751000000000, "lon": 18.36116800000000, "team_id": 1, "available_slots": 2, "bs": 3583, "bc": 2, "rs": 0, "rc": 0, "ys": 1154, "yc": 2},{"id": "1afc35219f804348a691fda0c943b461.16", "url": "https://lh3.googleusercontent.com/Ok878nA-DZRt0dYJl1VmzorWUIzcuvwPKc5cOR-S2NYSR5J9cx0rMF4vxGwZ8GjeRFadbGQqD_t24VNWVkgLXaN6Frs", "name": "Bungenäs Naturreservat", "lat": 57.83281500000000, "lon": 19.08389500000000, "team_id": 1, "available_slots": 2, "bs": 0, "bc": 0, "rs": 1735, "rc": 1, "ys": 0, "yc": 0},{"id": "1b58adeaa3d93f37917aefb35b18a1b3.16", "url": "https://lh3.googleusercontent.com/hi2HR4uHgjiIN1qqHNnv9rwUrWLOP6D_doeUVK3Oyf0-G3S9QxCrJQWOB3ZjUefcAMQP5eThtcKbAXFYE_o-9eJACZZSH9RrT4XL8zneOw", "name": "Nattpärlan", "lat": 57.54009300000000, "lon": 18.52417200000000, "team_id": 3, "available_slots": 2, "bs": 541, "bc": 8, "rs": 562, "rc": 7, "ys": 236, "yc": 3},{"id": "1bb08f7b279e3f1ea429ff2b702ec4c7.16", "url": "https://lh3.googleusercontent.com/Ccyt_RYB3_nEybvLhcylN-QY2EUiLxPBNeUPNlTQgGN19LwMNsvAcxKywGTnxZcsTosivUaJb-M0Oqlxvj60p1CGLBPu6zx6YzYEgiZ0", "name": "Sanda-Tjuls vandringsled - Husgrunder", "lat": 57.44834600000000, "lon": 18.22943900000000, "team_id": 3, "available_slots": 5, "bs": 0, "bc": 0, "rs": 3008, "rc": 2, "ys": 3459, "yc": 1},{"id": "1c3720f7a4e34844a41e146eb585dc8e.16", "url": "https://lh3.googleusercontent.com/a9KQnWyZ_p1UFTkWHnTwH5q_w16ndZSWWjRVtgX6MOXhMCTQqHTnAPOTft7Hf_vgVHYHOShK8qQMJJC1waOjZWMA5Q", "name": "Bluttmo-Glidarshagen", "lat": 57.84922800000000, "lon": 18.98646900000000, "team_id": 1, "available_slots": 4, "bs": 0, "bc": 0, "rs": 6423, "rc": 1, "ys": 578, "yc": 1},{"id": "1c7db253b7f44e37972988d5283f7e19.16", "url": "https://lh3.googleusercontent.com/uzhspDa4uronflEBTFGhgue-f6T6AIu_yWyeRRfuvjsYh_sLupSYxqN9sgVaXY0MF3IBMrabmtBynTnMuaYRFrgZMgok", "name": "Fridhem", "lat": 57.59971600000000, "lon": 18.21406300000000, "team_id": 3, "available_slots": 3, "bs": 75, "bc": 38, "rs": 84, "rc": 43, "ys": 86, "yc": 33},{"id": "1c7f7564ace64da2ad4f545ae0969c4a.16", "url": "https://lh3.googleusercontent.com/9PZPjWJW0ZrOC7FgYkB5SKC4Gv3VFQhtYj90Kja_vhkBwVBX9H7LTIlkTnD916Y-7G8U1MJIMQ9q0HMwa5sy_sHpgH9Y7eabMHE7gmIEmg", "name": "Eksta Bygdegård", "lat": 57.28807600000000, "lon": 18.19684700000000, "team_id": 1, "available_slots": 4, "bs": 4215, "bc": 1, "rs": 0, "rc": 0, "ys": 4685, "yc": 1},{"id": "1c8a9754405545dbbc4f96023da28ff1.16", "url": "https://lh3.googleusercontent.com/9CiNf5hxubzG76huErVQedhlgO-YJjjRKln3J4x1l4eo_JfXHxdRA97Yhs0qiJHLGqo8DF9qcgduJPeCB-utLggQFSk", "name": "Rannarve", "lat": 57.39590600000000, "lon": 18.22417800000000, "team_id": 1, "available_slots": 5, "bs": 1741, "bc": 1, "rs": 0, "rc": 0, "ys": 3576, "yc": 2},{"id": "1ceef9081d593aacb1824b4d64768766.16", "url": "https://lh3.googleusercontent.com/suJwOkchor326ygHwiqRNUPaZux19XQqr9kevLOJWFZAJFEM3tp6n4qawpK2YCoZfC1rnIiJbMCWLKaq6EmkcUOKVOfHbON3WHvBYPQ", "name": "Vandringsled", "lat": 57.44008900000000, "lon": 18.22454200000000, "team_id": 2, "available_slots": 4, "bs": 1740, "bc": 1, "rs": 0, "rc": 0, "ys": 5261, "yc": 1},{"id": "1d176a1360bc46418df54d61e7a9d056.16", "url": "https://lh3.googleusercontent.com/aXbbTLHfUyS1Cy0UO4TrMIlZjrmPTDDNOpE4cI9Oi-CgPlB4EZyFOtRlHyoLXrQ0bDgiyGCn19-MhLEFD9mwJKaa1A0", "name": "Garde Kyrka", "lat": 57.31721500000000, "lon": 18.58202300000000, "team_id": 1, "available_slots": 0, "bs": 7866, "bc": 1, "rs": 1030, "rc": 1, "ys": 0, "yc": 0},{"id": "1d6e1883f8424fb1aef0993c432f53da.16", "url": "https://lh3.googleusercontent.com/xoI91cPd8saUkCKKScLcY_-oq4EEiy0thj4lAxr9RztPL9ZaFZYoLpHR-6iyHkjZE6LcH0_W2EnlzFZljFJ4amtT1snpiaAc7ow8kEUh", "name": "Lausvik Natura 2000", "lat": 57.27706100000000, "lon": 18.67293300000000, "team_id": 2, "available_slots": 4, "bs": 0, "bc": 0, "rs": 0, "rc": 0, "ys": 0, "yc": 0},{"id": "1d784bf974be444db40d9c76c13a090d.16", "url": "https://lh3.googleusercontent.com/yNyxtAu1RQuzd2x_h896pK9HygOizGyzc8-0X6-DipsOk3gW_84zQnog5ATenwbTvu-cVpSKtea4lhgIh2c2sMctwbZ0", "name": "Roma station", "lat": 57.50769200000000, "lon": 18.45710700000000, "team_id": 1, "available_slots": 4, "bs": 215, "bc": 23, "rs": 87, "rc": 16, "ys": 139, "yc": 22},{"id": "1d8fb6c709934244af620733b30c00b4.16", "url": "https://lh3.googleusercontent.com/m6tHTcw6ZzitqEQtyhN-N3d-17aKQvieIxvL_Qfm_UjwoS0w9mSD9Oys2yMW7RW-fl7lA54VFIfidEPLwlab2lqPoqKwoWW6VbZ9rAZ2", "name": "Fågeltornet I Träskmyr", "lat": 57.83271900000000, "lon": 18.75847300000000, "team_id": 2, "available_slots": 5, "bs": 5395, "bc": 1, "rs": 2832, "rc": 1, "ys": 0, "yc": 0},{"id": "1e3b3aff3c6e46c18ff6fcc7a744e14b.16", "url": "https://lh3.googleusercontent.com/NWhvSAEJwzKWG3n2ZUq4dYYhNKcIchT7gOTvmABVGf33l-gCessr3ynnJYjPtfDhHCJHiyADlfdH8MIoJoc6jXzGQ_8l", "name": "Fårö Lighthouse", "lat": 57.95959200000000, "lon": 19.34921500000000, "team_id": 3, "available_slots": 5, "bs": 4061, "bc": 2, "rs": 0, "rc": 0, "ys": 1716, "yc": 1},{"id": "1ed033706417449ba2b7d6386e26346c.16", "url": "https://lh3.googleusercontent.com/4ndj1MfpYJKBpnFP4FY4AFZuuTk6lG6y8BYNWriMaZWB3VM2YB67LHpDJ98K9WKQecp9MlVgLw2S3g2A0D9LD0inwUg", "name": "Eke Kyrka", "lat": 57.16796100000000, "lon": 18.37909300000000, "team_id": 1, "available_slots": 0, "bs": 0, "bc": 0, "rs": 2488, "rc": 1, "ys": 5378, "yc": 1},{"id": "1fb1428107fc4aa68077d771d19b2a13.16", "url": "https://lh3.googleusercontent.com/FqiMCI6Aau5fIZbFyG39IrQDCpbYHAGnePhO1L6RzTgxN-iNkKSp73aYzAKHGhNpPes20jpjPEdmVM8OckSJ98V1zt8YHzGVX9rOAfYm", "name": "Vårdträd", "lat": 57.59093900000000, "lon": 18.21092000000000, "team_id": 2, "available_slots": 5, "bs": 326, "bc": 9, "rs": 569, "rc": 8, "ys": 259, "yc": 9},{"id": "1fcdc9b426283f14a0f754ab4ef88a41.16", "url": "https://lh3.googleusercontent.com/ulVT7QfKeq2ZoHOf1kAWX58Gdupay4jcgKp-bowLfQK83n_uINfodGAImb4UbR1fVgX_SQpKfej-BnvvjkuVBbvpQ4Mo4JznubtgxwiA", "name": "Kaupungs Slott", "lat": 57.36073000000000, "lon": 18.71090800000000, "team_id": 2, "available_slots": 5, "bs": 5385, "bc": 1, "rs": 0, "rc": 0, "ys": 1756, "yc": 2},{"id": "20dd682473484cf9b5c6da46d06df1bf.16", "url": "https://lh3.googleusercontent.com/5cHGF8Yt55iHOuOuKq2G1OGx1YwLPuUVposZ34G2N4JDKcI0_iRxati5k8U0Alg4tw-xXBwMBjSrkiJ7RARQQk26sq4M", "name": "Vitviken Golf", "lat": 57.61882400000000, "lon": 18.76202000000000, "team_id": 2, "available_slots": 0, "bs": 1385, "bc": 2, "rs": 1935, "rc": 1, "ys": 1713, "yc": 3},{"id": "21639064ca0142c195691d41c588e92c.16", "url": "https://lh3.googleusercontent.com/F-Lt-z2Z9qyyStDYcQIEkst4bZAQxs2_PDQ1h8rnb_vh-fS_saxhNlGOcnzd8DKRZMPmcEAZ5swC2_RYClHK9Qr7XkM", "name": "Lawn Moving Log On A Bicycle", "lat": 57.86100600000000, "lon": 19.05979200000000, "team_id": 2, "available_slots": 4, "bs": 1782, "bc": 3, "rs": 1382, "rc": 2, "ys": 1719, "yc": 1},{"id": "217808f9cc5b466c9b460f6d8af8225f.16", "url": "https://lh3.googleusercontent.com/IogQBQNT6ZxxeV3pYsuF7Z_RGBMTXZzDDwEgPm7_Whx7ht_Ov9X9QNrpqdhRedC-WHIZP_tj2RJuLsytju1vYyv-K-M", "name": "Cementhästen", "lat": 57.70797100000000, "lon": 18.80363700000000, "team_id": 2, "available_slots": 0, "bs": 1731, "bc": 1, "rs": 4571, "rc": 1, "ys": 0, "yc": 0},{"id": "21a17fd6defe4cf68adf15c16dd62478.16", "url": "https://lh3.googleusercontent.com/CY4alDogVEDZM1oJFIBKMUZzgE9LwHOxpOpL39xV-JYPTD7sXvA9-LbdRn1TaDQnAHAjD9qTUXc4UQvc0RM8uyqKvg", "name": "Gotland University Windmill", "lat": 57.63924400000000, "lon": 18.28873800000000, "team_id": 1, "available_slots": 0, "bs": 16, "bc": 225, "rs": 19, "rc": 248, "ys": 10, "yc": 150},{"id": "21ebe05ffc84414fb96b471c1fb94f29.16", "url": "https://lh3.googleusercontent.com/zfGnKRedXAUdyf-anbBk6-gEEmraiRBU7CkGWB_k-KniycaOU-7QhUUznMNPG11cJZjvDpCxZ2wvHJGpkIBW5bNrhw", "name": "Station nr 1", "lat": 57.34018700000000, "lon": 18.23322800000000, "team_id": 3, "available_slots": 4, "bs": 0, "bc": 0, "rs": 0, "rc": 0, "ys": 0, "yc": 0},{"id": "2201b736ccd24581b2f3144b499aaffa.16", "url": "https://lh3.googleusercontent.com/LfQDgleKcb4tbY14DKO85txRRyFHbP-jRei0rkvluq6tx1oIAQSklJ5yXk5nfHrUdC35opZj0yHNfvJdEtn0ekq6ggM", "name": "St Mikael's Church (emeritus)", "lat": 57.63680200000000, "lon": 18.29548900000000, "team_id": 2, "available_slots": 3, "bs": 27, "bc": 166, "rs": 23, "rc": 126, "ys": 19, "yc": 136},{"id": "222f67ac0c7f456290c2adb3fab02175.16", "url": "https://lh3.googleusercontent.com/vZVsE9_XbEeVMmKxawnPQi97A7XuvCZbniT26gtJo8AsF0siNlxjHVZ_y0XMNj8iMXZao-r2ZafLAflPuqMvsYnPiG0", "name": "Naturmuseum Lilla Karlsö", "lat": 57.31040400000000, "lon": 18.07280100000000, "team_id": 3, "available_slots": 5, "bs": 0, "bc": 0, "rs": 9255, "rc": 1, "ys": 0, "yc": 0},{"id": "2390c344205d46ccac7a36b55d6a4e3f.16", "url": "https://lh3.googleusercontent.com/Ugg_eZbCxNSVOKGoZkJsaeraIzf7vnMIgVy7l4wKXn53mO7-yoar6wLYf89b1Pw5aZ2VTw-ozWTcJegmYQJn_5ckOKw", "name": "Villa Villekulla - Home of Pippi Longstocking", "lat": 57.60993000000000, "lon": 18.24389300000000, "team_id": 3, "available_slots": 3, "bs": 31, "bc": 131, "rs": 16, "rc": 99, "ys": 36, "yc": 118},{"id": "2422cd013184493786d95f7428ddb556.16", "url": "https://lh3.googleusercontent.com/LcA_pwG5rH6FdzNF3fASK6arOVl-v9elhNL5AsHux7nunyOCWlzlozJ8GVntyS9DJ_BGx6dlOw9OI2d6W8FbsO6f-Q", "name": "Ekvikens strandskyddsområde", "lat": 57.97259000000000, "lon": 19.26220700000000, "team_id": 1, "available_slots": 4, "bs": 2838, "bc": 1, "rs": 2025, "rc": 2, "ys": 2953, "yc": 1},{"id": "24782a2284334d159785f2b3ac90acf1.16", "url": "https://lh3.googleusercontent.com/WLaheyZ0Sb1F0FxCqNHptMvvD0MvvdRyqMgDLbxq03B0-LQvZCeMNK3aR3SKdOiV0uzND3vjPFfWrfX3msF4fz590USd", "name": "Stone Maze", "lat": 56.93593100000000, "lon": 18.29420000000000, "team_id": 2, "available_slots": 4, "bs": 2118, "bc": 2, "rs": 0, "rc": 0, "ys": 2618, "yc": 2},{"id": "2562f0496f734fd4bad21139cbb8eab0.16", "url": "https://lh3.googleusercontent.com/ZyAx0XvY7Tbmk2xL0kddmYcyYqyrTSKEwEm-WjMs2Je8MB9CoFn4TLtTKFyM1LOr6rqMSlAZWcX-mImEJIvTdTaob84", "name": "Östergarns Bibliotek", "lat": 57.42600000000000, "lon": 18.84135200000000, "team_id": 1, "available_slots": 0, "bs": 110, "bc": 48, "rs": 97, "rc": 26, "ys": 43, "yc": 40},{"id": "256751202d2d32ce847ac90acfd8e365.16", "url": "https://lh3.googleusercontent.com/X3fFQR1ecaQa8YhBGyEI2KWN76-IVcsbGodoA1O77S7H02FQ8qf26GsUK9fxK-AGKEcn5Gr3CZK6vvueYemxvjKCcT0HiYNlXmxQhhie", "name": "Fåglarnas Gotland", "lat": 57.24462800000000, "lon": 18.64774100000000, "team_id": 2, "available_slots": 2, "bs": 0, "bc": 0, "rs": 0, "rc": 0, "ys": 0, "yc": 0},{"id": "257bc3496c903896be71ec0a46c03e8f.16", "url": "https://lh3.googleusercontent.com/23YwHtB58rOzdPaPVoqqOpFgh9nw0rW-vuByHEvzzyktjCRVf041fc9g5zInL7h_b6BeRSnR75HIddhcMiqYPtQHyRuqMzYv--uGVbk8", "name": "Bin och andra pollinatörer", "lat": 57.54183500000000, "lon": 18.55498100000000, "team_id": 3, "available_slots": 2, "bs": 580, "bc": 1, "rs": 1719, "rc": 1, "ys": 2965, "yc": 1},{"id": "25a477d38dcb4130a6508c3038f85804.16", "url": "https://lh3.googleusercontent.com/uTRvCGMCPn5zaVkJIFiS9t3xPm4kwn8TbmJrZIA7JCh-TazEmMuD15EeQsIOO0szMMHIQKXkmt4AwA0rIFCxqMDzvsXa", "name": "Old Watchtower", "lat": 57.79188900000000, "lon": 18.98814100000000, "team_id": 2, "available_slots": 5, "bs": 3241, "bc": 2, "rs": 1741, "rc": 1, "ys": 0, "yc": 0},{"id": "265e64a0609f3669a50d3c5597d0dbd3.16", "url": "https://lh3.googleusercontent.com/Tn7HmDwTv6skhsCDZ9e-0MqNdvyLhSao17XJ-xhylIST0LAIx84MlzET3uFs82gIVtI1DIZTvhJdPfYe0XnW6H7znPIqm6q0azxz7TXV", "name": "Gotlandståget", "lat": 57.52969700000000, "lon": 18.51314000000000, "team_id": 2, "available_slots": 4, "bs": 2677, "bc": 2, "rs": 0, "rc": 0, "ys": 1097, "yc": 1},{"id": "2779087dba3c454580ae37681501e92d.16", "url": "https://lh3.googleusercontent.com/RE3mbbbND9fz6Ynx3-TOqcdJ8SVsYGQEUFpvuRaWBBFhZz8AGCiiwptEPY603YCYqgNezFAJpFTXH7PTNm7bKC5Jww", "name": "Othem Kyrka", "lat": 57.74736700000000, "lon": 18.73855000000000, "team_id": 3, "available_slots": 4, "bs": 0, "bc": 0, "rs": 0, "rc": 0, "ys": 0, "yc": 0},{"id": "289e754966f44417b3025c578c2b5a3a.16", "url": "https://lh3.googleusercontent.com/JTA3cg-v247hXLhCcZPtMoB_2bvR7hIdMp4Z4eZohYb-SFDG5h5d0E8tlDK8QOaukxPexrr4njM559dS8z_FnW9CZag", "name": "Fogelqvists kvarnruin", "lat": 57.78923700000000, "lon": 18.80995000000000, "team_id": 1, "available_slots": 3, "bs": 0, "bc": 0, "rs": 4576, "rc": 1, "ys": 0, "yc": 0},{"id": "28a9c6621bb0483bb550a9e20707155c.16", "url": "https://lh3.googleusercontent.com/qOzJU5jWaD6WkelvSND6MoVaeSWk-O6XzkK0Ha0aiSJcc97UY3H7O8lFjO3_4chGLu1iBmfKwsEYZHM9qjMNgobf7A", "name": "Fifang Playground", "lat": 57.97128700000000, "lon": 19.26443300000000, "team_id": 3, "available_slots": 5, "bs": 0, "bc": 0, "rs": 1455, "rc": 3, "ys": 1379, "yc": 2},{"id": "29431352a9384501b4be5ee2bf2e0350.16", "url": "https://lh3.googleusercontent.com/ipdfHxXrJfp2QpX9OUEuBqKuvyXAO7PRf8QHhrcyq9ylAemkNNbcVK-dG5rfWsEyeUpgDzyg_Qu4CCZNvwg8M39_Pw", "name": "Östkustleden - cykla längs kusten", "lat": 57.33806100000000, "lon": 18.71562300000000, "team_id": 1, "available_slots": 4, "bs": 0, "bc": 0, "rs": 0, "rc": 0, "ys": 0, "yc": 0},{"id": "294a288d5eba3fe9ad2391deef35101c.16", "url": "https://lh3.googleusercontent.com/ExzjKNlQcjj5qdPcdfeBPVK484k3mBi4lPeX8Hq9-0LNaSI8BXZNpXsQloag47EwjlcJz22cIJtjSQ1TRLZfhOWuCKvD9VMf6cqZE14Z", "name": "Anga prästänge", "lat": 57.47683700000000, "lon": 18.70902400000000, "team_id": 3, "available_slots": 2, "bs": 578, "bc": 1, "rs": 0, "rc": 0, "ys": 0, "yc": 0},{"id": "294c067da7fe4fb3a3665a9522a74681.16", "url": "https://lh3.googleusercontent.com/JpiJ-UqRfx4Fiwj0rg4XJevxh-Q4GZ_VLJq4PxjfoOmpIIrz1aUePruklKm7EAz8hrT_Y5NLlOF1PJw6fUVSxoIJ5QY", "name": "Ala Kyrka", "lat": 57.41901000000000, "lon": 18.63493700000000, "team_id": 1, "available_slots": 2, "bs": 0, "bc": 0, "rs": 0, "rc": 0, "ys": 0, "yc": 0},{"id": "294f95be50914302a1e0ed617ad9aef4.16", "url": "https://lh3.googleusercontent.com/bkOmgmcpcjCld31JhuFKsdqskMWJsy9AMP8L3bylKkRrFWT1LjXiT5E2-zYQn1R9Q4-I3HDrnBDtEPbm4k2gx89jvg", "name": "The Statue", "lat": 57.63975600000000, "lon": 18.31254200000000, "team_id": 1, "available_slots": 0, "bs": 44, "bc": 152, "rs": 16, "rc": 109, "ys": 17, "yc": 87},{"id": "29f0cc5b0ada34b490c799693a91a62e.16", "url": "https://lh3.googleusercontent.com/_zzIkhnvPKScVPPxFbqSfmVTj4uG8yHJfhq_QG1IpcArtQNckJqelfb4EGFcEUGR16hvMaFJPXJXM7uQoujVdzvhKi5iGuegsacvcLk", "name": "Öde ruin", "lat": 57.60162800000000, "lon": 18.21823100000000, "team_id": 3, "available_slots": 4, "bs": 43, "bc": 4, "rs": 457, "rc": 13, "ys": 319, "yc": 10},{"id": "2a125c9983fa4367822758f42e66b8aa.16", "url": "https://lh3.googleusercontent.com/vmuCUaKBU3rzLH3fvmiRQt6Avu_eDaotet1jVtmWuLXcrVRpwLoxpgPYqBBwC1EdvH7AyBPFDhehwpNNd4YgpVauxc4", "name": "Linnéstig: Oljeborrning i När", "lat": 57.25893300000000, "lon": 18.61463300000000, "team_id": 2, "available_slots": 2, "bs": 2472, "bc": 1, "rs": 0, "rc": 0, "ys": 0, "yc": 0},{"id": "2a9be80192e448b29b14a50bb316095a.16", "url": "https://lh3.googleusercontent.com/aJFi9W0eZKdVqlm4G_R-2OakChAGS_HK-uN3weN0MN-RiF3J-oegV9z-j_dtkvmOjnmg90A3TFbOrelIiufEj79nbSE", "name": "Wildbee Info", "lat": 57.61766900000000, "lon": 18.26442900000000, "team_id": 3, "available_slots": 4, "bs": 156, "bc": 40, "rs": 73, "rc": 30, "ys": 64, "yc": 22},{"id": "2acc19ce88213b61a63b6034f2141ed2.16", "url": "https://lh3.googleusercontent.com/_hYkFxDEBhHA9PSkdplaCizlnZ10rxPrLLDD2MB1l2FYA3J1vpzvVrT74eutehqth45OIVcIXjy2KAipoPpOUkK7DCBNojqD3GO-Fi3I8w", "name": "Skylt Hässle Backe", "lat": 57.42037900000000, "lon": 18.90851200000000, "team_id": 0, "available_slots": 6, "bs": 0, "bc": 0, "rs": 0, "rc": 0, "ys": 0, "yc": 0},{"id": "2b13d145d7473dbf9509d0a187ac4370.16", "url": "https://lh3.googleusercontent.com/kq9-mKR1FOYyxHoM0ETNnnVH8oq1RXazLoVglYCUQErDywfnjWaf24yJDf3q0pNIp2xzlTPKNVLdzwDO7I7k36Yh7SxXe70-inY65Iw", "name": "Smidkalles smidu", "lat": 57.20048000000000, "lon": 18.42630500000000, "team_id": 2, "available_slots": 1, "bs": 1829, "bc": 2, "rs": 1730, "rc": 1, "ys": 2478, "yc": 1},{"id": "2b58f3f9b21342f2a3cf5a525418fd98.16", "url": "https://lh3.googleusercontent.com/hoJHBYl8yxasC5SjabRozKmQzYxSvSiCphBEwnD1blmi_WckEfbrDPgFUw1GU6OGceizTi8PLodqSGY3AkFP--O-Ew", "name": "Högklint", "lat": 57.59938900000000, "lon": 18.20234700000000, "team_id": 3, "available_slots": 3, "bs": 113, "bc": 42, "rs": 40, "rc": 35, "ys": 88, "yc": 41},{"id": "2b61b85fd46732eab6238cd4e2211e6a.16", "url": "https://lh3.googleusercontent.com/Zzxe9dhneVSBHd5qrmmZJFOyEpjsFR9PzL4hX9Mn1SPmpJjwk2isMG6T7Rpfgm3nQhBHCKLGALC9GD_XfxXIJ-5U3gPOBjk2AXiUIwh3", "name": "Blåhälls fiskeläge", "lat": 57.54561100000000, "lon": 18.12162000000000, "team_id": 3, "available_slots": 4, "bs": 4218, "bc": 1, "rs": 5260, "rc": 1, "ys": 0, "yc": 0},{"id": "2bd050599c474131a2dcbf8d8f140d3b.16", "url": "https://lh3.googleusercontent.com/Q0nLOe5f5ESRRGCfG0eh-6z_koivKtaGGohvw3L0eDkzfdzzpANYbebXS5TtmbEP7usFEhlw3XpzC6AMyrG_aKAQCTE", "name": "Laus Holmar", "lat": 57.32296500000000, "lon": 18.71057200000000, "team_id": 1, "available_slots": 1, "bs": 1717, "bc": 1, "rs": 2622, "rc": 2, "ys": 1257, "yc": 2},{"id": "2bd2cc9b43603b249bcdc269bfdd88b3.16", "url": "https://lh3.googleusercontent.com/K5VPdFAA3BNGmHFMCJcV7-d1Ti-oteUBJBV7OyvPk_sCUOJ-4x-3wRxSpgW5RgKaUIFR16dku5sAR2OX142p1VAKrFbXX3-MQfhTxy7P", "name": "Fårö Bygdegård", "lat": 57.93815900000000, "lon": 19.20035900000000, "team_id": 1, "available_slots": 5, "bs": 0, "bc": 0, "rs": 0, "rc": 0, "ys": 4573, "yc": 1},{"id": "2d84cd1e561b4f88a256312d76d1711f.16", "url": "https://lh3.googleusercontent.com/T_ItrvNMUho0t6pZxqf8kYFtfcKHggSNmEaZXAd1oU5jOUbsx4uZFqnJcyRcLzbB5kaf-gcYtmI_W0B0G8ckl5Ql_T8", "name": "Riksbank", "lat": 57.63815000000000, "lon": 18.29212500000000, "team_id": 3, "available_slots": 5, "bs": 10, "bc": 292, "rs": 19, "rc": 328, "ys": 8, "yc": 120},{"id": "2da2b9fbcb6645b2bd197bde28b7d973.16", "url": "https://lh3.googleusercontent.com/Kn2j1wOsxhV5Yx08zY5nyDSkrJcqY1RndQMbdgJbmx8_o8T23hbCveWnpfaXl_paQPXiJqq6D4buGrF51FlABabJPfpTTJrTkul7SqCG", "name": "Bottarve Tröskvandringshus", "lat": 56.99169300000000, "lon": 18.24719100000000, "team_id": 2, "available_slots": 4, "bs": 3459, "bc": 1, "rs": 2472, "rc": 1, "ys": 1936, "yc": 1},{"id": "2db8ebab5bca369a932c969c52e3197d.16", "url": "https://lh3.googleusercontent.com/e9LTPtnm-vIINu_jos3mjLslC7sD2D1L0BrIGDzunLiIMN7H_EZrZfcY3GlQqLOTId1WNute91alO3XLXtOU1zzIi2qlzDvMEp6sPHfTeQ", "name": "Kvarnen på Skags", "lat": 57.40112700000000, "lon": 18.86321400000000, "team_id": 2, "available_slots": 5, "bs": 2633, "bc": 2, "rs": 0, "rc": 0, "ys": 2490, "yc": 1},{"id": "2ddd85926eae3cbfad2fbe60afbbd9b3.16", "url": "https://lh3.googleusercontent.com/4vX4BNeVuq6wZRfoaucAVAlYP1s34ES7zhPjdmvPKF-MfFEgAXUWlZoXTvl9TUOccDbWNo3NBnSvTqH0KIKx0xfNjHesgk7UHGdv0BE", "name": "Sanda-Tjuls vandringsled - Valksten", "lat": 57.45613900000000, "lon": 18.23716200000000, "team_id": 3, "available_slots": 5, "bs": 0, "bc": 0, "rs": 3019, "rc": 2, "ys": 3443, "yc": 1},{"id": "2e2864f3b6334a2598e59d763ee58ca5.16", "url": "https://lh3.googleusercontent.com/29aXGRYC5MnxiVm90svFSsi_BjuW-8Ho0uHQIzKoFc4LAL7qHsIavzwW1RZ7xpSTLBd7f1aNA0eOx6mHWpDK5fUsOSk", "name": "Övergiven Bunker", "lat": 56.93274200000000, "lon": 18.28893900000000, "team_id": 2, "available_slots": 3, "bs": 1385, "bc": 2, "rs": 2198, "rc": 2, "ys": 1729, "yc": 1},{"id": "2e34f72bb923494fa688f7fe71718a0d.16", "url": "https://lh3.googleusercontent.com/0Rja5jRFXxhnm0EEjbYQHIuENSvFacgHUwfr_NNsWNfvMKIsmoeiQpm1W7hqEUYfffg6nLNmD4x6dlRy56jfg4aJQrg", "name": "Alvar", "lat": 57.61229300000000, "lon": 18.25782700000000, "team_id": 2, "available_slots": 5, "bs": 285, "bc": 27, "rs": 92, "rc": 15, "ys": 64, "yc": 14},{"id": "2e655bff70fc3677bf417aa91857cdf3.16", "url": "https://lh3.googleusercontent.com/CLpyZx7S5NnsAiBsLQchuQl1MpsJ51JcheAY9FV_O-Znfs4r1-x9BO1VgejxXMoCygkn9V8hDf107_YMAj38wxXGAXqV5NXiHbI9mswcow", "name": "Gnisvärd bouleplan", "lat": 57.50449700000000, "lon": 18.14834600000000, "team_id": 3, "available_slots": 4, "bs": 0, "bc": 0, "rs": 578, "rc": 1, "ys": 0, "yc": 0},{"id": "2ff215ba20de38eb971e506bbb1f092a.16", "url": "https://lh3.googleusercontent.com/Uqng90JemrR6Wd7jgm40o4Ubm5KUYZz5H_LmF-r5H47nYgwtDI9m5tuFm9r19jbq3PPPiJDy5mTy40JRxKVxKbAFhSetA6vqWTzavPUr", "name": "Gran", "lat": 57.35687700000000, "lon": 18.18342600000000, "team_id": 3, "available_slots": 3, "bs": 2244, "bc": 2, "rs": 0, "rc": 0, "ys": 1936, "yc": 1},{"id": "3006159c770b44a88e7139d028ecc426.16", "url": "https://lh3.googleusercontent.com/WA1Wpxmt5B8UO6nbwNeP8OLe_Vdzw2aed_sThbDdSJIZxn0treklRfe6chmc5pohbrrc_yJjM2dqEeAj5KFoowPYAE8NehVg9YUXA5wb", "name": "Gannarveviken", "lat": 57.34808200000000, "lon": 18.19258600000000, "team_id": 2, "available_slots": 4, "bs": 4226, "bc": 2, "rs": 1026, "rc": 1, "ys": 0, "yc": 0},{"id": "308aa13cc8253a66b9d17f2b4058841e.16", "url": "https://lh3.googleusercontent.com/tPQWN-hEH9TTCNAx-VVmONNlVqUF2ykQy-N-gVVgZA-mu7HSqpeuP-K5hyH3bKeSMow63_o4ITkeCCPDWi75hOrySu7z3nSOW0JorpM", "name": "Konsul Ekmans badhus", "lat": 57.43495900000000, "lon": 18.85402800000000, "team_id": 1, "available_slots": 3, "bs": 116, "bc": 25, "rs": 169, "rc": 25, "ys": 73, "yc": 32},{"id": "30a5771a2bea4a7bb44ec3f547eeacc8.16", "url": "https://lh3.googleusercontent.com/jLJI88rN0e7IRPfnsqsV1Db-A0md2ouLnP56fZv4hMlQ7veAY3GGdS3x162GRfnBXAS-NlTgRXAzJZtI12BZhYfrhOG7", "name": "Stenmuseet I Kättelvik", "lat": 56.94289500000000, "lon": 18.14985100000000, "team_id": 2, "available_slots": 3, "bs": 3063, "bc": 2, "rs": 0, "rc": 0, "ys": 1385, "yc": 2},{"id": "30d50cf60bd539639ded9bfecd103af6.16", "url": "https://lh3.googleusercontent.com/VkMCe6xdr_TVH9wCWhnqBZvfmTIr_2Qpt5eBNr-MfZ4u05hN1ATAyPAMqhyihXwyhZEl_FX_AJBxAZI1uLHTxf9wV0nCU8u7bhgzJpTN", "name": "Grillplats Furilden", "lat": 57.77689100000000, "lon": 19.02591300000000, "team_id": 2, "available_slots": 5, "bs": 3455, "bc": 1, "rs": 0, "rc": 0, "ys": 2856, "yc": 1},{"id": "30f1404b98b846f68e1937c7cb6f174e.16", "url": "https://lh3.googleusercontent.com/siPtyINnqWK9NO_Z-dI3U0GiFbMEymZybaCwl6zxqDEMtlySKQpXwR8TJuFHNhJiDvtYa9-beaMcDUXAro2aTv7aoQ", "name": "Time After Time", "lat": 57.86370000000000, "lon": 19.04548100000000, "team_id": 1, "available_slots": 1, "bs": 4579, "bc": 1, "rs": 3652, "rc": 1, "ys": 0, "yc": 0},{"id": "30fd5f7647064d6aaf84905b5b8ba34e.16", "url": "https://lh3.googleusercontent.com/iHVn-oBli_cPmIzmiTWc-Y_nUpfBlnVQMIBmE_JRNizyWyOJYB4zsSFWbVJW0ZhYm9S2DeTsyWMvE3hiwFN6v-Rqj2Nmh55Yt-ENTZ0", "name": "Ardre Runsten", "lat": 57.37740900000000, "lon": 18.69718900000000, "team_id": 3, "available_slots": 5, "bs": 6541, "bc": 1, "rs": 2355, "rc": 1, "ys": 0, "yc": 0},{"id": "3172d74feab1424687f34beeca82511a.16", "url": "https://lh3.googleusercontent.com/zWqAjUPkE4NWKRQvfC7vo6GpzIR3uDT2RKkoiCK_Xt1NLGLXO-Usm7x3VRpJzv50hKw3x1VfsV4uWVoz0IH9VPIOYIw", "name": "Lighthouse", "lat": 57.63926300000000, "lon": 18.28678100000000, "team_id": 1, "available_slots": 5, "bs": 20, "bc": 172, "rs": 26, "rc": 170, "ys": 16, "yc": 123},{"id": "325bd9b113db32908aa4eef63451aa2a.16", "url": "https://lh3.googleusercontent.com/_M8J_Zzd8exnjMaKHn4gyAH_nG2P4_KoJCGUsAdpYkY1PlS6QLqoNDPelWqZHPztOsMY54uKEOirqOnK95FFOSw7WVDrz8wkXvcitQOCBA", "name": "Kalvarpet", "lat": 57.58764200000000, "lon": 18.19083900000000, "team_id": 3, "available_slots": 3, "bs": 35, "bc": 1, "rs": 90, "rc": 1, "ys": 301, "yc": 2},{"id": "325e49ecfd22438282d3e5a4e02162bc.16", "url": "https://lh3.googleusercontent.com/zMe8cBpafe2gsInZ64okQ26aNY-h7w3GIfnYQSEDCXpMiEtCzUIjlKyomtqU-1bEPq_gEcR-VIL8DeF49eQKKYN28rg", "name": "Terra Nova - Örtrik Gräsmiljö", "lat": 57.60765500000000, "lon": 18.30084700000000, "team_id": 1, "available_slots": 4, "bs": 102, "bc": 43, "rs": 84, "rc": 41, "ys": 74, "yc": 27},{"id": "3290b7563fa541da9baddeae9288e1f6.16", "url": "https://lh3.googleusercontent.com/9QvoWI15xgrVa2wxtwCpK1BhS8UGpJRETneytRo8DVgjqYFDdG7WWTA8oYtRqR56F3nBHM3oy1nmtnqBModVOQ48hA", "name": "Takstain", "lat": 57.63605800000000, "lon": 18.32705700000000, "team_id": 2, "available_slots": 0, "bs": 19, "bc": 187, "rs": 22, "rc": 214, "ys": 13, "yc": 128},{"id": "32c04f75f82f47728e36118e3ec436ab.16", "url": "https://lh3.googleusercontent.com/LTiJ7Ue7ELswsQJKn46_3OdOZEDIXdbR5IKNTwnLMbwgR7824eNALojSfRN1yrAAY3xhg1XTm1bmhab0YTiRzQynA9Ey", "name": "Välkommen till Ekstakusten", "lat": 57.29044400000000, "lon": 18.10600800000000, "team_id": 1, "available_slots": 2, "bs": 1389, "bc": 2, "rs": 1523, "rc": 2, "ys": 3656, "yc": 1},{"id": "32cc87aac0dc4ff28d50b1ca6a75fb9b.16", "url": "https://lh3.googleusercontent.com/Q7MD24loqVG-cbOBU9g4lcdolG0Zltkja6eQcGs9a7z4LwvwUJFL3bvMkMs_xgn5vQ_YKzrI3skbPGwK9cQHmD9YY0M", "name": "Ingmar Bergman Center", "lat": 57.91914800000000, "lon": 19.13874700000000, "team_id": 3, "available_slots": 3, "bs": 1190, "bc": 2, "rs": 1729, "rc": 1, "ys": 2864, "yc": 2},{"id": "33333f6c0a244a248cc2e9e391ce0207.16", "url": "https://lh3.googleusercontent.com/n-bVUMc8T5JWRYWEcdjN8AD7wLEjgDDiTGvfQ_dN3nJcHb3HNrHQmPsb_-G1wvgyPfc5CbCE4KyY3ByrbSudukUWtg", "name": "Klintkustleden", "lat": 57.85379600000000, "lon": 18.61571400000000, "team_id": 1, "available_slots": 2, "bs": 8227, "bc": 1, "rs": 1028, "rc": 1, "ys": 0, "yc": 0},{"id": "334285a1e75d4e6eb9e814db169fd29e.16", "url": "https://lh3.googleusercontent.com/Ss8-SDTyvqAsdQtLzFMd5QLeqp5bbTf-ayS9T6YcyV0OxeP6A5kXthg11t15sYUOrXVY6ELrpag6N-3LxJF8n3kZrIMRRC4683QZdGw9BA", "name": "Naturreservat Danbo", "lat": 57.38484100000000, "lon": 18.82915600000000, "team_id": 3, "available_slots": 2, "bs": 1029, "bc": 1, "rs": 1723, "rc": 1, "ys": 3072, "yc": 2},{"id": "339a3b0b28fd44758c04f5362d4d6838.16", "url": "https://lh3.googleusercontent.com/F6d8JHsTnWWaacnFrp0gpdLmDrEr8fnv0f4bQsEoQkWXFnKrruqYyn0SPBPI6BA3mRrEOXFuYflbi7pdQRlK56rvJIM", "name": "Kneippbyn - Climbingtower", "lat": 57.61030500000000, "lon": 18.24531700000000, "team_id": 3, "available_slots": 5, "bs": 37, "bc": 66, "rs": 51, "rc": 66, "ys": 72, "yc": 58},{"id": "33b9b14e76754cb29df0eab2d9b66026.16", "url": "http://lh3.googleusercontent.com/pJxPki0N513uRSgBNjvIh0g6nZCLVC7JixG8QCOgXMDg0wCx0z7cX9yI1P5Es74Bp2voNOXG6fcsMbONeQ-CMSIf8fsv", "name": "Tingstäde Kyrka", "lat": 57.73631300000000, "lon": 18.61543300000000, "team_id": 3, "available_slots": 2, "bs": 2394, "bc": 2, "rs": 1153, "rc": 2, "ys": 1372, "yc": 2},{"id": "344fea92286242ccaad017942fa2a4ff.16", "url": "https://lh3.googleusercontent.com/FpPXmFkUMIj0bcBsG_LoZiAx1_i46IqoChSuTeBwTG8COGmDekPhTsH_a5nHFlQT4JtWfp6QdtjWgO0DR1h_41WwpwE", "name": "Halsegårdaån - Fiske på Gotland", "lat": 57.37438600000000, "lon": 18.79857900000000, "team_id": 2, "available_slots": 1, "bs": 1720, "bc": 1, "rs": 2204, "rc": 2, "ys": 1384, "yc": 2},{"id": "3466a6dc0c533a57a86846a7b5e55f5e.16", "url": "https://lh3.googleusercontent.com/WqN7mBsvafxkdeKm4T84mEHgMDZ2pLUdw5DF5OBhchwTUchCMFm35WzSyKM1hOXrDr2Mi7BoXtnGqU06Oj_D4MIdHZ8Jfo6k5iVou3r5bQ", "name": "Sandlådebåt", "lat": 57.68993300000000, "lon": 18.35507300000000, "team_id": 1, "available_slots": 0, "bs": 211, "bc": 22, "rs": 170, "rc": 18, "ys": 79, "yc": 20},{"id": "34a340317e1f44229bb45081d032ba2c.16", "url": "https://lh3.googleusercontent.com/E3mfqy16yB1qLYGu2wbwnQzTg5mvy4stg5pZ_7CZMVbVZbZQZiMR92LCwoR5GVWSOAplqaYGY8aJ2OfJZb9s00H13FU", "name": "Broa Väderkvarn", "lat": 57.86942100000000, "lon": 19.08323100000000, "team_id": 1, "available_slots": 4, "bs": 1030, "bc": 1, "rs": 5379, "rc": 1, "ys": 1717, "yc": 2},{"id": "34fddc6699144603b4bdf3885c28d479.16", "url": "https://lh3.googleusercontent.com/HYcR7bHj7oXl_97NZdJQDVDqssjiV15-KTM1BxENclDsNrA_lIa-hp5lTuDlISpqw5uqvWUZGpOynjCzWapguP1kTwA", "name": "Trojaborg", "lat": 57.65257700000000, "lon": 18.30710900000000, "team_id": 2, "available_slots": 5, "bs": 102, "bc": 43, "rs": 34, "rc": 36, "ys": 95, "yc": 45},{"id": "352b6c983f64403bbdd0c394436efcc7.16", "url": "https://lh3.googleusercontent.com/NbAGBsAs99fKwwKGXLU58ig4YsDB77qMI5L66h0xGXYYOVNNF-9oytycZhbk4h0yxA3atlEXBIS2ViU3zmOo5ezumbk-", "name": "Ett Gotländskt änge", "lat": 57.77074200000000, "lon": 18.45715500000000, "team_id": 1, "available_slots": 5, "bs": 3209, "bc": 2, "rs": 1346, "rc": 2, "ys": 0, "yc": 0},{"id": "352ff99e5a804d93ab0375b031b15491.16", "url": "https://lh3.googleusercontent.com/sjpq8QeBD9PadBXPA8btRSft9x0uXLYqII1O3MjPAIFJjtlUg_LejLRc_avy7BWkzkQO8-b92uKqlupZ-Zh76KKbreE", "name": "Sudersands Fotbollsplan", "lat": 57.95487200000000, "lon": 19.25457400000000, "team_id": 1, "available_slots": 0, "bs": 1724, "bc": 1, "rs": 0, "rc": 0, "ys": 3255, "yc": 2},{"id": "3539c5d3608448b0ab7f842f1f89d552.16", "url": "https://lh3.googleusercontent.com/g0ERgN9c_k1UIYHPJyb9gVn73luhwHq1ciXXCllnO97CYZEwk0WuqMD_5JnnY9qN23AJxVLx-N5GgiTrK2FRR7WhZnc", "name": "Ett Gotländskt Vattendrag", "lat": 57.74162000000000, "lon": 18.40156300000000, "team_id": 1, "available_slots": 5, "bs": 763, "bc": 7, "rs": 511, "rc": 7, "ys": 237, "yc": 2},{"id": "35d165133c5e42228a2efe85facdf791.16", "url": "https://lh3.googleusercontent.com/538XTsMCfUrSVf7XTOt0gFuzNreq_vC-3QRl6SXvr5wXp1mnHBBWDRoRJp8D_1T5tX505wYxUOr0kZp_JyCXqW9oAg", "name": "Fiskeläget Valbybodar", "lat": 57.33229200000000, "lon": 18.17395600000000, "team_id": 0, "available_slots": 6, "bs": 7867, "bc": 1, "rs": 579, "rc": 1, "ys": 1028, "yc": 1},{"id": "35d62f7543e13e81b751592ea3842666.16", "url": "https://lh3.googleusercontent.com/xlolnujGifKrx6zhOGi2Nezh8fkyz33F3Blw3db538aPtEFFnHnwvRSFguN001MTe-diOmaQBdekpnUdN55g-LjHDYP2SHuZkG7c7hf1", "name": "Hide Badstrand's gungor", "lat": 57.73663500000000, "lon": 18.88092600000000, "team_id": 1, "available_slots": 5, "bs": 8233, "bc": 1, "rs": 1028, "rc": 1, "ys": 0, "yc": 0},{"id": "35e836bd8c7e48379e8fb33c300b1b72.16", "url": "https://lh3.googleusercontent.com/axAIkVQfXU_VYMS4Q8B7_SEkp3LmA9SrdsO1knLgo0sExLXoqJ7wQ1NHDaGxYNdBLQutIo06FN_UuaafpRscFes5zA", "name": "Välkommen till Ljugarn", "lat": 57.33302000000000, "lon": 18.70244900000000, "team_id": 1, "available_slots": 2, "bs": 0, "bc": 0, "rs": 0, "rc": 0, "ys": 4, "yc": 1},{"id": "363aa95d53b34e5f962a2a794520a392.16", "url": "https://lh3.googleusercontent.com/HL_BDWuU4xqarwdawNuL5A9JP_CHkQWukxyFn19OiITNDzctsQMlRRmRVuIH6TQiX_BXMf8vPM9ayWnM_YXp9bmc4GbZ", "name": "Guldkaggen", "lat": 57.03331700000000, "lon": 18.25814300000000, "team_id": 3, "available_slots": 2, "bs": 4684, "bc": 1, "rs": 579, "rc": 1, "ys": 4214, "yc": 1},{"id": "36bc6c2f6b0a470ca4e044c9607b6c4f.16", "url": "https://lh3.googleusercontent.com/_Rp6mOR12fQXBM4Y4ECl0VzHqE0KU1Ru8sIcQHheAkDKqD92ydzLTdGbFCJY3gBdFf8RkMfQg9jPyFq3PrvoaM8bhI12zgTxsIk1EhM", "name": "Fardhem utegym", "lat": 57.26557900000000, "lon": 18.33743000000000, "team_id": 3, "available_slots": 4, "bs": 3075, "bc": 2, "rs": 581, "rc": 1, "ys": 1371, "yc": 2},{"id": "36f567624dcc48ed831b1bb1a35b57aa.16", "url": "https://lh3.googleusercontent.com/eFZtYW3WQP2fedTiTJW4CaMW0JPPLZ5mfNgAgpEGowsv7LUlRyszueZsDhsOVHE958cuIrL2jlP7J3UOZYvQ-jmTjpY", "name": "Ljugarn Kapell", "lat": 57.32914800000000, "lon": 18.70958800000000, "team_id": 1, "available_slots": 2, "bs": 2462, "bc": 1, "rs": 1608, "rc": 1, "ys": 5404, "yc": 1},{"id": "373eca9054ed42ee8e07d04af285a697.16", "url": "https://lh3.googleusercontent.com/7jrEfIbXKKT7TTwzR3OjzyagqPaN5RStRpdjivlkUyt6zsG9DeFyaweAhDF4CcDXDlbZT7zl0dThcU-xcNDuSZjoNNs", "name": "Visborgsvallen", "lat": 57.61115400000000, "lon": 18.28274300000000, "team_id": 1, "available_slots": 4, "bs": 46, "bc": 90, "rs": 39, "rc": 54, "ys": 39, "yc": 96},{"id": "37407c82e2f140dfb6787a3300942800.16", "url": "https://lh3.googleusercontent.com/auFjIk68OcGm7eem-CP7oHjeGLUB6yPVqa2sdkC5XoG8cX3oLuSKJ__QDOipfNIM6VS6C-MyohcgNaPNA4_DE1G76w", "name": "KlinteVallens Tennisbanor", "lat": 57.38851200000000, "lon": 18.20634100000000, "team_id": 3, "available_slots": 1, "bs": 0, "bc": 0, "rs": 1727, "rc": 1, "ys": 2486, "yc": 1},{"id": "37d994155bf647f294f2ddf33b47f390.16", "url": "https://lh3.googleusercontent.com/E7oRpOj9vKuXhe7UdR3fhc_nt9U0iE4CpeQP9GO9WAxEVkQiHn15PHHOYIeGhaneDTIDx3ytzBgdaiwEWMucXWj3-g", "name": "Pingstkyrkan Visby", "lat": 57.62756100000000, "lon": 18.30239800000000, "team_id": 2, "available_slots": 2, "bs": 55, "bc": 95, "rs": 35, "rc": 61, "ys": 30, "yc": 84},{"id": "37df71801fa74f33ae1f97724835ae37.16", "url": "https://lh3.googleusercontent.com/L-7BzcJP60hhWDJ01lcDTA9C431JBZU7WinfSEm3qvI4gQsp5WvR7xTf94iGRR3eknguppEfYnU1oOAoAFUiWZL2DBg", "name": "Ljugarns Fyr", "lat": 57.32352500000000, "lon": 18.71496100000000, "team_id": 1, "available_slots": 3, "bs": 1744, "bc": 3, "rs": 579, "rc": 1, "ys": 1832, "yc": 2},{"id": "37f8555f9a5143118ca96432c92c85ca.16", "url": "https://lh3.googleusercontent.com/Uo3CBt16fIw5N6GhZMXigRBYxz7mcUWLx1mB_3FIPR-yQVwgrtHkHcbAzwQy9PGFns2h-cdFL3-h_XhYPXOo7XLQemY", "name": "Kind Of Old Canon", "lat": 57.57522700000000, "lon": 18.20693200000000, "team_id": 3, "available_slots": 0, "bs": 414, "bc": 14, "rs": 128, "rc": 13, "ys": 128, "yc": 5},{"id": "380aba9d760742f7aba777222c10c935.16", "url": "https://lh3.googleusercontent.com/yBBReRxw_vx5s0xZS6bVDZTE7htgO1SF8WmV0IGu4su4RR64zOgJMoJwuOX1YpCs6phYn3OYftwSpTG77xoRrOI4i4M", "name": "Herta Playground", "lat": 57.22122200000000, "lon": 18.58903300000000, "team_id": 3, "available_slots": 5, "bs": 578, "bc": 1, "rs": 8900, "rc": 1, "ys": 0, "yc": 0},{"id": "381d971afb5340e2ad0e5bcd62847bfb.16", "url": "https://lh3.googleusercontent.com/QJPFO4sS7AjX_KhOzIrpWLRezxINeKLZBwI4kR4r-r6ZwuSJ5PEzIjE0G4jL1oRf5S3RGW2Mv-oGJ4ztuIJ1Kmxu6w", "name": "Endre Kyrka", "lat": 57.61028200000000, "lon": 18.46533100000000, "team_id": 2, "available_slots": 0, "bs": 210, "bc": 16, "rs": 245, "rc": 18, "ys": 110, "yc": 12},{"id": "385b09c79e5a4b3eb32a8c1d3b5c9a64.16", "url": "https://lh3.googleusercontent.com/9JC2Q1CXDu_ddq6dvWG3U3pEdh5zw6T8xj1aptOpBIuT2Tl4Wze0brWdf_XQ_lN_sCgc4PvAN0cwhLOLZtc6Qp0c_mgfu4hCQGujOUT7rA", "name": "Fjälängar Naturreservat", "lat": 57.39165900000000, "lon": 18.62410900000000, "team_id": 1, "available_slots": 5, "bs": 7867, "bc": 1, "rs": 0, "rc": 0, "ys": 1605, "yc": 1},{"id": "38a6bed36e88335f891ee7d72424a7c0.16", "url": "https://lh3.googleusercontent.com/RznSmXniVTjjaS9xjS5UDfvQpB9j0cdvkchQoxALZTkdFhVeA9GMBv0RAV2ylSCs78W5e862ay1ShSpNFq9zmUuLkzUXHrDIztXNqM_n", "name": "Derelict Sniper Bunker", "lat": 57.30841700000000, "lon": 18.15071500000000, "team_id": 2, "available_slots": 5, "bs": 1670, "bc": 2, "rs": 0, "rc": 0, "ys": 3655, "yc": 1},{"id": "38c2b6052e9e4ba5b4601fea45eb59c7.16", "url": "https://lh3.googleusercontent.com/ycye_IidqSgOQ3pmEa2jEiH9b-MmXx55Ubu9xn8B95x2aWDhxRuZQIJHcDKM14iScM7-H0zP7n8_nrV5QDGYLf-N0z8", "name": "Skogsholmsbanan", "lat": 57.64314800000000, "lon": 18.33808500000000, "team_id": 2, "available_slots": 0, "bs": 1092, "bc": 5, "rs": 334, "rc": 6, "ys": 299, "yc": 6},{"id": "38c2d93e22674f60bfa1d664f3818026.16", "url": "https://lh3.googleusercontent.com/0yc71lsAcyhc1NswxkSwtZ_eLYoeFLWJXLPsarYwjkrpM5lsDJIFGXqiFCQrblAwh0mVXzDtCUjUwL_dzgWuiel59w", "name": "Lågan", "lat": 57.62932100000000, "lon": 18.28196600000000, "team_id": 1, "available_slots": 0, "bs": 71, "bc": 104, "rs": 21, "rc": 56, "ys": 22, "yc": 62},{"id": "38ff373749d546a59cfb57c09a318a41.16", "url": "https://lh3.googleusercontent.com/vmotJzhbD0Lkk6RQvPUbI4egF8IEKjOE4YRipC9_DkzI52PoWderE1GUSPrE5ZLCLSio5ofhUp-XuPrsMgDDvF0ap3nV", "name": "P18 Cross och Cykelbana", "lat": 57.59961900000000, "lon": 18.28591300000000, "team_id": 1, "available_slots": 4, "bs": 428, "bc": 9, "rs": 440, "rc": 11, "ys": 0, "yc": 0},{"id": "3954ff1c70484c479b1791a2a45ea705.16", "url": "http://lh3.googleusercontent.com/_IzFCMEHa6X6djJ0m8KpCQVQ-_CdeL83hUXGZFspq8Jmy26TE41qx8wQIfXI4CV94yNoBxLY_3U52qxMX32ebKQq550", "name": "Kapellet", "lat": 58.38866400000000, "lon": 19.19659600000000, "team_id": 1, "available_slots": 2, "bs": 0, "bc": 0, "rs": 0, "rc": 0, "ys": 0, "yc": 0},{"id": "3972c3f42d5043af80dfd86e62bb7f7e.16", "url": "https://lh3.googleusercontent.com/s7hSAt5p_9w__1fTfSfeL8Inp3kFIiGZLyKmjvRnW0ucckVWzM3iS-DwMZlMYGNN8JSs2MsF2RqJO6s8n6r_njJIalc", "name": "Skulpturfabriken", "lat": 57.68791900000000, "lon": 18.76590300000000, "team_id": 1, "available_slots": 5, "bs": 0, "bc": 0, "rs": 2801, "rc": 1, "ys": 7032, "yc": 1},{"id": "39ce080f2aea40a6ab32ff9d2dc763d7.16", "url": "https://lh3.googleusercontent.com/OCVQEG6DtVZNxsOsZvulQoOs7tndqigcO_BaIvtFn4JkDJXGMH-5znLSIHggttWLlaB-pubZg0_4MQXkaB3VA0dbsQ", "name": "Norra Skräddargårdens Lekplats", "lat": 57.60929200000000, "lon": 18.30490200000000, "team_id": 1, "available_slots": 0, "bs": 43, "bc": 65, "rs": 43, "rc": 68, "ys": 47, "yc": 86},{"id": "39f6d37238cd495cae91695d23479e6d.16", "url": "https://lh3.googleusercontent.com/IKox_Wyt7TBjS2vdSqNiVU-xNZ-a7pM4h14qX2ZT7zD1DwhqjUMINJdR6xIwhJhtiPC_wFToxc9YVN5GxaaHz1t6QI0", "name": "Rauker", "lat": 57.67129500000000, "lon": 18.77350600000000, "team_id": 3, "available_slots": 1, "bs": 1781, "bc": 3, "rs": 3466, "rc": 1, "ys": 1030, "yc": 1},{"id": "3b4271ed7838432992337c6adc3d6869.16", "url": "https://lh3.googleusercontent.com/nAI0i7OvgkC8HBe8f1NUhhjRRcOyTiz5nUg4b22PbvPm1E0pJpPLfy5JXFLhVGeW9TLZ7MXWQ2BCyLyAgDHbeyJAEdPg", "name": "Fiske på Gotland - Kohlenskvarnån", "lat": 57.67159700000000, "lon": 18.33192700000000, "team_id": 1, "available_slots": 4, "bs": 80, "bc": 58, "rs": 46, "rc": 43, "ys": 67, "yc": 47},{"id": "3b6b5e8f58cf43858a6b5a27777969ef.16", "url": "https://lh3.googleusercontent.com/RvWLJwemi94wr4jnM4Wdcrnwv4KJgO05fPDyUw7uCtVVlnaFCuutHo-ctSV1y2lcSURt1bBKo58UVyguH9fvKOmdDoE", "name": "Naturreservat Tiselhagen", "lat": 57.71224000000000, "lon": 18.66029400000000, "team_id": 1, "available_slots": 4, "bs": 0, "bc": 0, "rs": 6423, "rc": 1, "ys": 2832, "yc": 1},{"id": "3b804419a01441a49ef54256c90ce994.16", "url": "https://lh3.googleusercontent.com/4UmEvpAOxb_lsymI4hcapTKj4NFN5YkQlqDEL1dJDFdaRsmsGAyTA9LqqcnvMhUYJkui54D6Ussd7PpwJ-S8IHGfz58", "name": "Fågeltornet i Muskmyr", "lat": 56.94147100000000, "lon": 18.19766600000000, "team_id": 3, "available_slots": 1, "bs": 1027, "bc": 1, "rs": 5379, "rc": 1, "ys": 2488, "yc": 1},{"id": "3c408a89a7bc4ec7abccd3f61a461d97.11", "url": "https://lh3.googleusercontent.com/bd89o5tx6BbN537or09tZAYZogF6hFW_tM7DMT9HI9ie7S91GEtXOBpoDYA0TBCoq-dff8R3YfwLPd7bemHMDR12UeKy", "name": "Havdhem Kyrka", "lat": 57.16251800000000, "lon": 18.32335100000000, "team_id": 2, "available_slots": 4, "bs": 2954, "bc": 1, "rs": 3455, "rc": 1, "ys": 2492, "yc": 1},{"id": "3cbf34c0c8ea457da7583563ff70694c.16", "url": "https://lh3.googleusercontent.com/C0mmGeDobNchEnhbEyIw3K03fM5N6dHmj3CINa4saQrJ5MKlOqYoOms9cgGC9DhBnEG9Gzej9KkL9nUx986y9RMHxw", "name": "Östersjöns sjöfåglar", "lat": 57.62193500000000, "lon": 18.26653900000000, "team_id": 1, "available_slots": 5, "bs": 144, "bc": 31, "rs": 107, "rc": 27, "ys": 136, "yc": 18},{"id": "3cf34dfdcc133d32a524ff7f8d5916de.16", "url": "https://lh3.googleusercontent.com/l7ptvMflPU6ywV0wBLnRHIrU6IDWCVzQ5t9NhZgMSUfMsZssNSd5klZz3npXLlsuh0BNLCoXce-K1PffRuVWMcKr5rt33G8K6vvx7z2I", "name": "Lekplats nedre rundeln", "lat": 57.58796300000000, "lon": 18.22528800000000, "team_id": 1, "available_slots": 4, "bs": 385, "bc": 5, "rs": 680, "rc": 5, "ys": 556, "yc": 8},{"id": "3d201a4074a44df9ae0d98300117d402.16", "url": "https://lh3.googleusercontent.com/wn3PjrFI1oSF04-V-_wri6ujelN7C7KtEpiEkVVWcBG5T0biLe_WzQP87zq9NASA6_m6_IfRcpT4DFvjWN1l28fG1Q", "name": "Vikingabyn I Tofta", "lat": 57.48418800000000, "lon": 18.13862400000000, "team_id": 3, "available_slots": 3, "bs": 2106, "bc": 2, "rs": 2955, "rc": 1, "ys": 0, "yc": 0},{"id": "3deca0ff95c848939093230920a296f9.16", "url": "https://lh3.googleusercontent.com/ScbIzaR9RIMJUrYCvKgLdF8mQG2pitAquC6BwKuvhxw2DhhBHr057YAhEe2VLgx5xX6GJbIlX17tvp8XAyhgctueWAG8qxBOQrZjWEA", "name": "Mulde Naturreservat", "lat": 57.35206400000000, "lon": 18.19564300000000, "team_id": 2, "available_slots": 0, "bs": 3586, "bc": 2, "rs": 0, "rc": 0, "ys": 0, "yc": 0},{"id": "3e1cb8cc50a34e13bf2fe68677840d11.16", "url": "https://lh3.googleusercontent.com/FSWApZuirbjcd-bfzV4oHGwdjjc56SVCSESfYIMMx39ahd2bjC0JnvSMDz4zn5jXi0BYj3U_KjNFSO7N9XT4zZLK608", "name": "S:t Olofs Kyrka", "lat": 57.94210900000000, "lon": 19.09012500000000, "team_id": 3, "available_slots": 3, "bs": 1609, "bc": 1, "rs": 5388, "rc": 1, "ys": 2846, "yc": 1},{"id": "3e28b14ef1fa4324b785b3aa4a94f301.16", "url": "https://lh3.googleusercontent.com/7WhgrSkkgtge3FhuCKJIPjrgMlRmhkwYTrG64aaznO0eqn8A1vMOa5JxLXVQxShpstKM1r3p-3B3LblFu4D6OqSKiqw", "name": "S/s Drotten", "lat": 57.63418500000000, "lon": 18.28082400000000, "team_id": 2, "available_slots": 4, "bs": 18, "bc": 259, "rs": 14, "rc": 228, "ys": 10, "yc": 198},{"id": "3ead6e3afc984b6c89c13325d1f45a39.16", "url": "https://lh3.googleusercontent.com/y0MC-x9VkxsFPFFruMwcOlXGeBa5iJHaoXEnxWqvFPcjI7AO4W_CTK0q6_2TQ6SlMXxLkQgxxxsBfvVSuckRoFsma6Z_", "name": "Linnéstig: Laus vattenkvarnar i Närkån", "lat": 57.26912400000000, "lon": 18.60593700000000, "team_id": 3, "available_slots": 5, "bs": 578, "bc": 1, "rs": 8895, "rc": 1, "ys": 0, "yc": 0},{"id": "3ec0ffc0c3404c888c06b2a13c582dd2.16", "url": "https://lh3.googleusercontent.com/YXa7GVL0Jx-QlYF8bl6CStGd4zIeHijOsZfShbccXAGwBbywX5p0D34O7wAntRSz6eOp-whafPIUxV2TsSyAGbB_Ja8", "name": "Klosteränge Naturreservat", "lat": 57.49449800000000, "lon": 18.48604100000000, "team_id": 1, "available_slots": 3, "bs": 4542, "bc": 2, "rs": 175, "rc": 1, "ys": 211, "yc": 1},{"id": "3fe05828e25e4a2aa61a85b11ddee712.16", "url": "https://lh3.googleusercontent.com/VVO4tUBXLYIHC_L2ILNp7BZ7fAShJ3BSSH5e77XnSM05rSyGKRgORnOYq-S_9nZueKrBz5yk7U29Z-kKzFr36koHrik", "name": "Holmhällar", "lat": 56.93101400000000, "lon": 18.28861900000000, "team_id": 2, "available_slots": 4, "bs": 3484, "bc": 2, "rs": 1929, "rc": 1, "ys": 0, "yc": 0},{"id": "3fec6579aff94ecc8aeac52421fc4b49.16", "url": "https://lh3.googleusercontent.com/1YNZML_9BB8Hkw1Bgw2GmyYAsi8bJ6nSeTuDtn3zOUk2I_dtlWxrkDJqVOBuU3MtGyqvjaRebYxXDtmdDH2QmB0rAQ", "name": "Naturreservat Lilla Karlsö", "lat": 57.38870000000000, "lon": 18.18633500000000, "team_id": 1, "available_slots": 4, "bs": 1732, "bc": 1, "rs": 1924, "rc": 1, "ys": 1941, "yc": 3},{"id": "406e192fa7544b02be7c4c07ffed4e8b.16", "url": "https://lh3.googleusercontent.com/gKB5IpuB3w4EhRdngBiKa0jAlZDYwYZ7doDtlJPWaBsEkcBKhctjCslVI7Y_8v4nC7DH8dz7c2gNavT4WK_VuTZZciw", "name": "Vid Bro Kyrka", "lat": 57.67012900000000, "lon": 18.47557400000000, "team_id": 1, "available_slots": 2, "bs": 276, "bc": 19, "rs": 93, "rc": 19, "ys": 183, "yc": 13},{"id": "4090582803574cafaec7b52cebd65062.16", "url": "https://lh3.googleusercontent.com/LeJkR7YHZuQeB7a2LDPOjLaYp84hbWpNBf3IsKVN1fbmRHFNOzXwjsuVzYN7Nu7KRTk6KN3svZfaLLu8iJ1LOsX_pA", "name": "Välkommen Till Lokrume", "lat": 57.68796400000000, "lon": 18.53813300000000, "team_id": 2, "available_slots": 0, "bs": 1717, "bc": 1, "rs": 0, "rc": 0, "ys": 2870, "yc": 2},{"id": "40b70818e1a14852b567477cf3d6348b.16", "url": "https://lh3.googleusercontent.com/3ikAbj1dzQm71y1hOkN9JsgLFLa4Mnk-6ce1iv-DxZTiR03_JhkGQbn8QlMjqPZTHZFc1MXVR2mNzpJxkq9qacVwIPvpWmnlbSVp5fI", "name": "Basketplan Bogen 2", "lat": 57.61364900000000, "lon": 18.30541800000000, "team_id": 1, "available_slots": 3, "bs": 19, "bc": 255, "rs": 17, "rc": 217, "ys": 9, "yc": 160},{"id": "418500d12a8447cfa9b365dc981c989e.16", "url": "https://lh3.googleusercontent.com/EB8KxcMTswY9hg13r3D0GqjMj72rr7GNoVcHrV0DfqPVTKllJ0FNkC4EfDBtfRKCYS9kWNrOBGkeCT7_5M3vTpxLbXk", "name": "Spårtavla Vokstugan", "lat": 57.61192300000000, "lon": 18.38127700000000, "team_id": 2, "available_slots": 5, "bs": 361, "bc": 16, "rs": 150, "rc": 16, "ys": 203, "yc": 6},{"id": "41d9364432cc4b69a3eb59726c06f3fe.16", "url": "https://lh3.googleusercontent.com/nTdf9fZaZhVZp8BEwIpq9X4ZFkXCgwcZ_qmqR-84jiCv1OtbS57WxRj1p7i3BFQt0WUkZEo9wVy65CEhoy_lLRsGCpP4wdI-be-I4QZi", "name": "Fotbollsplan - Hammaren", "lat": 57.49701600000000, "lon": 18.45554400000000, "team_id": 3, "available_slots": 5, "bs": 595, "bc": 8, "rs": 182, "rc": 7, "ys": 285, "yc": 12},{"id": "420043d0154f431fbc4fe2c4b237a8a5.16", "url": "https://lh3.googleusercontent.com/zPrcNT3kCndvPb0qrWQG-tNzM-dZPuOU2dXpO5haTzJYewbKw3Z45-vvl7BVpw1SJR0sF7mGM4i6vyX4QEcGYn70_h8", "name": "Rute Cross", "lat": 57.83516900000000, "lon": 18.92678500000000, "team_id": 2, "available_slots": 0, "bs": 2347, "bc": 2, "rs": 2278, "rc": 2, "ys": 581, "yc": 1},{"id": "420b5ca269e14a2f892cdcb3955c8c7c.16", "url": "https://lh3.googleusercontent.com/weFFFjZIlmToI_std2foJQ-qzHXDZEOur6D5rRswMUpJShRvlcEthF-_vSSIy4DJPcitOAdwBRShzs_D4L7REyDHBg", "name": "Tallundens Utegym", "lat": 57.62741600000000, "lon": 18.28662600000000, "team_id": 1, "available_slots": 0, "bs": 48, "bc": 104, "rs": 39, "rc": 97, "ys": 20, "yc": 56},{"id": "425ededce8cb45d3895626192eb011a7.16", "url": "https://lh3.googleusercontent.com/F57aIip3Zn-oMUre0dUVAH2sTOTy9VLmePHn9PsJUT-wZSzVr78BZ0u7hU0wOm_6OcM23QVJwOJ2FGnqGKZetiuEmRo", "name": "Milsstenar", "lat": 57.36135800000000, "lon": 18.21801000000000, "team_id": 3, "available_slots": 5, "bs": 6985, "bc": 1, "rs": 0, "rc": 0, "ys": 2488, "yc": 1},{"id": "43a772212d0445cfb082f39d978e8174.16", "url": "https://lh3.googleusercontent.com/piXuHBPvMmCOe2tUKw0tAdlxGTg8K0T0PN9NvAtlF0ADfBRlTLEz_H10Rp2X-OwANZuH63YS65Lc3Ie9b5-d6IS7mc0", "name": "Halla Kyrka", "lat": 57.51095100000000, "lon": 18.49694600000000, "team_id": 2, "available_slots": 4, "bs": 391, "bc": 5, "rs": 2013, "rc": 3, "ys": 533, "yc": 2},{"id": "43c18126f35d4c92b20c17cd90c6f658.16", "url": "https://lh3.googleusercontent.com/6alMAN3_7jciYXKZfEg8LB97ULpFELNjPU818mX04jlU51oX-3heTwebg5pwsjOhx11b8Pyf25TBn6Qt_eCscYY3hjbj", "name": "Säves fotbollsplan", "lat": 57.62330100000000, "lon": 18.29764100000000, "team_id": 2, "available_slots": 1, "bs": 62, "bc": 57, "rs": 77, "rc": 53, "ys": 50, "yc": 44},{"id": "43cafe9a2451498798206b3b4dffa6e1.16", "url": "https://lh3.googleusercontent.com/2gygjFK99nVKa9eLB9Qz_2f_3Y4HzVp-Y-qW5OYw6Kssj-qbGlCtxzfsQNdfF6a4ZQn5u0jsKnuL5ijeMjTFAYoPfo3l", "name": "Hamra Kyrka", "lat": 56.97607300000000, "lon": 18.31369400000000, "team_id": 2, "available_slots": 4, "bs": 1525, "bc": 2, "rs": 0, "rc": 0, "ys": 6424, "yc": 1},{"id": "43d41a2078be4220ada8679585b8e48b.16", "url": "https://lh3.googleusercontent.com/7Q4JvVd8XzUWKsltnCknUKPvAmtQ_XOpdGoJk99RaaJK34G7b3lLFhybKRLuTF56Azm0gGH50SGhHe799WczdZK4Sg", "name": "Ljugarn Wood Wagon", "lat": 57.33618700000000, "lon": 18.70230500000000, "team_id": 1, "available_slots": 4, "bs": 0, "bc": 0, "rs": 0, "rc": 0, "ys": 2481, "yc": 1},{"id": "44661ee37cd9412e8e6a49291660df55.16", "url": "https://lh3.googleusercontent.com/3YXO4r-iESfAu5DxfaAq6vSuQ4RhcRp5mtOvcs7pVuEm9Kf9FQ7VbG8QZFW-K6_T65OFXfI0EBVgGsUupcMCXD1eDf8", "name": "Trollskogen", "lat": 57.71734100000000, "lon": 18.40965800000000, "team_id": 1, "available_slots": 0, "bs": 115, "bc": 30, "rs": 72, "rc": 32, "ys": 173, "yc": 20},{"id": "44a8499431773f45b02365d77c098801.16", "url": "https://lh3.googleusercontent.com/aXky_n4eLfRfEsh0SqjntE_9rtQ-QvqNYvDcb6d87gWLdr-2Ka1qibpoNBjad4cw0sjItc1ryDfjp6djLcs1uVD4FwbgGt9y09NKGPE", "name": "Baggen", "lat": 57.15809800000000, "lon": 18.33186300000000, "team_id": 3, "available_slots": 5, "bs": 2950, "bc": 1, "rs": 0, "rc": 0, "ys": 3461, "yc": 1},{"id": "4605a596bc9c4a2783193d8e0d9ad09d.16", "url": "https://lh3.googleusercontent.com/tcNlcMr2BzCBBitn8bnYCzBavgAwhWBoRqeKmGde959cyYBI5PaikmUD4T2UKk1WCZoT9jzGOhCyg0SkREkOpbd6IZHPk8bpRHzJqEj-", "name": "SLI Hälsans Stig - Mile marker", "lat": 57.66200600000000, "lon": 18.31560800000000, "team_id": 2, "available_slots": 5, "bs": 156, "bc": 34, "rs": 88, "rc": 24, "ys": 95, "yc": 25},{"id": "461e8fbf2dd54e7fb83bc6b3346794ba.16", "url": "http://lh3.googleusercontent.com/nDLYM0p-8si-3PCm4rub8d2AisYzjG7QESOzziJeR02HScs96O5xe-qRoa5jFO48YWjRpMy66BO1Rufp5vg10g5mTu0", "name": "Fåglar på Gotska Sandön", "lat": 58.39090400000000, "lon": 19.19327700000000, "team_id": 1, "available_slots": 2, "bs": 0, "bc": 0, "rs": 0, "rc": 0, "ys": 0, "yc": 0},{"id": "4693f2d8f34042c4a33beb53b35204f6.16", "url": "https://lh3.googleusercontent.com/r66XFJ0MOPM3AYxqYxpyFaaw-7FEYTZslinQ66450HH5NFwSz_ZxubeXKHZmKyFRQE_L_D9fW2gTrB48XPDdLRDEGy0", "name": "Kanslihuset Visborgs Slätt", "lat": 57.61373600000000, "lon": 18.28181400000000, "team_id": 2, "available_slots": 5, "bs": 26, "bc": 127, "rs": 26, "rc": 127, "ys": 26, "yc": 125},{"id": "46dde6b8a1714294bca2c4cb739959b3.16", "url": "https://lh3.googleusercontent.com/DrEM3WYml7UghOL0ZutAMulIGZiErXviruvvFnNPxRrDehGC8UoKXvv7KV1Idn0vspPt3O9upZZs0jVWdmcjLIP87hc", "name": "Tofta Bad", "lat": 57.48630700000000, "lon": 18.13177600000000, "team_id": 1, "available_slots": 1, "bs": 0, "bc": 0, "rs": 1731, "rc": 3, "ys": 1427, "yc": 3},{"id": "470e88d34882471699b631ce241ce83d.16", "url": "https://lh3.googleusercontent.com/rC2zw_TbzkEOEULi0ZDZ3qYnJ9ppgVTgUg2GAc-8wRy390zP7EjQNO5lNBPuGAkFu1Pw88lpLwD0UPrB1OhMsH5URw", "name": "Mästerby Församlingshem", "lat": 57.46906700000000, "lon": 18.30396700000000, "team_id": 1, "available_slots": 4, "bs": 7867, "bc": 1, "rs": 578, "rc": 1, "ys": 0, "yc": 0},{"id": "47391147dd9c4160ad0ead9ebfd5e482.16", "url": "https://lh3.googleusercontent.com/WbdVCmlH2MMwcbSvVYuEUOpWsvzTXFc7GJH8RfdfA_B5JspqmFJpxjH3EymWzxPc0hB4ujzTWLtUqOR3v8IKrgRy7AWL", "name": "Infotavla Slite", "lat": 57.69316500000000, "lon": 18.79863000000000, "team_id": 2, "available_slots": 5, "bs": 1029, "bc": 1, "rs": 8234, "rc": 1, "ys": 0, "yc": 0},{"id": "47569f3e2d7e4038a8857db3e12e6857.16", "url": "https://lh3.googleusercontent.com/cGXMoOhRI49Csx8GIOYcCm8A3ZLkQrf3MmngpY-Mi06Qwp5QoLzL0MXOo8ZOaDauk9RxsYjZXUbYbAbXTdznNqi1-sI", "name": "Gotlands Djurpark", "lat": 57.51633500000000, "lon": 18.21518100000000, "team_id": 2, "available_slots": 5, "bs": 9475, "bc": 1, "rs": 0, "rc": 0, "ys": 0, "yc": 0},{"id": "476210ece3a547ac9f0ce96f2c624650.16", "url": "https://lh3.googleusercontent.com/XYa4HyWhere7TTAQmDj7ddrp25hNe5qXFVB9A-i8oSXChtKTLYIZu-lorizsxyPY3iQdzJSSYWUmDHac4l3f0jb6aH8", "name": "Bondans Väderkvarn", "lat": 57.95041900000000, "lon": 19.15671400000000, "team_id": 3, "available_slots": 3, "bs": 1607, "bc": 1, "rs": 0, "rc": 0, "ys": 8226, "yc": 1},{"id": "478d17bef636451093f9cfe6153251f5.16", "url": "https://lh3.googleusercontent.com/Xcm2K7ySpW-9w-BjEFxTxgvBn3ukbeljN8KhTTBWgJPOlTBliY8xJAiFrWlnaN4l5AMko0bKMkLeM3-yIYYbyikeQ-0", "name": "Kräklingbo bygdegård", "lat": 57.44401000000000, "lon": 18.71889900000000, "team_id": 2, "available_slots": 1, "bs": 1934, "bc": 3, "rs": 1927, "rc": 1, "ys": 1751, "yc": 1},{"id": "47c4020dc3523d68b02e2f4ee2750803.16", "url": "https://lh3.googleusercontent.com/7Q5IKzMT6B6eSV6kFUfgEn4Kb_KpzO7NBO8FEVMJzKxCan0CnbQniuS2WRaGa0ICJEWoYWinf8khx9NMdmGYk-4hb8QM22-nx0O4MHP1ag", "name": "Ansarve Discgolf", "lat": 57.51826800000000, "lon": 18.24824600000000, "team_id": 2, "available_slots": 5, "bs": 577, "bc": 1, "rs": 2243, "rc": 2, "ys": 1924, "yc": 1},{"id": "47d38eab89bf4bcca50c0aa8b3aab5e0.16", "url": "https://lh3.googleusercontent.com/-eqAjeJ4aTsHq9F2WVhTTIaFxDrqX8N6VqQvk_bjymSMj6fAV69GZD8_aBL224UrK_vdmToqsV6luJKnD9a45K9yeQ4", "name": "Gamla Militärbunkern", "lat": 57.60956000000000, "lon": 18.25672800000000, "team_id": 1, "available_slots": 5, "bs": 65, "bc": 88, "rs": 28, "rc": 35, "ys": 40, "yc": 79},{"id": "483bbd021e0b4f36ac97087f2ec6ea84.16", "url": "https://lh3.googleusercontent.com/9jGZyjnTqIG29h6HGaz8D7jFdVopjqQhKgiUiTBtbsZCoMp7EpA600e6cgeMspFQlniZstGwGmjlBnn0q1EG44vkrhs", "name": "Ägget", "lat": 57.63203900000000, "lon": 18.28950000000000, "team_id": 2, "available_slots": 4, "bs": 50, "bc": 91, "rs": 30, "rc": 89, "ys": 34, "yc": 80},{"id": "48c6ba211c4f4ac2874813b03d1656e7.16", "url": "https://lh3.googleusercontent.com/z9WdwT-Cqpztlsbvs6tOS1X0xlLeSelsLiQFzNyGSMw0dZJHmnkH8QRE3Pa1kNylIQmU2HFN0RkNkCNNrWY6I5-xXWc", "name": "Roma Klosterruin", "lat": 57.51623400000000, "lon": 18.46073400000000, "team_id": 1, "available_slots": 5, "bs": 102, "bc": 16, "rs": 177, "rc": 17, "ys": 299, "yc": 16},{"id": "494544f738f34e1486e5889efa570eb4.16", "url": "https://lh3.googleusercontent.com/DiJ4AB5OyzdlgFr5IOVu_mLB4IHKkNsCsTb8acaGZafG5lsfXnBCfkh7YvOg5ZS07SlkQvz3y9oPmebP0zm7RZgJHib9zxVfc-Ad__ck", "name": "Den Gotländska Gården", "lat": 57.64148200000000, "lon": 18.76835200000000, "team_id": 3, "available_slots": 1, "bs": 1646, "bc": 2, "rs": 1855, "rc": 1, "ys": 4685, "yc": 1},{"id": "49612c849df146e2939c276a746ce218.16", "url": "https://lh3.googleusercontent.com/F9jDobpNldXFPShxeQX_jurVqjP1pHEhsjovgzZjl3C8GY-f0s_qY6gpVB0VgzfU34HPvzAqC4CfwSkKPgs_7POI4vI", "name": "Stockviken - änder och vadare", "lat": 56.99716100000000, "lon": 18.34843100000000, "team_id": 2, "available_slots": 4, "bs": 577, "bc": 1, "rs": 8895, "rc": 1, "ys": 0, "yc": 0},{"id": "49c7792efc914da08c422d30cbbb7708.16", "url": "https://lh3.googleusercontent.com/w9nI1dtdHb5HKW-Lbnqp-WXIHTFy8CCg6LDL11yxXSnC5aYUekAs9SrhYyGToL-8RBxOLwdwLsTCdGsjzyvSou7tYw", "name": "Jungfrun Rauk", "lat": 57.82970100000000, "lon": 18.50471700000000, "team_id": 3, "available_slots": 4, "bs": 8228, "bc": 1, "rs": 1611, "rc": 1, "ys": 0, "yc": 0},{"id": "4ac45b4bb76e3668bb3c6a189748dd5a.16", "url": "https://lh3.googleusercontent.com/gBd-eFrVbp3eCj-Lgz4o22EWGu4GrA4HRHm-l2wsIywhDmXDoYUwocZxpLvoW3B3NXhZm8l3EaNNkfBQDhEQZ-WHLRtpfaE023vj6z4dGA", "name": "Fotbollsplan #2", "lat": 57.51160600000000, "lon": 18.45237900000000, "team_id": 3, "available_slots": 4, "bs": 74, "bc": 24, "rs": 61, "rc": 18, "ys": 236, "yc": 27},{"id": "4b1061269acb3c238840b5abee52a56e.16", "url": "https://lh3.googleusercontent.com/vkdBmwiJcEx8Yc6XkSz6BeBS89PFSjhdloJPF-6DEi4HpP5-QWQ3kQ13NQ2D-8LZ0HLPZEhwRoLMkOAusQIvq9lVqb3WpLVssDrnaQyH", "name": "Ängsbruket vid Norrbys", "lat": 57.45551500000000, "lon": 18.36465700000000, "team_id": 1, "available_slots": 5, "bs": 2484, "bc": 1, "rs": 0, "rc": 0, "ys": 6990, "yc": 1},{"id": "4bac7e23cb164692b3e4a1b16e873da2.16", "url": "https://lh3.googleusercontent.com/l-bbZhofU4jza9Kn12Q1rDbFlJjXfmM4QvJSgIjjeCC2q9DHg-Xb0fdgkAzk_dJYxg53NH4WnzWUOXEv0x-eXy-1lvc", "name": "Slitestrand Lekplats", "lat": 57.70157200000000, "lon": 18.80177400000000, "team_id": 2, "available_slots": 1, "bs": 1729, "bc": 1, "rs": 2850, "rc": 1, "ys": 1726, "yc": 1},{"id": "4bca36d6d4ca4a01894342d949eaf4bd.16", "url": "https://lh3.googleusercontent.com/Re3WfrgWw4s3OrkycbMXuMCE9ZGE7YLOf6kF950AbxsVnakiapOc5coGSeLbbqKqweorJ_Ofjk28Ca2KGRi1UKP0sgty", "name": "Hoburg Fyr", "lat": 56.92177100000000, "lon": 18.15093900000000, "team_id": 1, "available_slots": 0, "bs": 1739, "bc": 1, "rs": 3655, "rc": 1, "ys": 2472, "yc": 1},{"id": "4bf108ef966a40abbd393f363247874e.16", "url": "https://lh3.googleusercontent.com/RYDOviSxhKiSvBWmKC99B5A5HLoNwnAldMAOMb42u6a20lSnAYxZaHzAOU2VDlCbcoZHGMZuVstx-pL6LfNKMD5fXA", "name": "Hesselby Jernvägsmuseum", "lat": 57.54497300000000, "lon": 18.53205700000000, "team_id": 1, "available_slots": 5, "bs": 56, "bc": 15, "rs": 52, "rc": 8, "ys": 367, "yc": 22},{"id": "4cfd40f5fc114d5bb741bbd0e49b517d.16", "url": "https://lh3.googleusercontent.com/tUgTMyNAChbDdPw14bxCjr5sMScVspfHUdKt_yDCeWvpHT_v_TSxXmlLWvFiz3-8RN16VN8_rrCGTlacgkdduj2qobQQ0o-0DMbf3i9b-Q", "name": "Graffitivägg Bland Träd", "lat": 57.60962100000000, "lon": 18.26329100000000, "team_id": 3, "available_slots": 4, "bs": 817, "bc": 5, "rs": 846, "rc": 3, "ys": 1522, "yc": 2},{"id": "4d3307ed9b084950a04581081a8925df.16", "url": "https://lh3.googleusercontent.com/3RTg14j8KZmS1UGbGv_qH6GVbiHwtppDvS5t1yYbUwhQ6AljzenY5F3iHZc_WObTBzv7DtoZoCguGvGO6ibkA8g0Og", "name": "Bukett In The Sky", "lat": 57.60782500000000, "lon": 18.25071300000000, "team_id": 3, "available_slots": 4, "bs": 70, "bc": 30, "rs": 50, "rc": 26, "ys": 129, "yc": 49},{"id": "4d59828d39643268969742de940a08e2.16", "url": "https://lh3.googleusercontent.com/-ZlFM7Jyi86R7qAsTTLC-QRx1ynPAX5rMLyjetXOiNA3otR7ArWogSMXsDcEOQynHich_9VH3V17qtBOhFtOqsSIQnKxui9PiqmT8h-P", "name": "Stangmalmens dansbana", "lat": 57.27684600000000, "lon": 18.46485200000000, "team_id": 1, "available_slots": 5, "bs": 0, "bc": 0, "rs": 2280, "rc": 2, "ys": 1836, "yc": 2},{"id": "4d76a95277c742bc8607bef4c732d731.16", "url": "https://lh3.googleusercontent.com/Vdfydt0VkABJDswstBTWXabrML-NaOrKlxHJJkuivSu5cB_1re6YOgkiKqRlYcz_Zl5ehM8WQTtpwQGGOiQ5vGwfaoE", "name": "Playground By The Beach Västergarn", "lat": 57.43723100000000, "lon": 18.14292700000000, "team_id": 1, "available_slots": 4, "bs": 4684, "bc": 1, "rs": 0, "rc": 0, "ys": 2395, "yc": 2},{"id": "4d770bbd527c4a42b575d511ca747b90.16", "url": "https://lh3.googleusercontent.com/VGLIW8NVES0X_DKIhqxtv6nKT5oE377kCKpUyQDtiFzXnhhDXpmXuNAvXOKcJEUl-uDm_LY3rfAXGnx1B-ZmYJovkiA", "name": "Infotavla om det gamla Fröjel", "lat": 57.33642500000000, "lon": 18.18940300000000, "team_id": 1, "available_slots": 4, "bs": 4212, "bc": 1, "rs": 5262, "rc": 1, "ys": 0, "yc": 0},{"id": "4d7b679901493e1e8d5a7fbbd7541fc5.16", "url": "https://lh3.googleusercontent.com/eZC3zog_9pjvJo2HneCMg8TeZ__NFsH8Nvn8apuzZB2QQPS_4Ur1MoDhWlNoJAuqkVowz4WS_Qac4UhVVYaq3yB6j6j7zHICVGKUACy9", "name": "Fide äventyrsby, entrence sign.", "lat": 57.09111900000000, "lon": 18.30113500000000, "team_id": 3, "available_slots": 5, "bs": 577, "bc": 1, "rs": 0, "rc": 0, "ys": 0, "yc": 0},{"id": "4ddbfefed3d53b7bb5c94fc56ea4bc45.16", "url": "https://lh3.googleusercontent.com/UlIseOvjrH37dOzSNDCdwYAjGRAEJ7u7-JuhUu7IW5paMvFoxLPoL6rbvSC2vcTPx-4RECw9DSck6T0x_NPDkwq-k3SiIn64fN-I0b0", "name": "Bibäddar vid Djuplunda", "lat": 57.60470500000000, "lon": 18.28986800000000, "team_id": 1, "available_slots": 5, "bs": 802, "bc": 2, "rs": 402, "rc": 1, "ys": 223, "yc": 2},{"id": "4e09a36c26384c289cc401e160f0091f.16", "url": "https://lh3.googleusercontent.com/0DpmrvXgC5F_FdsVHKvkjEjrEqeFVeW4Y8h6UiR_SlTN4wP9E2IylXv-JzVJtImLKbfSuCq0EgHIMk32vl1S_1t_4vE", "name": "Minnessten över fallna kamrater", "lat": 57.14924200000000, "lon": 18.34536300000000, "team_id": 2, "available_slots": 2, "bs": 1607, "bc": 1, "rs": 7873, "rc": 1, "ys": 0, "yc": 0},{"id": "4f1585cc9bd1455cae84c7f82bf6cf2b.16", "url": "https://lh3.googleusercontent.com/wIZTKxulv699ge919skMrN7wOZs-IPlZf-tXPSKTjANrAsSIaSJyVhwgrHnpPuVXMsEuqDVN-6lrujLqVJb6xSR0BB8", "name": "Labyrint", "lat": 57.13176800000000, "lon": 18.21795600000000, "team_id": 2, "available_slots": 5, "bs": 0, "bc": 0, "rs": 3873, "rc": 2, "ys": 865, "yc": 2},{"id": "4f71ad595431417cabc5a33c6d3c66d9.16", "url": "https://lh3.googleusercontent.com/vhu1LrEmCQabw6Xx6NCjq7NgH9F932Tlc0m-5K23MK2ZNnLfDWwVjnMlqSuaac9oEg88OBQGOZ6evsC4On3Fl003UuA", "name": "Husgrund nr 3", "lat": 57.33716700000000, "lon": 18.23015600000000, "team_id": 3, "available_slots": 3, "bs": 2354, "bc": 1, "rs": 0, "rc": 0, "ys": 0, "yc": 0},{"id": "4f7a88de7be830858d86a55c30a6c903.16", "url": "https://lh3.googleusercontent.com/djlz0A7CqpD1DTW4T9jHFQWjESEGeAJ0kHG7y99tSkXKgVzTSENt_4bz0d1x1qDGWoEZOXWGNZfjcNNrPLtv_XzLsHiiJRDe5Vu213hZzQ", "name": "Lertäkt", "lat": 57.35569300000000, "lon": 18.19074900000000, "team_id": 1, "available_slots": 5, "bs": 3443, "bc": 1, "rs": 0, "rc": 0, "ys": 2493, "yc": 1},{"id": "4f8aec681e693b6ca3998b609dd09c69.16", "url": "https://lh3.googleusercontent.com/xd4BDgBtwLu7wL_8uSUM5VZt58Iii8B7-DhZUfNZp5o3-rgnmSlxFJk0qJuM3tBsQBd6IlP3vLq0U_DNHzB53VQL3zosUzVR52iq3wGT", "name": "J 35J Draken", "lat": 57.72962900000000, "lon": 18.58562800000000, "team_id": 3, "available_slots": 3, "bs": 2013, "bc": 2, "rs": 1029, "rc": 1, "ys": 1936, "yc": 1},{"id": "4f9fcbd8eeee488fa5b9926f8ec7a408.16", "url": "https://lh3.googleusercontent.com/C-Amc76k-L8PFdg4FKMcSrV6LVrEAt1SO8p-AIyYGt4MCTaqkCLjwrLPn26bNusPR5uLkKLpWb7Kcc25xYMbC2ImWxQ", "name": "Lekplats Bogen", "lat": 57.61701800000000, "lon": 18.30421300000000, "team_id": 3, "available_slots": 5, "bs": 26, "bc": 89, "rs": 31, "rc": 124, "ys": 30, "yc": 128},{"id": "4fc39adedfe13444a3db4b564527040d.16", "url": "https://lh3.googleusercontent.com/NcoKOZio1TuAQKhJBVEZJ_i4cSmRcfWcgb-7ZAY8JSOedeaKSiSvpVMA9r_41_LcXQIYVy6KfRLUbjC9bgKrnWi5B1CvUbEZP7rEbQ85", "name": "Lilla Bjers Gårdsbutik", "lat": 57.58268900000000, "lon": 18.23278600000000, "team_id": 1, "available_slots": 3, "bs": 193, "bc": 8, "rs": 374, "rc": 9, "ys": 313, "yc": 7},{"id": "50b363738c7341a2870fd2e8d170a503.16", "url": "http://lh3.googleusercontent.com/QSh4W3pgr2D8JukFIBoMEGIo9sZVefBTCiHDZONTiPrepNWqb4DpH7PFLwGt_sqKTuPqzkAAOcrsLIUEU-fHlQ7THFgD", "name": "Hamnuddens Fyr", "lat": 58.33898100000000, "lon": 19.21533600000000, "team_id": 1, "available_slots": 5, "bs": 0, "bc": 0, "rs": 0, "rc": 0, "ys": 0, "yc": 0},{"id": "50d3f214b51b40d9a340141d9b64f82e.16", "url": "https://lh3.googleusercontent.com/NuU0Vu65cn-cyYATfIYVJhMPUWFwvTMFPPJR7iKlyrWiMp-VdhtsG12x1rvivIDBAyw5mI8jIOZ-VfwfzVVjnktZRw", "name": "Bihotell", "lat": 57.70181400000000, "lon": 18.80873900000000, "team_id": 2, "available_slots": 3, "bs": 1608, "bc": 1, "rs": 0, "rc": 0, "ys": 0, "yc": 0},{"id": "50ed7942cb2b4e518192fb9e51500deb.16", "url": "https://lh3.googleusercontent.com/n0p1KN9TntJQ974-3_RtOh6uQl67pnZLTXZyNPG0AX1YlwK098F9TcCP3g6yV5wc_yZdswrWq5vsdGptooAYcihYCQ", "name": "Gustavs Sommargårds Klockstapel", "lat": 57.32696400000000, "lon": 18.18358200000000, "team_id": 1, "available_slots": 3, "bs": 6417, "bc": 1, "rs": 580, "rc": 1, "ys": 2478, "yc": 1},{"id": "511883f0fbd549d4a8116c666ca098ce.16", "url": "https://lh3.googleusercontent.com/H3kMENp0CrTwgl_Oq2IqsiNOnNoNpO4ZDAQSvHR3n44CTBhE1QVWfbl0vnPREFlF8Up40AD6JqxVRn76oXi99Wl95w", "name": "Stenfyrarna I Grynge", "lat": 57.38155000000000, "lon": 18.83499600000000, "team_id": 1, "available_slots": 4, "bs": 1029, "bc": 1, "rs": 0, "rc": 0, "ys": 2986, "yc": 2},{"id": "512eead4639e4278ba28ec1555de1cf2.16", "url": "http://lh3.googleusercontent.com/bIyXmkQQyPQEAP0_OrrJ4AfEXQW0sucGDvTKTTKOywiG2H-MDay9gF1zB6Io8qFtLa96xcCyCOW_3mWasUXwijPFKCY", "name": "Gothic Island of Sand, Las Palmas", "lat": 58.38831300000000, "lon": 19.25410800000000, "team_id": 1, "available_slots": 5, "bs": 0, "bc": 0, "rs": 0, "rc": 0, "ys": 0, "yc": 0},{"id": "5135d764533f44b693276cc918b2185d.11", "url": "https://lh3.googleusercontent.com/4hOQ-2x31To1XSzqC3C3_pPWkNbUdhzQ8g1xD49JWTL7iN6ohqfuVLDkSEeME_JIy84byfBOY9GbIHkpWdiTScLLG66kZAWKAmE9InY", "name": "Hemse Church", "lat": 57.23287100000000, "lon": 18.37262300000000, "team_id": 2, "available_slots": 0, "bs": 1665, "bc": 3, "rs": 0, "rc": 0, "ys": 2242, "yc": 2},{"id": "529a8da78c3b3cd4941e66a3a293c6cf.16", "url": "https://lh3.googleusercontent.com/oVDFpAI3gnwWvkrVb0m4GuE5SJGEub9yAOi68Z4q4WykdWW1yU-_1GLxVpg-aKIzC-HjA5XHrXAJLTIq-ZD_23gDZQbYBukNadtAlfrdCA", "name": "Informationsskylt Kistänge", "lat": 57.16166700000000, "lon": 18.35247600000000, "team_id": 2, "available_slots": 0, "bs": 1928, "bc": 1, "rs": 2109, "rc": 2, "ys": 1728, "yc": 1},{"id": "52e4437b20fb498ab98b35c962121a63.16", "url": "https://lh3.googleusercontent.com/PuJ3Xwxn7taU6Vi-cLy_ZMdGT7A4qkqirnBDakqrucn7vrT3FCT-v6Vbo6yb9FbgG9xxx9mCU8v2pE3ckBqwVahh_OTosR7dg6Xfa0Ac", "name": "Sangelstainen", "lat": 57.78333900000000, "lon": 18.81049400000000, "team_id": 3, "available_slots": 2, "bs": 1028, "bc": 1, "rs": 2988, "rc": 2, "ys": 2832, "yc": 1},{"id": "52e73307ca0933fbae7aba53f0e7865c.16", "url": "https://lh3.googleusercontent.com/M9HBhTDlGNkYE9lXA08W0LOIIPFXuNddiu4Z2tbC5YwdYsF4z3Jp1pRsID8sJd91VQUUAMlR-8o6z4wRFKSvKd1b9fOd6JlyTMIyQM64", "name": "Bro Stainkällingar", "lat": 57.67837000000000, "lon": 18.49644500000000, "team_id": 2, "available_slots": 5, "bs": 1693, "bc": 1, "rs": 2485, "rc": 1, "ys": 1312, "yc": 1},{"id": "52ee39c7571c4dabbfa60698fb8a61f3.16", "url": "https://lh3.googleusercontent.com/kl08cj5nS6YmX7Smj8Hs2o7vaGgOxnSnmx_IZj8kQNRQpoWJD0N_MtO7oDOPlbY6h5LP6TvTp5ZZZkx_Pntn8kUnydQD", "name": "Snäckersvallen", "lat": 57.84523700000000, "lon": 18.78135000000000, "team_id": 1, "available_slots": 0, "bs": 0, "bc": 0, "rs": 5395, "rc": 1, "ys": 2217, "yc": 2},{"id": "535bd9ef70aa438d9312ab78bd997f02.16", "url": "https://lh3.googleusercontent.com/5yi0QXnZemN4el-lNcwfM_G0T1bY__K-QnNlPUXSNGbmNOBg39V8GZJUy6Iuy5rJ5aS9UqObOVDgS_UtINrCP6fFhQ", "name": "Tidlös Klämtning", "lat": 57.65721900000000, "lon": 18.31447700000000, "team_id": 2, "available_slots": 4, "bs": 523, "bc": 11, "rs": 281, "rc": 8, "ys": 248, "yc": 8},{"id": "53611d0469bc4cbc92b4a247792efd8b.16", "url": "http://lh3.googleusercontent.com/0bHTe-582V7phAe5mwdyVFhgAsXokEA-H3SCYndat92m6aVo9s_6l5xu3yUX-6U8Q1NoLMFotxyW4PHEQXi1qVpfCus", "name": "Naturstig Sockerlönn", "lat": 57.73983900000000, "lon": 18.40379700000000, "team_id": 1, "available_slots": 5, "bs": 538, "bc": 9, "rs": 505, "rc": 8, "ys": 94, "yc": 5},{"id": "536a00e56d79406e83586022b16d2917.16", "url": "https://lh3.googleusercontent.com/HW1R0pwi3Ek58ZEqkxx3M3x9kSHN47Go2hH3AGpU7qvtTg4jmP2lr2QZcFGTRwPOgBEdMcLVgwtBbCiRSb1-_drUbST7yntcmTr5wZwn", "name": "Naturreservat Bosarve Lövskog", "lat": 57.25632200000000, "lon": 18.23910300000000, "team_id": 1, "available_slots": 3, "bs": 5931, "bc": 1, "rs": 0, "rc": 0, "ys": 2963, "yc": 1},{"id": "53a69c84750c38fda854fd4313bc03ac.16", "url": "https://lh3.googleusercontent.com/mFDsD0McHTJXtw2T8wlB6-JumhAhkJbMZ8H5qO0aa-nLpPLrfG6QyFAGW3P1G5dz-fb7ytDS0eT5-TS1o9OU-NlA_94zKf-DwvECSbaB0w", "name": "Höglundar vägvisare", "lat": 57.83774300000000, "lon": 18.56073700000000, "team_id": 1, "available_slots": 4, "bs": 0, "bc": 0, "rs": 2832, "rc": 1, "ys": 0, "yc": 0},{"id": "546532209ca8454585a8df20195564da.16", "url": "https://lh3.googleusercontent.com/C8tEnIZOe-QwV9oeMgG3zpbMmybq4zFloqqaC4KJeXvwEG8pucSO6dzKPIUENjqDctMlKDji2AUYTCKEpDMqPk_MOG40", "name": "Hablingbo Kyrka", "lat": 57.18737300000000, "lon": 18.26257100000000, "team_id": 3, "available_slots": 5, "bs": 0, "bc": 0, "rs": 583, "rc": 1, "ys": 0, "yc": 0},{"id": "54e2aad9f27d4e80850877e2d6bfb8be.16", "url": "https://lh3.googleusercontent.com/vEgn_TaiWIlcA1OaLwSKbQsAwMi0TATn1WiTRVEhTtoKUxzcPYhss3mL6ENSZO3KFFTtb4Wtq6krhy6KnCClXyNkIw", "name": "Gutavallen", "lat": 57.63567500000000, "lon": 18.29658600000000, "team_id": 2, "available_slots": 4, "bs": 26, "bc": 166, "rs": 18, "rc": 130, "ys": 23, "yc": 137},{"id": "5506a03fc42c47f9bcd25844d2b20a7d.16", "url": "https://lh3.googleusercontent.com/gp_g90ZWRQvAiYOp5r0kVwqLheCtALzRhjNwLhvTLLuPI-xgJp7QRG0ieuyHc1FwWE_VuT72tt9vCuay1vq8m9ev5Zng", "name": "Blickar Uppåt", "lat": 57.69062200000000, "lon": 18.42455900000000, "team_id": 1, "available_slots": 5, "bs": 137, "bc": 31, "rs": 152, "rc": 24, "ys": 102, "yc": 14},{"id": "55bc8a6680a7434e90e797c68994cfcd.16", "url": "https://lh3.googleusercontent.com/P7OtUZEZQlBjpkmVNnHue46E1ryF4nOz9JgeCC1EKzGQ6U0SSdvbdDa1Mnb7lZbcEXGOg0ajDSjQ_LutIq8xCpDlW5NI", "name": "Historical Windmill", "lat": 57.00430200000000, "lon": 18.24951400000000, "team_id": 3, "available_slots": 4, "bs": 3857, "bc": 2, "rs": 1759, "rc": 1, "ys": 0, "yc": 0},{"id": "55c741ee482d46b6b2f783d1518ea0a0.16", "url": "https://lh3.googleusercontent.com/bM2FW7w-i-Be4PgDJ3CjDSStoXQo7Qi-J8Skh8d1-0haQXBEd99pCEr5mTml62RVKTbDcuV1oDvYZC80r4qARveBzw", "name": "Wind Power Sign", "lat": 57.06927800000000, "lon": 18.19077900000000, "team_id": 2, "available_slots": 5, "bs": 1935, "bc": 1, "rs": 2472, "rc": 1, "ys": 2534, "yc": 2},{"id": "569b8b39ba6e3230af6fee302975bbb1.16", "url": "https://lh3.googleusercontent.com/aZVpRbBl2rnHL715YD7QA3W1s55wGcNqmygTGaRNA6V-Sjek8opjfYezY5Uf7iUCbRrNZ9hQLbp9tA8nfi2zCGocTTa27lWYQI-5npmZpA", "name": "vägval 2,5 km eller längre", "lat": 57.60104300000000, "lon": 18.27849100000000, "team_id": 1, "available_slots": 5, "bs": 325, "bc": 4, "rs": 225, "rc": 2, "ys": 231, "yc": 2},{"id": "569fc2b98a034a3bbf5b7a7d14d1e62f.16", "url": "https://lh3.googleusercontent.com/WiTCE6UIQ6A7WMLwNS_JjiJNfDwsXNcCQPd1tCjsdlPm0WNdD8fER-Q1BnRu9QO8jisnFEz9IXBSh-Gi4Q4QhFO7wA", "name": "My Little Pony", "lat": 57.43573400000000, "lon": 18.85267000000000, "team_id": 2, "available_slots": 4, "bs": 118, "bc": 47, "rs": 78, "rc": 32, "ys": 38, "yc": 46},{"id": "56e8d6605f614895ba7d34380c6dadc0.16", "url": "https://lh3.googleusercontent.com/Bbm01z4yqZGbqWoxaRTMthHXGonGlKXEyOaw5JojHif7Ijc0NJbdsHrkKQvFuj3ElLlJP1rgvRBPjmD4hyKJ4pR_Mlk", "name": "Väte Kyrka", "lat": 57.44902900000000, "lon": 18.36382000000000, "team_id": 2, "available_slots": 0, "bs": 2396, "bc": 2, "rs": 0, "rc": 0, "ys": 4682, "yc": 1},{"id": "57a43b65d238477c879e8ae8df7bc876.16", "url": "https://lh3.googleusercontent.com/IVfAk1HB4SICH0kSQUMF-2IBxl11D35uP2_UT_DniwcJo1nAG1H3dOuwhSj-Cdrfg77B1_lTDIPjzsH8fOQmh74ETW5_1yTrdKRWUwYt", "name": "Viklaus Förenings Tennisbana", "lat": 57.46846500000000, "lon": 18.47733300000000, "team_id": 3, "available_slots": 4, "bs": 1923, "bc": 1, "rs": 1028, "rc": 1, "ys": 5943, "yc": 1},{"id": "57c9fa56a48a3ffea86403f752886803.16", "url": "https://lh3.googleusercontent.com/uH-kr_zBV9IA8tbWOg1GXqJMH1fqzv7ggYijdImLvy6xUd9vPVF-uMQ__A-RviNThjXX3-eXYHF-YP1SEE0UIiRppC-2PE7C0bEfW-0", "name": "Naturreservat Ireån", "lat": 57.83983100000000, "lon": 18.59613900000000, "team_id": 2, "available_slots": 2, "bs": 3434, "bc": 2, "rs": 0, "rc": 0, "ys": 0, "yc": 0},{"id": "57cab1c11b4c4a248f0e25f153aa878d.16", "url": "https://lh3.googleusercontent.com/Was4tW7wkSF8EJxnwQT1-g8J_zJmHwgOE6i5_8HrDZAuXhO0qiCQ-1Kd8nXw7Tcr8yV4MMS4CVcuGzsvMnI3VVotU7s", "name": "Svaidestugans Utegym", "lat": 57.60043700000000, "lon": 18.35596600000000, "team_id": 2, "available_slots": 4, "bs": 382, "bc": 21, "rs": 72, "rc": 14, "ys": 42, "yc": 9},{"id": "57ec705751da359bb443cf45d83f2fed.16", "url": "https://lh3.googleusercontent.com/bwht-VYi65E2gItgOoQH1AY9Ot1s0gdkLq-hsS_76rJ7rZAGNY5CtKmh1dJseRVPMrZNJjkmBPsXhZZ3touFTX9duhfCKqTMFTV8cdE", "name": "Djaupdy Anslagstavla", "lat": 57.24944300000000, "lon": 18.70758600000000, "team_id": 2, "available_slots": 4, "bs": 1607, "bc": 1, "rs": 2472, "rc": 1, "ys": 5394, "yc": 1},{"id": "57ed1dedb6533dac935151cde095a53f.16", "url": "https://lh3.googleusercontent.com/DBQL3_n_BD5JAJE59H6TUTP67fOA834j9vFrFvVeC1I_j-_1NBFwHCBQNX2a-LvoZ8qmfJUQZ5bKozYEy8nNK51X747l3AYtgEX8TG8", "name": "Välkommen till Slite Golfklubb", "lat": 57.72193100000000, "lon": 18.73820400000000, "team_id": 3, "available_slots": 3, "bs": 5261, "bc": 1, "rs": 0, "rc": 0, "ys": 2832, "yc": 1},{"id": "58ba8f16c74647fdb5c1dfbaf5065de7.16", "url": "https://lh3.googleusercontent.com/I3bmqv_cwTnkAXeEkZwANLzcka23WoHJXjBvMJWbJr6Q2CfBnptZ2-ompC1JHhUWe4orLLpdDg-xyQ_Hg3ZI20aDgPg", "name": "Lauks Gårdskors", "lat": 57.70149200000000, "lon": 18.57170800000000, "team_id": 2, "available_slots": 2, "bs": 2357, "bc": 3, "rs": 1385, "rc": 2, "ys": 0, "yc": 0},{"id": "58cebcde29214736ab27fdbb3f01f41f.16", "url": "https://lh3.googleusercontent.com/KVqJSAu8QzetBSCf_k6EE3K-_SWTk5SS01Sc-6OPUtdyYoiyNGwIuMZKD5RFxRQNslfhNnWz_dkfek6XnvEkVxEsBWh-", "name": "Helgumannens Fiskeläge", "lat": 57.97973700000000, "lon": 19.13141700000000, "team_id": 1, "available_slots": 0, "bs": 9262, "bc": 1, "rs": 580, "rc": 1, "ys": 0, "yc": 0},{"id": "58e506352d0446308e2df1272e6dbbbb.16", "url": "https://lh3.googleusercontent.com/kU91Jqs_zNC5y0Ucwunw7vEEOg48i0x7qJb4oKV59IP5wUwELZuvKkEKrFy3sbPQ5CRKlbDYTaOONrwrxqv3tRZSbgg", "name": "Lekplats klaves hage", "lat": 57.39143000000000, "lon": 18.20426700000000, "team_id": 3, "available_slots": 4, "bs": 1757, "bc": 2, "rs": 0, "rc": 0, "ys": 5382, "yc": 1},{"id": "590c13fefb5f3387a668e0b0b0ec51fc.16", "url": "https://lh3.googleusercontent.com/0wg_T1s0VYes8CKOYILroBhOlghsvakCN9z2b6r-UR6Yw-k4r6bxmp5nH2ej35z1BGDCxe6f-3c3hM0jMqqU0XoRyN2NloZ2bHgmBRyu", "name": "Naturreservat Furilden", "lat": 57.77694100000000, "lon": 19.02056100000000, "team_id": 2, "available_slots": 3, "bs": 1923, "bc": 1, "rs": 0, "rc": 0, "ys": 6303, "yc": 1},{"id": "59193721c17943b3b8d566a10f2a966f.16", "url": "https://lh3.googleusercontent.com/aH7ZJOF8g4qqkOOib510HsgGlq7yZgA4Aj-10AnGsn-6OEzZPpcjU9EKKYoNWeYACdRC6f1XKOUQ6euSS7GLtQJFuIpp", "name": "Rackethallen", "lat": 57.64657800000000, "lon": 18.30685700000000, "team_id": 1, "available_slots": 1, "bs": 41, "bc": 121, "rs": 24, "rc": 103, "ys": 25, "yc": 97},{"id": "596366a753173e90916c0aed4a9f4be3.16", "url": "https://lh3.googleusercontent.com/owmAvjBEJ_mOh4n5A9wykF74EJyagoIZNpBIu8i22VVhQLrXGO48HifMcVAByNHIzlHiZPJ6Jt6Sf7WsiQhdWArLp0lR1xcwA-9qdmWr", "name": "Fiske på Gotland", "lat": 57.73155200000000, "lon": 18.87349300000000, "team_id": 0, "available_slots": 6, "bs": 2386, "bc": 2, "rs": 1383, "rc": 2, "ys": 1150, "yc": 2},{"id": "59e9b2b8e8b037c5b6352d2717cff5ef.16", "url": "https://lh3.googleusercontent.com/tevAzCF2LJuNUZaKprr72ZAtIMShOIENY0yOWyxQp1uBWouoHKK1N0bpW7R_L3AmFGWdyC_anryu_DHDtpY8AxI45VevNdbVmu3lKin8", "name": "Hembygdsleden - liten bro", "lat": 57.36907800000000, "lon": 18.18220200000000, "team_id": 1, "available_slots": 5, "bs": 1839, "bc": 2, "rs": 0, "rc": 0, "ys": 2055, "yc": 3},