[{"id": "04214c334b884266878303aff09089c8.16", "url": "http://lh3.googleusercontent.com/iHZ1FKnAnlYLtWIQ33bcGtNWt5Q5kRBBDs4AruyZ-kgKNmlT0AlSURZ_pqvwHvHIFqSSdAMJfm1RtUJvFBhdi6OaksE", "name": "Forsbacka Järnverk", "lat": 60.61258300000000, "lon": 16.90474900000000},{"id": "04454e57cbe343adb2ed368c74d9d3ac.16", "url": "http://lh3.googleusercontent.com/2o-mhY-74cf7hYQUAXMRcO_9C2MWOtik7hNigsRXt8-VGvgfyylnmodJcQN4D1zKwgHPbumd8iOFWuCSoWp-dpkNWA", "name": "Korskyrkan", "lat": 60.67941800000000, "lon": 17.14087800000000},{"id": "04ed8755b96d4139838c4c6ecbb98e09.16", "url": "http://lh3.googleusercontent.com/1udVtiLWqLnpJYWmn_Nrg4845HDDA8GHKDjW6L9VjFcPNbOBc1S7zJctXixld7b9-xoUPy9Du2YYmzRou4hEXhL2AG-p", "name": "Gränssten Hille - Gävle", "lat": 60.71253300000000, "lon": 17.16542700000000},{"id": "057264c061ae4a86ba8ae56d60691112.16", "url": "http://lh3.googleusercontent.com/SAfe0qRE1sHMjs70xKpA2yKmTpqCKtkyHFDDN9wQ0a-i0uwViatROWFg3K9mAYp-LZx3V2VdG66uKFVy3FKvNKQ7VEA", "name": "Välkommen till limön", "lat": 60.71070800000000, "lon": 17.33100200000000},{"id": "066924a739e5431cb52a4d22a5d14080.16", "url": "http://lh3.googleusercontent.com/7suhV_lvJMMrc_Gl-TOSH0htbyOVPD9BG8NwjeOtosoSAB6fqpCxPcQRlOIDEfRGNBz1aOBe76hrJhmqceVAK_rXK8yd", "name": "Snickarvägens Lekplats", "lat": 60.63730200000000, "lon": 16.99787000000000},{"id": "068cc8994580483eb13b5eedc3f7bce1.16", "url": "http://lh3.googleusercontent.com/Zxci6-5aci_a_7TQ9jwPbv-TYZZCS3yDzS96brNGY9KsCZQoSSKZva1MF5rtluamqZHtd-d8fIIIg9bWWs1lkalarg", "name": "GTK-Hallen", "lat": 60.69017700000000, "lon": 17.13054600000000},{"id": "06dba5e7f37745099b66851803b58d7a.16", "url": "http://lh3.googleusercontent.com/9M6E2bCgSbalV-8lYByAbHUJdcLLFcFkKbP3W1bR7ApyLPCo_zbKx9FjH5UeqDshMWqd9dF-XOEAUBdtri6T8gwTqmAZ", "name": "Fotbollsplan vid Furumovägen 41", "lat": 60.69872800000000, "lon": 17.14645900000000},{"id": "08c32c096b3f4ad38039fb124eae14c5.16", "url": "http://lh3.googleusercontent.com/-QhUFX4T8ESTuk3vOm7d7pt8gnaQZm84fAi_7g0Cj8_vyxtgmGyN-fce7j385_csS7KK5Ieq1IsXi-thQGLIxOzLtw", "name": "Valbo kyrka", "lat": 60.66466500000000, "lon": 17.06963400000000},{"id": "09367ec5947047238076c0ea6edad9b8.16", "url": "http://lh3.googleusercontent.com/7ghgms5ojQVvBxbhFdkzql0noroRUiD7LD0M2XWR3AAaZue-L6yhAtReD-ff-EB69nr1MADazLsbAub0-eoEYCiuIys", "name": "Hedesunda Silvergruva", "lat": 60.39346300000000, "lon": 17.00791000000000},{"id": "0a9851c93ef63fa098ba0f14c2ce1dcf.16", "url": "http://lh3.googleusercontent.com/w0Nt2k1m1YbM2TH93KUHysGOIFwMLKlfEMAfpcDd6m8SUbRngb2w9yd8V17rdao5GWEadYwpj6iEd9Hx7E1NVBVYd2pegqCp5FT2mvM", "name": "Utegym i Elljusspåert i Hedesunda", "lat": 60.41974000000000, "lon": 16.99273100000000},{"id": "0b388533de154c47afba1acc27a35c7e.16", "url": "http://lh3.googleusercontent.com/nKosbcj8j2qaM9TB38xveID-01ivLLrZWOUWfrxBsgxKUo0irpA_nnDGyJdo7V-abnI04CKXpO3LAfDQpm6U-odsFQcX", "name": "Furumovägens Lekplats", "lat": 60.69774400000000, "lon": 17.14759200000000},{"id": "0c55e5cd651d412d99ac4dfd4a9aef20.16", "url": "http://lh3.googleusercontent.com/1WpjY-sDv0yiIl5uQtTqkzHj3CfUzFxabo0WjXbyOXhsM1B96V9gcMJ36bu-a_dQfhWl_g83Ls_9V3oVHO77hY8OgvQ4", "name": "Islandskällan", "lat": 60.67301200000000, "lon": 17.14812400000000},{"id": "0d32e772c1b644528bb364a7471a78bc.16", "url": "http://lh3.googleusercontent.com/KrksdrGBXuLtHZiPd98reIc0VB-ncHk5lN2SWkUI1_uNwkqrPFKHzPQnDDMeWo4xm86INkB3kyHJmtbHm1BaigDn4CI", "name": "Räddningstjänstens fotbollsplan", "lat": 60.67953600000000, "lon": 17.26296400000000},{"id": "0d39fd36b6e54f47be9b520bb5a92bb1.16", "url": "http://lh3.googleusercontent.com/6TE_Kp3juJ9PipjKm3IBBQr69NKpdCRTyVZEn3CgtgcvMf8nW_WsS_kjevXdF7B1CHIKYDeGSHOtpexf_6b3hTKsORY", "name": "Vattenmätare", "lat": 60.69100800000000, "lon": 17.14919500000000},{"id": "0d4bf51a941147b889836d417aa83629.16", "url": "http://lh3.googleusercontent.com/oc8hGCnWm60SnQYSCMHZ-WBvzNJLkyd1d9goDirVtoA_-TBQKwbDcRxoDkWQ_dZkiTbw9oS72bXI-O_h8IqrxRMTTCU", "name": "Cross By The Sea", "lat": 60.65610000000000, "lon": 17.34350100000000},{"id": "0e1d1c0c696e41b9b0c9d0e3a1a511b1.16", "url": "http://lh3.googleusercontent.com/7ClvJIImDFpb5SrXa6I3bxdnX9kJpLVfWSld9YBDlSF8AAHlXLPmW-SXKIzpysDAC3ikmIG2dxfigxuRikuwcX3hidQ", "name": "Hagaströms IP", "lat": 60.67425300000000, "lon": 17.06177400000000},{"id": "0f79469382234ca48becf7cdc8bdbdb7.16", "url": "http://lh3.googleusercontent.com/Er8kLv4yUcMsHVwYKeC5xCrra3JJJzH6uikWFfiIPnj7ghDyVYIfwuJPS_70HQ0TUdTYVHS0gspo8qWJV1K0fRnyyzE", "name": "Silvanum", "lat": 60.67232300000000, "lon": 17.12487200000000},{"id": "1139d62372f448509a15cb59aba21cbd.16", "url": "http://lh3.googleusercontent.com/tflltUbMvRO_qOdKnXijOq3yIg3nHz9E_TlDrYkGPuesRon5pZFnqU2RRE7cIVcICG4Xl15RdWHzCt2Njav0-NVZWW8", "name": "Gävle Konserthus", "lat": 60.67224300000000, "lon": 17.13387700000000},{"id": "11999cbd984d488b8490dea25b228419.16", "url": "http://lh3.googleusercontent.com/OOqMTKc-rlzxCjFYI5gNXAReZE2nOCuzqsAg0ZO6IyyYlv6zCj7fG_s4s9isRgVRxKAJPjIchICovmOPa56bXraR", "name": "Stora Lekparken I Bomhus", "lat": 60.66358500000000, "lon": 17.21462000000000},{"id": "12e5f584fa184445bf178ed554d05fa5.16", "url": "http://lh3.googleusercontent.com/cCod2Qvsjbbt2sDSJ57A-6kbXwM13vUh0NCtbnIH_uO6BBDLZqdjwO7S_LrV3wQgiRJNb2CnkpgCsPW9cJc5OegXEDBa", "name": "Stenen i Minneslunden – Hans Tjörneryd", "lat": 60.68126700000000, "lon": 17.23154500000000},{"id": "1323edafd41443ce92153227e6753079.12", "url": "http://lh3.googleusercontent.com/SSXpY2WwBI0z_3thWoPd-ipGW923mUE5I2xAQvTkm_KA3CEXpTAxCE3Dapn4WS5X9ukdbodlN9dJ-ml2Q2QTUm7q8g", "name": "Cykelmannen", "lat": 60.66970200000000, "lon": 17.14220200000000},{"id": "1329e619488b4fe6ad81cf5db882d9b9.16", "url": "http://lh3.googleusercontent.com/uvL2nK8085dDLwSvqNfqtoLgD_Yl-hxwuDqLw6Mw0UtyDsbMOSpL_j4i8FZbYZoBaRcOXvf4WPhm57EMW37PrOTEIw", "name": "Primulavägens fotbollsplan", "lat": 60.70271900000000, "lon": 17.10072400000000},{"id": "1384605e26524e68a77b8e81a9ba4a72.16", "url": "http://lh3.googleusercontent.com/T2fCcrSBe-cT2gnOeO5HmpLz9yYpWGzd9jKWkB81x6VZW-j98F4-1dBUY8x6o2MR-BkdngKP6QZ78e0eMdBtKOAwmA", "name": "Vretasgården", "lat": 60.64362800000000, "lon": 16.99986100000000},{"id": "1460f33d2c784af3907b47d0dce069ba.16", "url": "http://lh3.googleusercontent.com/g261kNJg8GI1aW3xYw-kid3ojUuamOGk4NVlf8OEaMsCiOn7w9uuKGhvO9Iy9aIyuwhWJBU1YHRMmcrSzRh696BsMCk", "name": "Fotbollsplan på smaragd", "lat": 60.66126500000000, "lon": 17.21504100000000},{"id": "187b4c649171431a9f714222c85a0195.16", "url": "http://lh3.googleusercontent.com/a7jC8HD7T9lpqTKBhrFCjVRMKBq3b6-pSmK3TZ1TxIaLaOQ6Ul5jFJL89mb0c2lhdykJSBYHeIh4NDItnM9VlN3hig", "name": "Järnåldersgravfältet på Ön", "lat": 60.36464300000000, "lon": 17.02482900000000},{"id": "18b394d222ac416aa65b9b72871e506c.16", "url": "http://lh3.googleusercontent.com/q8JTI5NahrE67qvwcAFB4iHhPSMqa405vBRRptj_on3XPt8EM9E7eiq6bfr3S3FCGFt5Etge1JC73avuFL2UzvhOCQJq", "name": "Monitor ERP Arena", "lat": 60.69078800000000, "lon": 17.13329500000000},{"id": "195dc6a662b632b6bcf626ad0d454e30.16", "url": "http://lh3.googleusercontent.com/nmvAXGi1VkeLlAMuJ_mfDvGOqX5YOphU3aZJM2114CErhxuaZvcuH-N4vD-7f7VITid7qUlw_9EIdxXZQ6j7COMURBUWzMyYQSgZtdkcSg", "name": "Lekplats Hedesunda camping", "lat": 60.35096300000000, "lon": 17.02330200000000},{"id": "1a3759eea53d42ca99459802cf193ddd.16", "url": "http://lh3.googleusercontent.com/3Tau8ogOmy4FyN_tWFpZuwXlkax3s15GmgOJ5lF_TFgFmXvNrU2L0D63hrnJ9ful872TiRM8D7G-fnYRN3fxckYhoZ47", "name": "Åbyvallen", "lat": 60.65253400000000, "lon": 17.03854600000000},{"id": "1a888f63516a3221a882d7ca3de5204f.16", "url": "http://lh3.googleusercontent.com/KAs5QoWOXUI5v-loAwu1AoUBL7Q_ywIOq34tLu6iE9LEdC0sHqnc4gI1pu3lMIT9JMuFci6FTVQ_ZBedpzcdcRjlsXA43MqBsFl4qaQ", "name": "Allmänninge Anslagstavla", "lat": 60.64132500000000, "lon": 17.05391200000000},{"id": "1a946a6a9aac380694cb708bcd144748.16", "url": "http://lh3.googleusercontent.com/z_h55_hI9V0sjwEBz5WyPkVmqn3ZO5Z1TvNdd6xPA0ary0zNdwxaBQ3cKL-7W0l92mTZ95BHqsA1B5pxiSKqvr31R-1uG1ncdQapPeTw", "name": "Välkommen till Hedesunda", "lat": 60.39446000000000, "lon": 16.97834700000000},{"id": "1a9f4aa887ec4c47bde80d8d5b24b558.16", "url": "http://lh3.googleusercontent.com/yznMQijnsFq0cDGKkKHEy1PWZcesYL7CZqxuf0GURS5qz2BJypNPiBG6loao7aTl4N65T31SSOdLILqx5ENCUzFonGI", "name": "Fontänen vid Högskolan", "lat": 60.66892500000000, "lon": 17.11835700000000},{"id": "1c505d6d29d84a02a270dc6cebd1edf5.16", "url": "http://lh3.googleusercontent.com/895Tmus1wzoBNWu3q0aTVP_PfBQG82HAwNgNIVUpd2M9ZRHfwCmb5ffcwn6U3JXusbGZmYgIHxODy_Yxo7tdNCWMSw", "name": "Huggormen i storskogen", "lat": 60.64865000000000, "lon": 17.17114100000000},{"id": "1cf8e59d615a468d83e41213e57d73b1.16", "url": "http://lh3.googleusercontent.com/uImKBcvdKRFuM0Xtx5GDXP3Y98tZ1zYlRiRV-4Y2rl-3FnIPe7h_UnSG9qpUAdE2os-8w9eJzALZm3hqG8YCcWQax9E", "name": "Kupade Händer", "lat": 60.66556200000000, "lon": 17.07347600000000},{"id": "1d67fa1793fa45e388696ee4b9e01013.16", "url": "http://lh3.googleusercontent.com/1ErrBGYpL1t6koqM1D7bWuL_JoFoMWSc0cDDpj8tg1pP0xwY_3VQY17WWJx3n0rWdyUHtLB6-fm-BA52K1z6nQQ9p9I", "name": "Myrbackavändans Nord-östra Lekpark", "lat": 60.67134800000000, "lon": 17.22208700000000},{"id": "1dd214c4495043b5878ddbf750a4343c.16", "url": "http://lh3.googleusercontent.com/EnzMoiGECwKGUkYrL_NxF3ILJVvmG2mxqfOoQzR3vf8eifLg-rer1s1TO1D4tEa0t1TT5tV9k0zoWgmRBffM_A3M1b-s", "name": "Sjukhusmuralen", "lat": 60.67784600000000, "lon": 17.11842900000000},{"id": "1e5483baa91e487085a5d2287358c023.16", "url": "http://lh3.googleusercontent.com/zBox_yAT-MXtzIXQABGfiijrTMOB2lxkMt_-3Fs8UbjqUNR_s8G0Nb2w23C2ZsOfYdqU6LmiP7kI9AYXlIiTzxMx9w", "name": "Stormgatans Lekplats", "lat": 60.65221200000000, "lon": 17.14681500000000},{"id": "1f83590343124e88b1c901dad30882e5.16", "url": "http://lh3.googleusercontent.com/L0Z59jzNI8MF9CFWqngZHTDdNhRB8R-ebzfdbNZlurdKE1HQdaASXXZCB3MUXZYBJt7Rkuu7mUilJifG0APSlaewHz8", "name": "Kastvallens Idrottsplats", "lat": 60.68499900000000, "lon": 17.24623500000000},{"id": "2052be4e9a144c9d8b48f6c1714b8f76.16", "url": "http://lh3.googleusercontent.com/JSrD4PkiDj_8J4y_RTTer_Z8eoV_zTQfe3r9O0a0_1vjbrkNtEn1yyKC1JMRxr91kNNmQhfOIQvJ-1lMx6OSE_pH3A", "name": "Gävle Centralstation", "lat": 60.67598200000000, "lon": 17.15069300000000},{"id": "2132e4da86de4c8587b7a5cd6619d4e7.16", "url": "http://lh3.googleusercontent.com/jxj7fO1nRXDDwoPX1NU5spLrzcgvnJAWXgC-W_ejXjMw-5jPeRRm0w9taiDiPi5Q87Sc0z1Rs81WzpccDgibL0pjfqs", "name": "Curlinghallen", "lat": 60.70775400000000, "lon": 17.16482800000000},{"id": "219f489bbeda46a2a1a76a87145b092c.16", "url": "http://lh3.googleusercontent.com/VYJDMHqb46NzM5XHwtrDQCY03VPr68VLOnZlz_hqa4anxQYGp5JmUWsj8RG7BMu41C4-rnT6dzjzOKdzbAYfFol8dA", "name": "Gavlehovshallen", "lat": 60.69222600000000, "lon": 17.13667300000000},{"id": "21bd36e258454776af21bcf25c45274e.16", "url": "http://lh3.googleusercontent.com/Vdjn3IRcHgBLpsyt6EiC2ihcRo1Jdz0h9vH3iIqK_z0NiF4yKU25tbFnCfiwB3JUkrYVw6IiysNZuY-XR20oRfUqr2k", "name": "Sätra vattentorn", "lat": 60.69240700000000, "lon": 17.09251300000000},{"id": "21fbdb7cbd614eca83e441479a131166.16", "url": "http://lh3.googleusercontent.com/O6Y_eyBM9wZiUkGjw_OMPJcN5gflMUPU0cchlOW-NJUoL3QwGW0PzfT6F8WYEvcVVvSrkdfgm-Rg0MTq2KvMPbLnwQ", "name": "Upptäck Gävle/Hagaström", "lat": 60.66745100000000, "lon": 17.08013000000000},{"id": "22f52a5aa5794ce4ab2ab723da1ca2ba.11", "url": "http://lh3.googleusercontent.com/rJkPr-vaKUCPd3uDJ9HBUDNzMXuKUN36PbN_uEJ9FsLLS3ax_ZI4cXWQhClrVuEOZZmPAUnecWyGf_NdX2xmf0T42Eo", "name": "Maelström - Arijana Kajfes 2011", "lat": 60.67914500000000, "lon": 17.16217600000000},{"id": "23d4b1cb9c2c4b93ab165989030ea9c9.16", "url": "http://lh3.googleusercontent.com/YP7u58THvT3WMGor1m1O5Zbp4TfgLsVE6jjrmvoh7D1y7qzcRrbiYclqFDB8JF_tLcQH--EzTRfT8HfQcTNYxE61jPk", "name": "Gefle Forum", "lat": 60.65889200000000, "lon": 17.13543400000000},{"id": "24f824a7dac241ff9ccfa9960d108b33.16", "url": "http://lh3.googleusercontent.com/IrcSZ3MHzqEQVNRcogBt9-Z1f2fDokfkd5JLGeqj4ZQ9opfQasGQqY1H6PZH0q1Xxmvg3lgqiAzxj_V6s0U-AP9MkMds", "name": "Brynäsvallen", "lat": 60.67343000000000, "lon": 17.18156800000000},{"id": "254087c451b643a3a9934a10b7b5138c.16", "url": "http://lh3.googleusercontent.com/7Vd3RkV2tQqr6JzzqqfWfrTRzd-1CKjBkjKo35AKbvtEXZCFgpd0LyKCaRFy0sBD-TgFx__cvv_9swgbXEgT6kup_Pg", "name": "Sätravallen", "lat": 60.69243800000000, "lon": 17.14327500000000},{"id": "26f230872e854d73b24680de1a169b2e.16", "url": "http://lh3.googleusercontent.com/mNZTVc9VHvEibGPmKbq0mh3l__bC5qw-muMq8IIKz8z_8bPjxhakKgO3tDQegYIVJ0pcEp_bAWQ-If0xvromd1v7on4", "name": "Lilla kokstensparken", "lat": 60.66256100000000, "lon": 17.20558700000000},{"id": "2814df0fcc2942bd9ce702a01451ede1.16", "url": "http://lh3.googleusercontent.com/kX9bHlhJr_U5n9UWR1OdPRNdeN4dO0tDoQGhprQ1ii_0_Uo6LDz64Qp5DznsbKIaAel5AROg4YF1sgq25uZGRfwgWnLz", "name": "Degeln", "lat": 60.61351000000000, "lon": 16.90096600000000},{"id": "286e9dfe4285dbc25bbb3257aacc523b", "url": "http://lh3.googleusercontent.com/9E5ROtsYRrO3CkH_jpYcYKRRMqoPHK3gTUIWHkWdxH8s2qlfoWZdSP2SG1OU2ptMEI4dV6VVxtNoomfPWxqnwBwObow7gbT5wH8", "name": "INGO", "lat": 60.68603995000000, "lon": 17.15261936000000},{"id": "2933073809cc4cfa81b2c6f780b375e5.16", "url": "http://lh3.googleusercontent.com/wji0V790NK2i2wLqJH-eFgQvUVxWifsImhcRvO-eoXBNgtaY1ldc6gZP-wsBox5pF__-vuymImFqB7fIEc0qHDTJQoWiQniuo2ix4Wos", "name": "Gunghästen på Vinbär", "lat": 60.69929900000000, "lon": 17.08997700000000},{"id": "2b863db4bfe44ffdb6aa4d9be2bbfaa3.16", "url": "http://lh3.googleusercontent.com/ysbLfAkYKurS6WpsvI_ckyfaKqL94dPU5tNzylqvidL6d35Y3yCqdWF9XEfQ0vUKeehj4TG8ufeunaCoEzFlDlyF-0Q", "name": "Arboretum Valls Hage", "lat": 60.67893400000000, "lon": 17.11053900000000},{"id": "2bc4fd8788334a1fae4790c310bc4566.16", "url": "http://lh3.googleusercontent.com/kJI3IKJcXbdyWynCIEMunA5W5mwvw3pjXGSRx8y0JBwMm4iJS6guoWr0gXfA9LbvDo1x2LmY4uokD42Lt4E2bmHzU-nx", "name": "Lekplats Brisgatan 28", "lat": 60.64840100000000, "lon": 17.14355700000000},{"id": "2d5d603a8656464eb4403dbcbbca987c.16", "url": "http://lh3.googleusercontent.com/iKlif6ILW_s9ha2zOGhR_M7psjtym1ZjXJhpyhrQtQXMWIeuSI47ED5QU0NgNS-n9Th6qzNeCFFzEUDyFus0uO-thTs", "name": "Spöken", "lat": 60.67853700000000, "lon": 17.17973500000000},{"id": "2f6e372060f049579a1f82ee1fe749d3.16", "url": "http://lh3.googleusercontent.com/Eo8RaaJkbWD4N0YkQUCbws8Lf6fK7cKERkJ-97VLOkXdVfDrTrzYg1FzkELddYoFg358_chE_6zk0dMLeJcN9Sm00tQ", "name": "Stureborgs Parken", "lat": 60.64621500000000, "lon": 17.13236000000000},{"id": "301759aa6b634037b4c322c6ae786a9f.16", "url": "http://lh3.googleusercontent.com/6h27hObSCfcd9wL73TGBbsRcznWWL3EarvOTj5S0L-ntNapSFyLcxqjZuruZQRMiogpQSN0rFHWkQfL0lT-V2Pgkxw", "name": "Furuviksbrygga Restaurant", "lat": 60.65263700000000, "lon": 17.34356000000000},{"id": "3026084599464417b5825cad886eab62.16", "url": "http://lh3.googleusercontent.com/N1k8hSK9uv5Rm-2DnN73ujaDV9kkjGySqSkx8XGElc4R8yQpZqgYhWBVnM3LxZDBrqcYzdWfUYAR8oMklYKla9i_UrY", "name": "Åbyparken", "lat": 60.64626600000000, "lon": 17.04029200000000},{"id": "30e2304759c5476e8ed27966611ad378.16", "url": "http://lh3.googleusercontent.com/k9b4XXilSw6dn4eFOwLuuS-haoaSDo0AqgJ00nwyIUT504iLBhRCeL8rMgk9GCOPd-Ux8Jfl28V-LlWnZ0UqyxQMCoI", "name": "Murmästargatans Lekplats", "lat": 60.65364500000000, "lon": 17.12292300000000},{"id": "32d3be18be664848a5a74415ff80958d.12", "url": "http://lh3.googleusercontent.com/N3QPw3HtNUB2wuxCTAs-3ZySunDcR_-NZNkatULwile4pgVyYg5J7j1K_P5wMmw3RvbJjXKP5Ns-k7Po99saYvS6gr0", "name": "Fem musicerande änglar", "lat": 60.67352900000000, "lon": 17.13280400000000},{"id": "33dc30b0856c46798fb6fe239ac02afd.16", "url": "http://lh3.googleusercontent.com/8xT2L6FALoPFjVUscJYe7T-GIJmxShZHZlTwqKjeCYBxAQeWMUw8apfiPVILzFO_co_hi9H8Stz4EE6hsqodZmBynw", "name": "Gustaf", "lat": 60.66965900000000, "lon": 17.11382300000000},{"id": "33e43455d6bf44fe92e65851c22dd674.16", "url": "http://lh3.googleusercontent.com/rdh-3eep0FpfJ0yUUkygjLUcVee4aTozmfItHc5ccdrcu9zVpigzcobD9vhyUIcMMClZZAc0PxirNgQDn5sO69XvwNI", "name": "Gustafsbro", "lat": 60.67470000000000, "lon": 17.11018600000000},{"id": "354b4f2e59384b079607b6c2eaa81bb8.16", "url": "http://lh3.googleusercontent.com/vGmSX0i1VvAxjzZK0yl9Uj4UBc6U13L6I85N7UTcGhHntYR8jSiWyWyub_YCwvpT5skhIpQsKtqxpZ-05chlBoJTyts", "name": "Smultronvägens Streetplan", "lat": 60.68645000000000, "lon": 17.10644000000000},{"id": "35e6e4407acf414a835597148d6c9ad8.16", "url": "http://lh3.googleusercontent.com/aTRE8eNnj6LsQFCsrxq40R_N353WTrJ3atkFwskOCGnNA_v7kPlyQ06jrrACYtntazwUttXFUvrLl3HiCV0hHflGug", "name": "Hövdingens lekpark", "lat": 60.66427000000000, "lon": 17.22769900000000},{"id": "3711c50b550933b58421143c7b44ae99.16", "url": "http://lh3.googleusercontent.com/Ieh83VxJX297dLI59FIfxBgAI0170B9KJfrnYy6Gp2ulOW_iOEyUwGf0e4xM0bbo7HH_rCWefZtJI2SgcrHehxS95IjO0S-qCKnyDnhRhA", "name": "Järvstaängarnas kolonin södra ingång", "lat": 60.66203800000000, "lon": 17.19035800000000},{"id": "37f5148ba289468ead7c27d481fe8342.16", "url": "http://lh3.googleusercontent.com/8W1-umHVa0L9QCs-S5rXvZ239UCv0DsuGf7PuxiIFx1c_UJe5xTyGbnTgnxxVdOHXHKR6-gSoldXDcts4oyKm6Kd27o", "name": "Strömsbro Textilfabrik", "lat": 60.69833900000000, "lon": 17.15894600000000},{"id": "395ff33a5412410a9c1bedb59bc83bae.16", "url": "http://lh3.googleusercontent.com/G8jM9ZTDLiRAULvbieaOoR0LlhFoY77h3z7T5Sf4QWEz0KdU2iyG32HUnpWlHCKviBpvhY-P2mraraaGknjite7MD74", "name": "Måsbergets IP, Fotbollskonst", "lat": 60.66932100000000, "lon": 17.18710700000000},{"id": "3aafb44d038f436fabb71bd9bd32790d.16", "url": "http://lh3.googleusercontent.com/0_U4ND6AkcwPyOMKbSfotWuXlr5h_V7VDTxHXInFZvi0Q59I6iQKdQH4EkIZuEsMXcgFEybOl2QXb39sfMeLE4IphQ", "name": "Manufaktursmedjan", "lat": 60.61195400000000, "lon": 16.90683200000000},{"id": "3adcc03468c54d489c0f254b93dbeb15.12", "url": "http://lh3.googleusercontent.com/W09mrXvndaNu4PSmmpAhpVOFyKnbmggXRS20SgkUFqvrodyOgKd5GNgh0xaZlHjhM757yBEUh5n8mVmGL1NND2GXcte2", "name": "Form och linje — Sune Overud", "lat": 60.68664900000000, "lon": 17.12423400000000},{"id": "3b4ccf65ecd442eb9f9714c2e483eb78.16", "url": "http://lh3.googleusercontent.com/U_tDIUsAA2OQqyUlPal2BT0rh8NCK_e0M2Bm1_W0GB5WGKLN2JmBQvti_hHiQNylXSIvN_9X-xskmb4UzHSsz0e_Rdg", "name": "Ramsåg", "lat": 60.67631200000000, "lon": 17.21704200000000},{"id": "3d2ad0bb83b84e9d946116b170e436af.16", "url": "http://lh3.googleusercontent.com/ZwwKTZASOMHf4mjODbHjKmm0y6AAWDGunUmtUyAaSftL931UuUkx-Ju8WQ3DSUS3Q9gSeaKnGcuEsBfmpPcBjUfqkY_t", "name": "Piratparken", "lat": 60.66529300000000, "lon": 17.23729000000000},{"id": "405c15ec5d01445d84d957ed2d4028b6.16", "url": "http://lh3.googleusercontent.com/v01VhVh87hyoisiNmhnNpR7UW1CjJIahZYenXnXIHmai3AoiRa_KvMAEJ6X4bfLw490i_ix65J6ukDemfB1EDXeMzjQ0", "name": "Siporexparken", "lat": 60.64195900000000, "lon": 16.99503100000000},{"id": "40ca4e32119b4732806de3bb575241c7.16", "url": "http://lh3.googleusercontent.com/X0WWfdV0WKOlMjWbvxpxYaHyC0Npr3LysoTA-LfowL6wCDSmCB6Tf-th7jlGpd0ioUdy1tpVJGlxPa8vaiUpnQuzFv9y", "name": "Båtmansgatans Plan", "lat": 60.67481700000000, "lon": 17.16863400000000},{"id": "421a95bae48841db879e6672bd4ccaca.16", "url": "http://lh3.googleusercontent.com/mJEu7KmxXZObU_XDy6O-fE79Nl2iIS_F9egiphpkwnImSLTxLq3k1tBwNKOHdmsuTkCNfMeRgQ1wLbD13jc09CenQsxF", "name": "Mackmyra Whiskyby", "lat": 60.66494700000000, "lon": 17.10052500000000},{"id": "428d5c26b20a46e48d5ddca5b2d765c8.16", "url": "http://lh3.googleusercontent.com/dERoYUc_XeydVii2WO6cDwgmr-3bBJj1PCNCr2yIk6VAiTiGOT8pq8QDM89k2aC5N8NN1FZ9BfPiTWB38mBrkiFDWuI", "name": "Nickback Arena", "lat": 60.63856500000000, "lon": 17.00860500000000},{"id": "4378596b98224663b080b9c107e6d516.16", "url": "http://lh3.googleusercontent.com/ANXzpJO45h4W0A-jTMmreexNZrKGlixh6v414aHVfHvFKEPUqTttoNo3BnyxfUioksWhccz96idndR37k35iIR8LlQ", "name": "Smultronvägen 19 Lekplats", "lat": 60.68805700000000, "lon": 17.10524900000000},{"id": "4386c1b713de4541b4f85cd06204faf3.12", "url": "http://lh3.googleusercontent.com/irQ78tS4dVxgRcMO59J6UJw4DNlDCfGmislieHZoT9WGXMI2JnFtv_lB6u9HbgI2QDRrtzGxgcN5IS4vm2IOHqCESOq-", "name": "Konvulsiv Form — Roland Haeber", "lat": 60.68642800000000, "lon": 17.12368100000000},{"id": "4411e7132fba42caa38d2341d4c7f825.16", "url": "http://lh3.googleusercontent.com/MjzLy_7N4YFXYJPgda4NZL8F0-0qeyOWMdG58-KzG77EKtBIj_WsBV7bB-Bq5e_71zPDslEqptMbJ8pMFXbLSzQXGNY", "name": "Upptäck Gävle, Gävlebro söderut", "lat": 60.64908000000000, "lon": 17.11788300000000},{"id": "44b02e12ce6d481f8269bfc82fedeba6.16", "url": "http://lh3.googleusercontent.com/gpt_DVLhCId6w5fQoJQsvhhunR2AWj-XwVWooivzdxY5DwbUKYEmarbmwvrtu1oZmF4TDswrsp2AJdr_PrrmTZAMJzw", "name": "Här Låg Jernvågen - Birgitta Silverhielm 2002", "lat": 60.67591700000000, "lon": 17.15234400000000},{"id": "45923e7eaec5437988a804a027e49a80.16", "url": "http://lh3.googleusercontent.com/0bV8q5LbwV2S0IpYAOb7I8o_NxyaYiKGoGL2j4_LMhT8OPPtLMm4vn86qUaTM52jL3JOqgle6VMmRFEhrf7vGzitPw", "name": "Gläntans rastplats", "lat": 60.64212000000000, "lon": 17.18295400000000},{"id": "46e3fd91c61f4c078d028d724ccf8219.16", "url": "http://lh3.googleusercontent.com/GzyTcUY4I4Aoe3gW4jvTXZgas3W19s0LyE6NtsE1GVg4qE3tW2Prwwsl5cfYyJtdHp0ORsdwTvcGnCJWEEk9B3xXYJo", "name": "Brännerigatans Lekplats", "lat": 60.69921100000000, "lon": 17.16159700000000},{"id": "475f3b87860245c6ba37a5e6cbd34f8c.16", "url": "http://lh3.googleusercontent.com/DBGlJYiagJm9NFgxQZLaQJ-sjKmw16aARH3VYz-beB_BnLln-dx926mYAvr2ojin0m-bYmdQgvjkxM5dtYaFaExe-x8", "name": "Vinbärsvägens södra lekpark", "lat": 60.69541200000000, "lon": 17.08926000000000},{"id": "47682a67f5734704bba39510b206ba19.16", "url": "http://lh3.googleusercontent.com/WBsjHKsLDTI5zM6z8K3wsie0ZM3zNgPxP-dcMm4B9f-MUQ0VpyunH1v47qHEPntk01tIZv_nM5fADig8f_51ugT-YuGd", "name": "Skylt Limöns flora", "lat": 60.71132100000000, "lon": 17.34370600000000},{"id": "477194a6f65d47c9976e09c487dbed10.16", "url": "http://lh3.googleusercontent.com/1lJvaJklLjzxofRXlBGfk1NJOu_23QdUyVBf39NtHYZcr8pfrf15-lDZusdRldBN6kfu_NXes7Lq0bSRtZ6zumFcPyI", "name": "Konst På Kyrkogården", "lat": 60.67438600000000, "lon": 17.09889800000000},{"id": "488c928a0a5d4b6ba6cec2dd958a9fb7.11", "url": "http://lh3.googleusercontent.com/ZVsed5kJqeX6ut_gt9CABUq0w6hfb_WcJHn-SEtukIRpWV3Yg9BKrLl8_DsaJcBs2ejLdyEYAS_wBefSRyILSd70h5o", "name": "Polhem Steel", "lat": 60.66776900000000, "lon": 17.15191600000000},{"id": "4930308c78a54016a6c8e095b5696d36.16", "url": "http://lh3.googleusercontent.com/m1VeVh2nlnkCUTpXpKDaFl2q84iFNgOetlqHtUQO09SYhszBfRQ80rWeRXYiJ3OYlvTOptumr4uN9m5KFozrmoxV86Y", "name": "T-uddens Naturreservat", "lat": 60.67338100000000, "lon": 17.18787700000000},{"id": "49fc09f6182249d59f645e78f8284752.16", "url": "http://lh3.googleusercontent.com/XRt1oBIGD0WVDkfbwb0WHNDy7iKvV5Kiq21_O3FFEX0YvV6CkwRwApOVh6OaQnNOcfA2FrdQUnhhs6LsBg2iU1pikw", "name": "Grävmaskiner", "lat": 60.66481900000000, "lon": 17.15503100000000},{"id": "4ac3308dafa5473db8d50aeffa5ccc5d.16", "url": "http://lh3.googleusercontent.com/UPjWPz8orRI8e5NhKjfoGHWJmLfkP_YMX21bTaRdGISjS1Z-VT5rAZjNr9QbXHo6TR8vHrgKaqc_7V1Qgfyt8QU-R3o", "name": "Blomman", "lat": 60.66428900000000, "lon": 17.15153800000000},{"id": "4c33a2f697254d1581e53f501ecb626c.16", "url": "http://lh3.googleusercontent.com/xQBUnR44hwOqi806HpO2Stoh1F51NtOY6RwdpGMxs_e9Zv64AH48cNP1Q2wd3sdlR5vmBXCu6a7jdUXZf6M8xPKVIXU", "name": "Sågvretens lekplats", "lat": 60.64529400000000, "lon": 16.97472500000000},{"id": "4cf7031bb10d4274b7b5f313b97807e7.16", "url": "http://lh3.googleusercontent.com/rvzLlKXO6a1rEN8y9NP391-KHvZQ3x41FfkVN3klOhS8kSbn3jYjoP8CBndxM0pzk8sFfeE03Owp-sMGXAEV1fTTuZ0", "name": "Stigsgårds Tennisplan", "lat": 60.69665500000000, "lon": 17.15652200000000},{"id": "4e1f22360c7c48978ccf215f6541ef9c.16", "url": "http://lh3.googleusercontent.com/9tyC6mWhSk68TLYlMd7RUZSQRk0S52tvGI6Ae8K3oPVRmSgJ6cogrGcJJXyZOElPdvEJc4eVJQqljMH215lr7KA0cw", "name": "Stavs skans", "lat": 60.49111900000000, "lon": 16.93626000000000},{"id": "5025e2e6ead44e5ba106e717b565f137.16", "url": "http://lh3.googleusercontent.com/YPkDdEun7AVyunY3Ac3SFUlLpHaGPXxuLCFha1H0xKS5gL_MWAPa-OxxWZ5wg-7JeNpGn4NbE_k-272Sn8B-e3YaDIEA", "name": "Kokstensparken", "lat": 60.66266400000000, "lon": 17.20765600000000},{"id": "522643a9cd88462aace726cc3b8f7568.16", "url": "http://lh3.googleusercontent.com/yiMOWbgeqdIRvnuaqfYgEGGD6b9WJhT2b4bJbw_11Bptj-Vu4A99gGXAa_bGg5ZvOpJYzxGMLOfcWMD6yv1CgKfgoA", "name": "Rastplats i Sätraskogen", "lat": 60.69922000000000, "lon": 17.13537800000000},{"id": "53195ea438054b5681049404c48ffd72.16", "url": "http://lh3.googleusercontent.com/w_2fT7uSjETEfosTchOVGaMEa8V1NCg3NyuE0JGniKQ6slc62pa5qLt9eUsuHXNEx0QQGXihgEOH_cEz0tB7X3rc5w", "name": "Eriksbergsparken", "lat": 60.67022200000000, "lon": 17.17159600000000},{"id": "547eae48653a429c8d7b495f905980e7.16", "url": "http://lh3.googleusercontent.com/PpLzevzekTpL2vQTTPaDOsFu3bDnKJhnitOFcspufkiy9F4LLSgNTjK2J5tpBUukt6L58gJsRz2WScXfnclYzNCRmg", "name": "Naturstig skylt", "lat": 60.71622300000000, "lon": 17.34321300000000},{"id": "55a00a086abc31ee81c238f6dbac6a2c.16", "url": "http://lh3.googleusercontent.com/uNzundd5lit3hCzh3MUOs_Lw2ozVhwe7po_4_Rfs20V0NZ_6HB3rHQcQU2zIYhxIdOpUifWHHZk8yZ6bbX8mhf-ovpbXFkKnRZhfsdiw", "name": "Badplats Sjötorp", "lat": 60.62907200000000, "lon": 17.17755300000000},{"id": "568e447ade7e4f18a0f264c3fe4931dc.16", "url": "http://lh3.googleusercontent.com/Gzarln6_kl5GiS8JrqjD7MOhjxsvSn92pYzXc-eliIWh8L6RekpXOEmWD0jLbic-4PZt9HE2b0yuP4xlSEqCOjWzag", "name": "Teknikparken Gävle", "lat": 60.67354200000000, "lon": 17.10809900000000},{"id": "56f1eb33cfb14d42ab36bd2a9bb91ad1.16", "url": "http://lh3.googleusercontent.com/5l3elAgL1X_RtS-p48kTg83LYFReGrM6c8kd4oT2w9Zc7yTo0Zsq4rm7LReHZcrXpHBmBvL0Q_sJoeTZ_AECbgyNaIqvycnk2VFgSUyoVA", "name": "Boulebana", "lat": 60.63944100000000, "lon": 17.15048700000000},{"id": "574c8802136e433f8e2b02e8742b20d4.16", "url": "http://lh3.googleusercontent.com/06niG1A4JigD1io-1jbkbZ-teia52nHz_1ZTcpoisL8rRj9QT1ax7m31loWA_vvtG3VAw-cKq73B3auVPWNSe6vRNsA", "name": "Fontän Kastsjö", "lat": 60.68161400000000, "lon": 17.25422700000000},{"id": "59272b5695644022af4b2e2bf21e0d61.16", "url": "http://lh3.googleusercontent.com/Amvm-LoZi1nrqne-EiAk6Bnku-9toNmagyouQWPWu0r7gkFRAJmff3A0B3VIbBfO-0LlzHvO0HhXkd_ubS9Tk273fQ", "name": "Södra Bomhus-Parken", "lat": 60.66280000000000, "lon": 17.23682600000000},{"id": "5a3c0e72455b470897e70ac699ddc147.16", "url": "http://lh3.googleusercontent.com/9duMIbjOst1YTZSAkZ4bhgba73gidl3ImLNd_AA1obARSv8TkqTpbPO1dDou-fkLeFOrgs8jgyhZPanRtheQ1uLGWWM", "name": "Nyckelpigelekplatsen", "lat": 60.65942600000000, "lon": 17.13821300000000},{"id": "5ab0c45db61141fb80181e264aa07bee.12", "url": "http://lh3.googleusercontent.com/_0KeuiuWtZBE0DpD-taC4FOZm0bCKhXTPTj0iTRVFj4ozJUgqoRZ4nF3R22OcaBpduO38fVS4eZtKwp95C7nmWDM6XQ", "name": "Najad — Peter Mandl", "lat": 60.67565600000000, "lon": 17.15413500000000},{"id": "5ac9ef3dcd3f4d97ba251e8789ba9250.16", "url": "http://lh3.googleusercontent.com/DtBmWJoZlrh-KSaGG1YVaiGc4K9_84ResIOTh1li_X81OfwUDJTFTAKSVNg73GPOunj0bZAhS7gZ-l9BhioR_NXV1M3r", "name": "Kyrkbåt Från Belgsnäs", "lat": 60.36560000000000, "lon": 17.03179700000000},{"id": "5b5b127f46e244a18d878ad5f30dd9a5.16", "url": "http://lh3.googleusercontent.com/ADu3G8vpa17evD8nC-u17t2uYHsrojMbKT2DFrloolvhCXN7hX8iCne3tYo5o0CzjpogPesZlVBmUdLno6lcmlVl5bI", "name": "Ek", "lat": 60.67735700000000, "lon": 17.11129700000000},{"id": "5ba7f182221a4cd597761d41ac9a7a7f.16", "url": "http://lh3.googleusercontent.com/etG8_ZK51L_HXmXVocDiolQ_1IiaG0dRxNKbk1gbAYcpBqJgFtqkCg-5qEGfq2Al5hTxrY-GLhWpJSbkDw3ftnLAORHY", "name": "Minnessten", "lat": 60.71701100000000, "lon": 17.33792300000000},{"id": "5c48f5a6d3f247d6bc0171412da5dc15.16", "url": "http://lh3.googleusercontent.com/mrKS9v_RCiO5UQAEW7NXhul4ffgBPyjduS5oRxXwHudg4F_ksbXbolcIj898behzrYvp27C04UvY1yGUKfV_lOPH-2M", "name": "Vårlängtan", "lat": 60.67303700000000, "lon": 17.13560600000000},{"id": "5d23f107790e4084adeff193ca063bee.16", "url": "http://lh3.googleusercontent.com/gZsvUtz4Gt2VWkA6xyIk0MGZSms1eJMfPqDko8LUj1rGj-cz6Rswo9yQLxTxK2xD35PaWkLd-xPChLfCBGu8_NAzCA", "name": "Sköldpaddor", "lat": 60.66070700000000, "lon": 17.17929500000000},{"id": "5d3fbfa934d141789810e96f277e100c.16", "url": "http://lh3.googleusercontent.com/l47qmyZuyerRA_8RcnS2t5dIh30mTfSMefeW2VBI2Gd41igW9rJheED2wnBQatTaZlsDt0l5weeSRjy4TKD_bSIPfuA", "name": "Sommar - Nils Sjögren", "lat": 60.67481700000000, "lon": 17.12878200000000},{"id": "5e1521671f174a29b9d5cc14b338f087.16", "url": "http://lh3.googleusercontent.com/3o57F_G1hzHDWH7iqCjZV1FJ0i1oihOBeuic7pULdau0EVmoESmb75agRQtalCEk2o_0-Uifa-zo9rkuz_6_sXvlWBw", "name": "Järvstastenen", "lat": 60.64971700000000, "lon": 17.18403100000000},{"id": "5e4e22ac65d74bba86f5a94f38d36c96.16", "url": "http://lh3.googleusercontent.com/rvQmxJmY43lksyQvANsyNqkl8YcXgQFfGUrh9V57Z3MufuYPlOA2Keh2oGNE1rlo3X1cMyw6FGX_RlIOuXZb6m7WEhx9", "name": "Fjärran Höjder", "lat": 60.66662700000000, "lon": 17.13568100000000},{"id": "5fed681ccc1d404a873a18907708da3a.16", "url": "http://lh3.googleusercontent.com/OvFtfe3pQMDIs9V7rsP3eixLCLKUI_I1nWpqXlTautPmH8Q40iBsv6xQ-b7xEFSLVvuNQtxLgdXpsTyNY60E0XSfaQ", "name": "Löparen", "lat": 60.67237400000000, "lon": 17.12790500000000},{"id": "6041ca7d71834b78bb9331af82ff3340.16", "url": "http://lh3.googleusercontent.com/5QfcibiCy0WpIu1hZ0ig9FzFHYnsD_fKjpq103_Wa5PDl77VIGidblv7q2BJZoi9n0uBVEd8TRVn5nj4aMbYQ6nPgw", "name": "Durofabriken", "lat": 60.66919100000000, "lon": 17.06943600000000},{"id": "60976d0031c848cab91c166ef48f97c3.16", "url": "http://lh3.googleusercontent.com/KDkYhY-uU9NUhZBCjKW7m8Xy8_fbpq9qagRQ0XuHeihXZK-shOXoKpYX8edjMdx6rvdbK8o1DDpjwwnnWOL_MHUrcTco", "name": "Gävle padelhall", "lat": 60.66690800000000, "lon": 17.17244300000000},{"id": "61f25937723048d19414f9431692a8d6.16", "url": "http://lh3.googleusercontent.com/8y2ucLh85duNVOlp7UAwhDfK1AFjg6z6U-QNh-YG9FvRpDT02GVGuAa_qTnH8_GmqHHwc2MMqnoZQPLrSXq2lmgtmAAl", "name": "Nynäs och Nynäs Herrgård", "lat": 60.68074400000000, "lon": 17.13517100000000},{"id": "6279cb5b84bd4ac08248d606adc69be4.12", "url": "http://lh3.googleusercontent.com/h5tHvPTxXRyMHeeexHLrei_am8jbXShYg8KEaCBhnEy38hlkVy7g5lUBYybevnH5QebmQPmoa9xz7-Bfo8i8BYicUlo", "name": "Flicka med boll — Ansgar Almqu", "lat": 60.67332600000000, "lon": 17.16165300000000},{"id": "64b79677d3db4b3e44ebd2a55e734a73", "url": "http://lh3.googleusercontent.com/R-nAIIj2MTyblLEeu4Sd4yex4JtL0fBtsRSPbuRhf55Z_n7MUnPtgXnSBzZJsKLUeiay0wT6ur25DNAMfCkZp5oXycWS-Y6sAYlMIQ", "name": "Circle K", "lat": 60.68918096000000, "lon": 17.12674677000000},{"id": "64b922fb96044c868deb7dc997f7f439.16", "url": "http://lh3.googleusercontent.com/Ls__zSK5y71QoPjPkgLENTKgCO09rPgsvVxbOuR4xBfTVC2Ar4L_Q0k9tDlXWKuc7C3-16TpKFfK1tmWEBofm_Ed1hyp", "name": "1 Mil Milsten", "lat": 60.64342300000000, "lon": 16.99987500000000},{"id": "64bc22bd458d4938b26e59fe5700ea5a.16", "url": "http://lh3.googleusercontent.com/_O07GTxHIxqmtXTgjuHe3sKg5E5IHyfD3eOC7F-AgyyfCY-PhhbwSqDQfgMzFk16JUCo8iwlFtNOOfkeuNURJe_00cP4", "name": "Boulebanor", "lat": 60.64389500000000, "lon": 17.00923400000000},{"id": "655da324434b455495a524318641adb7.16", "url": "http://lh3.googleusercontent.com/E0J5P7s53A7KC2wyiBcrAQzNpg9SM2MV5EcE6jrBzhRXMyw0X_Z88LJauukegwcPiuuySmjp9f0OJzE4KMUahbG45zUe", "name": "Gefle Koloniträdgårdar - Norra Porten", "lat": 60.66545600000000, "lon": 17.16307200000000},{"id": "656cc055d3164f5eaf2091521a4e52af.16", "url": "http://lh3.googleusercontent.com/FfaiwLG4Quoiqq9GLfejOJzGQmgZTUA5MUFWcHCJRtxhxlB5TXqlBazSniwoDjrf_VTHLQ75Occ63smUnJfDSoedg6VM", "name": "Fabian månssons vägs grillplats", "lat": 60.67176400000000, "lon": 17.06861500000000},{"id": "6778b24c727444de8061ab4f829868b4.16", "url": "http://lh3.googleusercontent.com/-jaz_ael-u_A2bwvoDsmqY8je16octBDE9WFUKUmaK8TO-IczUoNLKcmT-OUxNG2UvJcMrtAQpXsBRSn7a7ub8dzCsE", "name": "Krusenstjernska Huset", "lat": 60.67490900000000, "lon": 17.13147700000000},{"id": "688b9d4adcd6460a886e3597fa7019a4.16", "url": "http://lh3.googleusercontent.com/2AXXBi1l3fL1r1VRfDjVVi-4W0AW-LO8XMHWokeKzWP61fJszW2qJmoBlaSxsp_fA1N4xraC1CgKauYjKAdxz2PzE2Q", "name": "Döskallegrottan", "lat": 60.65552300000000, "lon": 17.33837100000000},{"id": "69d7869a812f455bac974849c386bbb0.16", "url": "http://lh3.googleusercontent.com/hHjTsH0dudDuJOsVFeuzLK5i5ZD0AnAo8XMaL9rdnP6tNm5UB2jaeul75_2aaYQjN4RHGzwyW6dqFYAguwRWeEe3Mqo", "name": "Turbinhjul", "lat": 60.67228800000000, "lon": 17.13509400000000},{"id": "6a7b15f1f4874b4385c2287e5b08d257.16", "url": "http://lh3.googleusercontent.com/qh02HMPQ3WjgIYSU_447lygDhc-Yx1JWiJZTbxh5ekJ2qaAbmH3mEj8KHocH2TVlqXLYlfhLcgmr64PBjn4mowSy7q1W", "name": "Järvstabyn fotboll", "lat": 60.65036400000000, "lon": 17.19230600000000},{"id": "6b414de374eb4e93b68da9a3fe4b5122.16", "url": "http://lh3.googleusercontent.com/ED9Yi4T2I114CbQU2p0GqMG38Wfpx7vxnM1GzstoTDXPdap-jUFeWOB6BKWpzkT6z19ZiLT6XOND2TUcqI59F59N9g", "name": "Forsbacka Vattentorn", "lat": 60.61650200000000, "lon": 16.89566100000000},{"id": "6b61f3b09f94492b9e3e49a019442cdd.16", "url": "http://lh3.googleusercontent.com/ng2buL28-znRIpvXZaqQ5OyK9oZzQxCSkW3T63JYw8G6SfjNtdxeUDEzCDJYsHMzxnArgPBo0NBfNK3FijZ-x7Ets5dJ", "name": "Picknickplats med grill", "lat": 60.65235600000000, "lon": 17.16928000000000},{"id": "6c25c9b6adc842b285d5578c1bb788d7.16", "url": "http://lh3.googleusercontent.com/VQlo8R5fgQ2A8LWHeyQDYW16-Mes9XwMQNY6ygqFaMUuhtpH0FgUPccN-SMiFzAy4iCta3T91P_6gf5nRywgjzXRvwYGLI1VJW80pTva", "name": "Tussilagoparkens lekplats", "lat": 60.70040900000000, "lon": 17.09847700000000},{"id": "6e4a18a2f4dc469f83ee338c6f47fbf5.16", "url": "http://lh3.googleusercontent.com/4TfaDruFibqPHjKON7pagHXsISO0j3uf1hvgpD3E8B9uW4FGb46SdeQpkVoAU1QIoUsNWbW4pHCn_mEMa4xhqucXVDU", "name": "Slottet", "lat": 60.66245100000000, "lon": 17.13516600000000},{"id": "6ee6a4af586e4311ac6c9bb48101fe98.16", "url": "http://lh3.googleusercontent.com/-XDc5zRSrCkU40cJ7hlgauvIvC-Zhi2Y9PhCqq-yynP-3T7QdXgRr157zoxVGVSD-_WrZIyKgIp8XnpymItXutRmA1w", "name": "Växtsamhälle Från Järnåldern", "lat": 60.63948500000000, "lon": 17.29676800000000},{"id": "6f03127da2a94846a276f62e0b3f4ff9.16", "url": "http://lh3.googleusercontent.com/s9ouqE4rIj-z2ZhxZAiaeJRiwSdPZnlXAkRHRmed72KDCJjKHYQBAq4Ninefq-9nJyY6-VjxWfIbJXB3W52UTGfOdV65", "name": "Vikingavägens lekplats", "lat": 60.66167700000000, "lon": 17.22056300000000},{"id": "6f1d8ceae42b4781abbcd0ed6f57eef2.16", "url": "http://lh3.googleusercontent.com/YM5xaLKX55rq2ydmEaRIcmp91-XS0LyTAlonfl85ZXnkjXpxsWniozF2gUcP25nLlR25lngchYbVcs3mL7FyMyCzB8E", "name": "Forsbacka Kyrka", "lat": 60.61508500000000, "lon": 16.89840800000000},{"id": "6ff26c3a9bdb47f08f53d23262ac09df.16", "url": "http://lh3.googleusercontent.com/30EYhI4SWru_eDRHTPQk3FSHxUG_4IwOEK6COSTed4FlbDlRH5Quhb9x8hLxuL8tCyg0S7EfzLpIN86-vp0osJiGvw", "name": "Stenbocken", "lat": 60.67148200000000, "lon": 17.17759200000000},{"id": "704a3f22fd724bebbae15585c98e2ab6.12", "url": "http://lh3.googleusercontent.com/GC5pfeUc0qIxddWYyP8G1rdvxZQ_HXJVfsWuOCRlwSL6HSRYIGGlCJ7gabkcWJN5nLrfBNsEaVCc9uJrOS_P517fnYY", "name": "Nymf — Aristide Maillol", "lat": 60.67902200000000, "lon": 17.22477200000000},{"id": "72008a53aa594e69baec002e13f7a5b8.16", "url": "http://lh3.googleusercontent.com/UreaMyPCEl65KLRTk50uRSoLTfsqxiMsrPYqkoeoza6a50NLBNQytHDtrVoom_RrvnGS01oRlpo-AEcLkRHQPiZom-E", "name": "Valbo Vattentorn", "lat": 60.63650900000000, "lon": 16.98866500000000},{"id": "72a60dccf2f04515bba49e324619e67b.16", "url": "http://lh3.googleusercontent.com/3mIJFHHoV_VHEU1EmHyQzX7wfq4HmTHTQTIll16uapYc-Nax0fR1R7ed56oYatG4bUykgtdJPBktyIHGuj1fEw5DaA", "name": "Åsgårdsvägens Lekplats", "lat": 60.64005400000000, "lon": 16.99772300000000},{"id": "72b4f55ebccb4ae484ca8da3c7b0f3a1.16", "url": "http://lh3.googleusercontent.com/n6DpG9iNNuJhJScPy7PtOpNtDVVJZamS33fH77PcvVg4xIvcTwK1EbcGOB6HhPee0QLRHoh_z3_yIUjJ1HXCRiW0rso", "name": "Häklinge 1858", "lat": 60.66334000000000, "lon": 17.06540900000000},{"id": "72ec7cf4c9e74eb3a06f5f2e8099438c.16", "url": "http://lh3.googleusercontent.com/MnKVh7suPE244ANNWNyQbLn31d-xdMywbG3jq9ZM_mr4qluDLrXLn4yhrxCnliTL8icjm3wlNLReItdT_5RH4RZahK9H", "name": "Naturreservat Testeboån", "lat": 60.68851000000000, "lon": 17.15870400000000},{"id": "74d57b20fc1b4680ae22a8412b89f2fc.12", "url": "http://lh3.googleusercontent.com/0NL-sfqzAPEoWtu5maVY5jYDxgWKmznZ0Pn_GPJp_H72ZSMFloYNIUnnyXW28ami74uguH9lkitL67CHsmRfNpZoqHx9", "name": "Hundar på promenad", "lat": 60.67929200000000, "lon": 17.15276400000000},{"id": "766e0b0482a745aa935fe938ba974171.12", "url": "http://lh3.googleusercontent.com/lcfcOCYSjQLOIizVdVAdgYODt9NylPZyKafBnRl6X8pS0_4AMqqYuKPjnnmYJPAEdwKjdfEYn-PI_7zse5WKe-ypiE0", "name": "Hund och katt — Pär Lindblad", "lat": 60.69414300000000, "lon": 17.11923600000000},{"id": "771126b62daa49c5ab8148f03cfa1aea.16", "url": "http://lh3.googleusercontent.com/JcqSNJjexgS3xTD7ynZBUSUYNOJf3FDfU50Mxn46-6bhfuOJo9PE6zOGN7AIBrs3-2qURR0A5WScMulWYoBYCHE_kiE", "name": "Gränssten Uppland", "lat": 60.64945400000000, "lon": 17.37320600000000},{"id": "7827bc4d45354159ae919cbb32faed9c.16", "url": "http://lh3.googleusercontent.com/_jRm92RkwiltBojcgMW6kCTp0ZtmStrV9bSFXQpLhaXqvOy0XCKCowSYG9jZpaIrLYJQYZaT_YA9Q0vlfPPLsUVAEw", "name": "Alborgen", "lat": 60.65086800000000, "lon": 17.05452200000000},{"id": "783abf55401544c280113763be415962.16", "url": "http://lh3.googleusercontent.com/xSvO2Ky5-egGxungd1iHtSQ_qGt0bV_5FsCdsdYLt-4w_O-2ROWPrSmXmkEBvUqazaBB7q1tBZcFZ8Oxmyzb", "name": "Fotbollsplanen vid Älvdansparken", "lat": 60.65910800000000, "lon": 17.12912700000000},{"id": "786b09114b4c3fb49b6984c857489fd9.16", "url": "http://lh3.googleusercontent.com/pSxBFTRHddsoWiByHmH9yG2y5wwO30aCTmS6xj7klYiKHt_168t5qlGMlYVPPOIphq3-rW8MRejY8HC_7MuxoSEqvDzEcHD-8jXEf80", "name": "Anslagstavla Ringvägen", "lat": 60.62001800000000, "lon": 16.88484500000000},{"id": "7a98efc766bb4c2a877502978f72cbd8.16", "url": "http://lh3.googleusercontent.com/tXznvzsJD96ZHDa06mWAfq38iii0CK781G4TXvhxljfClcdTIqp1LfsKbZppO9ZoRcyd1oJBXYmldYXILKzgyKOleUQ", "name": "Uppståndelsens Kapell", "lat": 60.67289700000000, "lon": 17.09570800000000},{"id": "7c3d53a342ed49f69ab417bc4d6456b6.16", "url": "http://lh3.googleusercontent.com/4CzCj54gwywhP0Pn-neErwl7U6vadIa8kwisGPhwATt4fSh_eATCfuVQ2pbythHc3pcS8UbxeEojfcsIJ-AV412ZMG4", "name": "Skogsljus Krematorium Kapell", "lat": 60.67314000000000, "lon": 17.09524700000000},{"id": "7c70e0c567714c09a8f66fff6b6f0075.16", "url": "http://lh3.googleusercontent.com/f7sLokXVTt5eoR3I3zJDK9GKdTk8oXmoN_pPZiEeYzoJChG928aXbZRClhy2D0ynRgTzQpuhsqvKsFG-kW15U4Ji_KI", "name": "Industriminne", "lat": 60.61249500000000, "lon": 16.90581900000000},{"id": "7cdd80ae9b194fc2aeac563c7d2ac090.11", "url": "http://lh3.googleusercontent.com/SBPILaPQxDgh67rVek_KaJ_GvGd1W4nAokLWOtmvQ5XQdbdGFQnNEKUKPQ3UH_bjkZLQ9iS8obsqLe3wTZDIUkdH", "name": "Talaren Då och Nu", "lat": 60.67168900000000, "lon": 17.16740000000000},{"id": "7d76f333cc1541468cf8ae311cb96dbf.16", "url": "http://lh3.googleusercontent.com/Vzlt02v0n-Mb_jugrHs0imqwrH8dWYiAONhxrzafei6y5Nr3UG3QQ-2XogK8gg6Yy-d1TinW_Yk5VSOP3KoqXvt-TQ", "name": "Basketplan vid Murmästargatan", "lat": 60.65711900000000, "lon": 17.11771100000000},{"id": "7d86be9d62af43269ac03c173000792b.16", "url": "http://lh3.googleusercontent.com/wrdklZ1bIj2Yyi2rCPK0tTrSMW-xSQqRX9TPbe_4ssfaLok9qFDdLLJc15MvG4G1_QVsCzxPquPBTBIscPx6_IAO6HQ", "name": "Brynäsgatans streetplan", "lat": 60.67143700000000, "lon": 17.18171100000000},{"id": "7dc649eba179463a940c043004bae298.16", "url": "http://lh3.googleusercontent.com/YH4Kq2aOiVx6U-QiaX80kL5WzeC9uJTpxizOcTWA5aTc3zuttZo45X4u_66bOFYeFlU6iR0VJxrvPP8hrlCVIVrPUjjx", "name": "Jesu Kristi Kyrka", "lat": 60.66033700000000, "lon": 17.16239300000000},{"id": "7ed90faa32b64e8b81beef0482d881d0.16", "url": "http://lh3.googleusercontent.com/nBN2hZEmzt-OaAxT60FTj0xgL7iVkh7LqMcJk8ox9pSTyoOyI51XUdYdALrJ_2H7ItTPxRkwAXZF2YuWOZoBCfjHGg", "name": "Hemlingbyvägens Lekplats", "lat": 60.65254200000000, "lon": 17.16283900000000},{"id": "7ef286ffefe7499c910634151ae27a8b.16", "url": "http://lh3.googleusercontent.com/6AsfnyK5im0JWqx5PbzQXplzheHnX2tJRArsn9AxSPtJ-Qr13Iydda0SwU9BQIrYXpIEEpyMpU_DOHFP0OvExKY2jEJx", "name": "Old Cemetery Building", "lat": 60.67371500000000, "lon": 17.11864800000000},{"id": "816deceaf334492ca2b3d0bd561ce7f4.16", "url": "http://lh3.googleusercontent.com/6dw81g5r74fEhndz3yYTyOKjtxd0hJdZKesU2AjQIXVKR07zKfrM6mIO00XzcBtcfx_GDUMOOquo3V8MK0Mg4rRUSnlLhMbHqAzyut_z", "name": "Ulvsäters Grusplan", "lat": 60.69596300000000, "lon": 17.11104400000000},{"id": "816f4fbc4130480586f0b0e7676179fa.16", "url": "http://lh3.googleusercontent.com/o7MC28SHD6cflZqRT25euq2Agk9HBuYBBzgtWoe-OQezOXnHAhl7YAqj9u9FQnsELy7IJZ_1I83_nuEZso8wmhqKOlc", "name": "Lillsjöns Naturområde", "lat": 60.67125700000000, "lon": 17.25886500000000},{"id": "8256420fe8f2406eac1ee0ab0992d09a.11", "url": "http://lh3.googleusercontent.com/XEoRHcIwfhIyy3f4zKSjLv23mIajze-Y3HLo31GrWfTnvxs8XVyCOLHxW5YFLEMZpPyIbVmAbHZCtypTzm8PPGIaR2w", "name": "Gävle Mural", "lat": 60.66990000000000, "lon": 17.14617800000000},{"id": "8a297e5aaa4b46f89f676a18dcc365d8.16", "url": "http://lh3.googleusercontent.com/Dt2OlDAn0DbbLqgHrg4EknfN5pwHziOvyc02QZvlAs56_6toK1QF-XxS4RfhBl5oM-0HGRlyeT--U9iJWUchh61lGE8", "name": "Fontänen på Skogskyrkogården", "lat": 60.67454000000000, "lon": 17.10219600000000},{"id": "8c69dbc950b041c39b281d4e73acf0a7.12", "url": "http://lh3.googleusercontent.com/AW9d90TP2yGc3VgshnRKSLX_5Y_m5GfwG2KGkUZihHIBEt1p9VxjxOkE46j9zN9LApY5fUUQXcAOlSO9iLVPwX9sxss", "name": "Jaktflickan — Christian Eriksson", "lat": 60.68516600000000, "lon": 17.23810900000000},{"id": "8ce30c4418694094ab361b5482793f46.16", "url": "http://lh3.googleusercontent.com/6SPbgFfjdososhUMu9RAW5LWe2Jpljnq8sq8WGzshsSnxwuJRtxee-myOAFBEpW0URUSGbgTidNppIgskcaZUu_wTIM", "name": "Kuppbolsvägens Lekplats", "lat": 60.67474600000000, "lon": 17.21084100000000},{"id": "8d5de26650354a3092eda5102d7cb858.16", "url": "http://lh3.googleusercontent.com/dMyJteX51YDsoc2_Ks9LjHX9OPySe23AJ0oLPdlQ0FLXYTMj2vAfRH0OadPZMRAnWYiIP2UtYHa1cq-JyYREbc3nf2c", "name": "Engeltofta", "lat": 60.70500000000000, "lon": 17.23998500000000},{"id": "8e73611830e23423b6f471e95a0e2923.16", "url": "http://lh3.googleusercontent.com/qon4m3G72tlYgLR2trRIOPhHN3RQEEpACzIRWxzVJTitnyk_RQB2BnNs0208Gy5xOZmllR2bOGw1SH_lT-VGT4Hp09TbcHcke0fujqKc", "name": "Hedesunda Idrottsplats", "lat": 60.39609700000000, "lon": 16.98463500000000},{"id": "8eaa83bb4abb4560934ca63aa39d906a.16", "url": "http://lh3.googleusercontent.com/zgBj1bXLQRe8P_OtVG978qwIIrVW7M0rTvtHQUETq0VhU1w80eGDo4NCAjcsRb6nRGM4fED_xVDFB1C3kl4BBwwtTQ", "name": "Oxel", "lat": 60.67855700000000, "lon": 17.11056100000000},{"id": "9187a0a5f8d74898a950ca03b4594d50.16", "url": "http://lh3.googleusercontent.com/WJHLHkj96_Ep7eVfUD_MtJEGIaLSePZGB5iDqIw7B9nsaOXJ_GGQ-DPiB5Yi52XO2kIW_3w4ZczTcnAi-hkIfEGYBvY", "name": "Strandgatans Nya Lekplats", "lat": 60.61475600000000, "lon": 16.88979200000000},{"id": "91c8514a8206444daa3fa19384749f78.16", "url": "http://lh3.googleusercontent.com/v5VdNVnHZB0QCy61khY1fAziCAQj5QZ9eUEK9dc5Eg9xE_ggUBZlXYrqEaYyfG1M8MVFHT2i7J5Xl53mpHAvWue0Lu9k", "name": "Världens Största Änglaspel", "lat": 60.64846100000000, "lon": 17.01547900000000},{"id": "91e9f37d8d5240b399761f0ae2792f50.16", "url": "http://lh3.googleusercontent.com/O025kr5pgmeUKoVlg0w28i7EQ7Z0AHdjnMPuuHXXmDilrGhdzEJZ1E_fzj2iuU7q0bXxrsz_E2yyibVtaplATJAcUlmx", "name": "Rastplats Valls Hage", "lat": 60.67877900000000, "lon": 17.11248300000000},{"id": "927ada2c411d4d90b3bae8767ee0956b.16", "url": "http://lh3.googleusercontent.com/TxWXSQ4Car5av5wJzOuQ0JNcxEsL_48SXiY9ikERyuLH5PW4k18hCypC12Dr2t3pyz_xlC3Q7V47naM-O8pQ9Fud11o", "name": "Lilla Lekparken I Fridhem", "lat": 60.66008300000000, "lon": 17.11884800000000},{"id": "92ddaa55bbbc4fc6b5448d7fbe1c6750.16", "url": "http://lh3.googleusercontent.com/Qy3rzHR0FCa5bSnOie2nR8i7JN-vI5kEb6wFzQTYCCVmg4n1MAvzUgqx3T80UHNj8r5LzmOtHVkNC7x1t3OXyltYJ6g", "name": "Mackmyra Lusthus", "lat": 60.63788100000000, "lon": 16.96706300000000},{"id": "9342eb24b4724f38b80f691f9955b8a4.16", "url": "http://lh3.googleusercontent.com/Hhno0o_TpOia9nOnbDjBhA-uUCZU_K7apIpFysstthTj2BuPvEUBhkKKRD2tQ2b14jRYqHh8_jK95cTax-mEjDbXL6E", "name": "Gästrikeledens Utegym", "lat": 60.63397900000000, "lon": 17.00708500000000},{"id": "943446e092fb4358bbbca78675f9e547.16", "url": "http://lh3.googleusercontent.com/337o8Qm_GX4IBJCSlSSph-Cx-Mf5HHCfI-cYQYlH7cJnQoJbMo6Lr3Ffb1e7__9tukvITMxQhnUao6TMIWRJZ2o7tWg", "name": "Vallonparken", "lat": 60.66252100000000, "lon": 17.14962500000000},{"id": "950cf12debf34c8094b2ae313c2df04d.16", "url": "http://lh3.googleusercontent.com/qLF344c7Zmxd8d8s5ztCNYUoUS6CfZ3fR2qIReXP-MP9jemBaBYrtVI1YrbtYTVCPp7DxnE5E2CQ0w37mHuq2dOSAFo", "name": "Norra Nyvallsparken", "lat": 60.68134700000000, "lon": 17.25153800000000},{"id": "9586f2f0e2734892bf36c381a8f84b7e.16", "url": "http://lh3.googleusercontent.com/VRy70yaBML9HpTCAUHs1tLFDoRYResgOuLKh7v-Q3Nxmrv_NcB87wx_2ri7vvmdJ9z7a2GnAwO6oQ_5JbjGh66v_IwnRmjCTWor1bx0J", "name": "Målgång Skidstavallen", "lat": 60.70854900000000, "lon": 17.18489900000000},{"id": "95bfb3fe07014c8d80860542ee21e5ef.16", "url": "http://lh3.googleusercontent.com/jb4EDNOehQ2T6BODMovQ7ngB5BG6Pqyp4BBftNiHNCNDLRO2LnYgFH2HI0D_fn9BvClOr7XpXr7-nY1z2_GScN8Htg", "name": "Plan för Arboretum Valls Hage", "lat": 60.67717500000000, "lon": 17.10980700000000},{"id": "973fb915c21d40f69743cb409cc1d3ed.16", "url": "http://lh3.googleusercontent.com/8zYZd16IeP7abVwLviKgAnipolCeIMUQnhXPcL-Y1yyyUu7CYL1SsrWbL7dweJMcUxoyTeq2Bc7I7mIZPb54JCxNAQ", "name": "Kasthallen", "lat": 60.68478800000000, "lon": 17.24534700000000},{"id": "97df358ad72d48a887c2b9d1f03eb87c.16", "url": "http://lh3.googleusercontent.com/olntHyx0HO3zggsGK-Vt1JEE0lplnBIIqrKO00-j82IPfu26l66-yDjdE6iIWEzEPRWufOf-bfSVFJQ3uvCQZlYDR0bK", "name": "Norra Kuppbolsvägens Lekplats", "lat": 60.67570100000000, "lon": 17.21200800000000},{"id": "985f4f6e5aa34e1fbe93dfcce517c945.16", "url": "http://lh3.googleusercontent.com/lK9oZH58ONalu7rdfaSKyN6lTtLDawBtb2yl-YF8HqShkWpSmhrmlY8T2LXe4L-p6XpJoce5LWj0nRftcmcV7TSzO-bQ", "name": "Skolstigen", "lat": 60.69289300000000, "lon": 17.09137800000000},{"id": "98af7fb5b15f472c9fbc1d57a4d5c098.16", "url": "http://lh3.googleusercontent.com/8VxRwk70D4h39_BZxPLsP1JAwdZYidbl28kqySNo068fVVck_lCMgiK7p3Vc79hIodk6kURFHTiyZzZ16xuW4BCh-5oggp0rI9cRtb8", "name": "Utegym Hemlingbyspåren", "lat": 60.64863700000000, "lon": 17.18031400000000},{"id": "98c9d7b81be24898875619411051e4bf.16", "url": "http://lh3.googleusercontent.com/P64F5uzJM1TsqxaP06GAhUhoHfMONimDM-NUdr407DONw9aGmXBh7Y0s_W_FEnFR2acLGyYdAg-S_GlAcB9pbmIT3JqG", "name": "Terminal Granudden", "lat": 60.68697900000000, "lon": 17.23272200000000},{"id": "98cd014304974fc6b975b7cdac843cd5.16", "url": "http://lh3.googleusercontent.com/QJB8SEV3R8b2PiwiOyc8xpmFMFmluu-g-0xuTGXK0vH41Ia9YtptxFnBHXC8n4oZguUowR1oFJF2cSt1H4LPdQl17OM", "name": "Limö Café", "lat": 60.71093600000000, "lon": 17.33569400000000},{"id": "99559c1c189644f7b326fe3635743f5b.16", "url": "http://lh3.googleusercontent.com/3_IINEVzDZlqnIhc09ayyQCJTF6qxkJpkZRJrJUlBo3Pt1o8HYLobQiJeSiGgvY_9Q-ImL7KWnPy-OPPQsYyJIZjZjg", "name": "Testebovallen", "lat": 60.70768900000000, "lon": 17.16449800000000},{"id": "9a1cf1b0a4e04428870a69c5cff144b2.16", "url": "http://lh3.googleusercontent.com/Le0utfnA5x2Y8aMDcGG-my4Z2T0CrDR2BCu6EDk6zML9-YDLJqnAdyls1n_YsPhh6Owvzk78QQUaHmqln2VdCJWJowI", "name": "Pukslagarvägens gunglåda", "lat": 60.66147700000000, "lon": 17.23959000000000},{"id": "9a83ee1a89554c63981a06226d6357fd.16", "url": "http://lh3.googleusercontent.com/Stpb31QwmTvSfJ-qNw0m626OzcvKU8tjF08SF7F6sjN-ap6dz6es30djYauzxyi_OmZU2WZ62BQVf-IbuSLVv-ug6Dpz", "name": "Kittelvägens Lekplats", "lat": 60.66416100000000, "lon": 17.21121900000000},{"id": "9ad06f1ddc79498bb6847672caa9d371.16", "url": "http://lh3.googleusercontent.com/YmFLqusjJqmntp2cMrPC8FowtwVmRNyDioqeRFdq2-InvDFO7hvtAMfdi7fbEJ3TMwXs9TKOa0cv3ynUqpGhRUJFJuA", "name": "'Segling'", "lat": 60.70435600000000, "lon": 17.24094400000000},{"id": "9c5048ec82a860c93cc71f1c504a4916", "url": "http://lh3.googleusercontent.com/R-nAIIj2MTyblLEeu4Sd4yex4JtL0fBtsRSPbuRhf55Z_n7MUnPtgXnSBzZJsKLUeiay0wT6ur25DNAMfCkZp5oXycWS-Y6sAYlMIQ", "name": "Circle K", "lat": 60.65840764000000, "lon": 17.16556907000000},{"id": "9e37d1e80ef84922a3fa9c9b558dcad1.16", "url": "http://lh3.googleusercontent.com/LF5XzcrpcB9aIvppXnZCy-pVE3cPN02ran8uNq3t-o9Tm9yOEA0QEMCbmRw5gCf41AaxxzFZv8Uljp8YPzup6QSTbw", "name": "Gefle Koloniträdgårdar, Södra Porten", "lat": 60.66159500000000, "lon": 17.16844700000000},{"id": "9e503c5668304003a850c08b3a39fb3a.12", "url": "http://lh3.googleusercontent.com/17PROasN2DztyuNNxzIwIu_wgloYuhgjDf8XWxwhrcIYq30xsEfFey4C5WLkKy89TaT1m__1om1LPIQXWaH_V9yRRA", "name": "Kungen och Drottningen – Harry", "lat": 60.69624800000000, "lon": 17.11964400000000},{"id": "9eeb51c4ce4143648a7ab6caced272a6.16", "url": "http://lh3.googleusercontent.com/yMrXJcCMzVllofrVNfbNeNjbapt5toW2coZt9Jl6A1AxfELuytdnyWy4yarHlEHx7VlZd-H2DWQLEr_BHELbHBmVVQ", "name": "Grillplats Hemlingby", "lat": 60.64319600000000, "lon": 17.15233500000000},{"id": "9fa781f705684db49335a358cf3e2d5f.16", "url": "http://lh3.googleusercontent.com/MCfHgjJ4Rerscym0M0tgX-bhzjOjZEm0BnYSThdIzwqXiZQUNIK2OjnoDyX3nf5uBKj1tmFGZPbSzc4THZ6boUTDhy0", "name": "Valbo Centrum Mötesplats", "lat": 60.64317900000000, "lon": 17.01304800000000},{"id": "a0102914c63540a599994c82e8babd26.16", "url": "http://lh3.googleusercontent.com/fTDTpgbGUwGQ7oHqlz3WsWNQtu6cTH1Ig1AG6Uwc1MhpgSW62P1ZnqlaA1IyZGyu0Ls5GN2OsP2-o0TF_h3mkLgbAw", "name": "Rönn", "lat": 60.67858400000000, "lon": 17.11169600000000},{"id": "a0c60fee3973477493efc9f5a2acc33e.16", "url": "http://lh3.googleusercontent.com/wa3zIPcQ7Z0ZjohGRUoWfax_Tjj1PT0YrCwX8YDHfMZlC7R5f3E4k1Mh80BGvMl8TfiQCc0mgEOvfKGIgHkTnbbAzcE", "name": "Forsbacka Boll Och Lekplats", "lat": 60.61644600000000, "lon": 16.89269200000000},{"id": "a12f8dd4e0834b4e930fb51eabb3ff8f.16", "url": "http://lh3.googleusercontent.com/LHb7m1Hsv-EHG__gBoafuEecUA3nJzGwGi-bA1h4iJDmiaGpc2Hq43jTgzzpwURKBLrzS7aRB-53TGWV7GLdhE_cpLM", "name": "Fältspatvägens Lekplats", "lat": 60.68710500000000, "lon": 17.11364000000000},{"id": "a4a726cb49324dde87238deea8d25584.16", "url": "http://lh3.googleusercontent.com/BKZQfyHfGi9FqPNdnPGO0b0hC6KZnWPnPsx5pXEvUgKm1-9D_MRQXrHMsHQMA1Y7ZFw9wn-UllvxNXJPHevkr49w0_dCKs_BdN6mqyE", "name": "Lekplats Vinbärsvägen", "lat": 60.69954600000000, "lon": 17.08825800000000},{"id": "a67bebc53a8949f0a866968896b5af26.16", "url": "http://lh3.googleusercontent.com/gdl2sFkZlWw3J61OMC1ggHJxVzZX5asOIM9vfPHa00biu8yynjMh_9RMu7H9BwIo_HwjkPIbpeOl_pELF06rx_TVT6Q", "name": "Bomhus Kyrka", "lat": 60.68212900000000, "lon": 17.23012200000000},{"id": "a799f82a977441879e82963221a3e011.16", "url": "http://lh3.googleusercontent.com/ZJQTmk9hzvhP4Y7Xsoa09FZH2H2J4Yl4ddPPO-LTFtrdra8Uf2A9mcGKI8ApfsR15-ZqiDTQr-g3XgbZtQCig5mI2ipe", "name": "ABC-staden Sätra", "lat": 60.69244200000000, "lon": 17.11670500000000},{"id": "a86cdc2869d54c57ade028df67b12617.16", "url": "http://lh3.googleusercontent.com/5VrzH9SrCZq8guV4oxR6wRxW3ly9Qfpnfe81edPak3aKYmAgNr7TCqPTDStBGOE07w_NGzt2VehDITauZsCzNTUMErs", "name": "Hedvigslundskyrkan", "lat": 60.66495000000000, "lon": 17.12328000000000},{"id": "aa7a58fa86be431691983301351e55f5.16", "url": "http://lh3.googleusercontent.com/5EX3YY27dytdEV9xm3IGkcy4C9GrRkiLVI-QwbrsskbUNPtJB38L-21kbEROJuQOIoWGCGmtSDltYTZm_uM7xRcJt-0", "name": "Valbo Tennishall", "lat": 60.63772200000000, "lon": 17.00939900000000},{"id": "aab55ed11eb34044af38920609a1e39a.16", "url": "http://lh3.googleusercontent.com/olVI3RPlFMq_Iengn8H1exDd2rzMx2kPMgrQqlXgR0dVQuZdI7IsXV_cXNbdWzc9qVS-u-zgm4KQnxK2j9mShXEOoVA", "name": "Tomaskyrkan", "lat": 60.65895800000000, "lon": 17.14585800000000},{"id": "aadb8460f359403984eb6c097318e594.16", "url": "http://lh3.googleusercontent.com/MoCjJBN3FOxp-b8kiLsjgKVcPy_e8ckxazoz5Le5W5CVuC46ravwMbC0OmumBDancYBEBKDQXYIJXbJLoX7ocTAaDeE", "name": "Valbo Centrum", "lat": 60.64386800000000, "lon": 17.01041400000000},{"id": "ac230234867c4e588a30862332dcec36.16", "url": "http://lh3.googleusercontent.com/JDDxTqQvU_wSUX-Ydx4GzCB_S11kfaMqq5v9VE8-Jgq5dydkGKhe0ePelmgSEwAhzF_NwSk5Lyhvz9l89kHjmX744CA", "name": "Paviljongen i Regementsparken", "lat": 60.66935100000000, "lon": 17.11636000000000},{"id": "ac364f2096b044e0920fb182ac126a18.16", "url": "http://lh3.googleusercontent.com/Phiu-Qf55HPvYM1IT5_AW5-JR05b7KESUUsddQrN8HVEQMRW2JJ_eyGQn21XNI5sd9FByhNmbXxzqMCi9XNL-1w-AQ", "name": "Streetart Tunneln Till Öster", "lat": 60.67725300000000, "lon": 17.15058500000000},{"id": "acc0314e677c4fea87c5cb4b5dd8b5ad.16", "url": "http://lh3.googleusercontent.com/Rf4ctg_Hkh7iGAXNRGVGKc9I_6a9H3uuWCm5hnrEar6S9MICrEjkx40PnHi9FPSkK9hQo4lTDce5DjP9A0GXsPInjtU", "name": "Strömsbro Kyrka", "lat": 60.70253300000000, "lon": 17.15840000000000},{"id": "acf8a1d858904fe8b8bdc9a625cfd727.16", "url": "http://lh3.googleusercontent.com/BqCdPyvf1cbdn_LFQX8gwCcXyB482XOhs0yBjzDCmfIT_68CXe3Rgk4AcdeNoPgGvkXRrC0kogyICgxYh6TN5gNd6B4I", "name": "Propellern", "lat": 60.67215900000000, "lon": 17.20329500000000},{"id": "ae63db3ef01642b392ea005b2c4d1967.16", "url": "http://lh3.googleusercontent.com/3x5sYKScqjzkbUIQ1HUbmus_inZfES1uyGiydHY6LwD0YUz7xFc-h2E68q2j-VxTYmWWAhyZBAFNTwBM4iUdw6gouQ", "name": "Sätraledens Rastplats", "lat": 60.69546400000000, "lon": 17.13434100000000},{"id": "ae7ea5af3565400d9e99e324e8d41d9e.16", "url": "http://lh3.googleusercontent.com/gzvm04-TxSocHktlW2SEYoZ04ey7E_67PPlvTQ2kuNdXCw-zRWxpwZn8UI83FHoBfEEm_HpcU8YzbzLs4wT07EKd7g8", "name": "Hedesunda Stationshus", "lat": 60.39445700000000, "lon": 16.99448800000000},{"id": "af8bae80e4704820be9c8124c210aa10.16", "url": "http://lh3.googleusercontent.com/qvjeIZT6EowZHgV8vcC1MBQhk71dwD8LLzIaMImuOBpdqakuYjOuncqLS3hhe2-XciFPSGo9Uf7XZ5VArjqinqUd4w", "name": "Inte Nudda Markbana Brisgatan", "lat": 60.64706500000000, "lon": 17.14214800000000},{"id": "b08cfceac9ff4bfba844ef326f0ddd19.16", "url": "http://lh3.googleusercontent.com/I9lfKtA_1AiBrTUtZD4gsKO7ctcdVZlcfZsxVN74IrWDIn_N8mNphxylOf0ZAZ9qCyccsrTq_-46WPIB5cAvtwryfgw", "name": "Prickig Bock", "lat": 60.68622000000000, "lon": 17.15296600000000},{"id": "b09dca57ac3345f5be0d2f0b766b0fdd.16", "url": "http://lh3.googleusercontent.com/WU7qbESbVQJ2NsWrr3PhHBJn5dXBfssUt-YvXIBQS6Dlh0ZzMnn98eEDvcV5-g_RoHogy81RgN6NxVeiqt26f_8jYQ0", "name": "Jannes Fäbod", "lat": 60.63946400000000, "lon": 17.17553700000000},{"id": "b167a712dc414ca39725a6bd8d52c3c5.16", "url": "http://lh3.googleusercontent.com/2CQA-q2BhcY245GRGJsG3gr-4pxteZ75NFKAp5VfFgBmRVbn0jxQ3wa7oqcl9pHcADnK558P3Pu5cUPqkt-hHoZzx9o", "name": "WK1, Gammal Lyftkran", "lat": 60.66327100000000, "lon": 17.18511200000000},{"id": "b17c5b19416047eebedfe60940001ea7.16", "url": "http://lh3.googleusercontent.com/SX9vkGOc52sF8uZX4VcqWsA0AmEQtYB81YbaBUM1PWR0Zu1lnjTYNTdr1yX9ho0cQVWVv5rTdQKGFZsEOGMxfjQidFzU", "name": "Bomhus Vattentorn", "lat": 60.67267600000000, "lon": 17.21942100000000},{"id": "b2ebeda2401049ac8133e92ed0134265.16", "url": "http://lh3.googleusercontent.com/OrwAlUWOJDUwTdVNtMoLyOYqpfgiEWqLBeHmIKSZkC1WENBXrcffN9TynZJRq65jHPw-moUg_r61QGL3l_Cxr2IK6vs", "name": "Bro Oscars", "lat": 60.70166100000000, "lon": 17.15649300000000},{"id": "b3ac3290f2a63b86a9d530c3d430e056.16", "url": "http://lh3.googleusercontent.com/WaVWh0Pjx_bC86zQZcY3XsGfbOwZnqnPObLS7fn8eA5JxnZhExXrdjG6pxN_KB3-mQSD44XFjKqnXdCvKsElR3Jfp7_TiSMp9Ss5YcqY", "name": "informationskylt Svartstem", "lat": 60.65761600000000, "lon": 17.32532100000000},{"id": "b3ce408e6ca04deca36074d0ac7a62b4.16", "url": "http://lh3.googleusercontent.com/e-uqf1CN3A_Bkg02nFSB7PjoUE9cF4ZN65pX-P3JURPKlXACPwzrKcKJ9JM7KeRX7MVRPUK_92THrndditXwfX8FhQ", "name": "Klockstapel vid Forsbacka Kapell", "lat": 60.61390700000000, "lon": 16.91436900000000},{"id": "b4756a74f3194146bcaa4a978dcd177d.16", "url": "http://lh3.googleusercontent.com/2-uVpvxsn_vUN8sZI6g4wVjCoqy-0A2eR-w9yES5d6Bo1Tl89WUHqwUHPROkuB6FqZuQePLmsGQvZKvE2wmsz927oAs", "name": "Gröna Lekhuset", "lat": 60.69834200000000, "lon": 17.14560200000000},{"id": "b5a804e939ad49008afc2e4c912b64f3.16", "url": "http://lh3.googleusercontent.com/XonEcuDtfT_9029taSZk3eO2A705gIm5lLZ6TYDB4uMDEOAQrjg0epaY0w67NiF9c3Nx0u5SoPNVhCTXgPgX2ZiWMffL", "name": "Sjörapporten", "lat": 60.67747300000000, "lon": 17.16287900000000},{"id": "b6431a5c0ead4b6db2caffc7e99227a6.16", "url": "http://lh3.googleusercontent.com/JHHdzwik1ZqWz5kGnYjbo8Pf6KhEeK2lmuhjDit5l6Q-CvZxinOh1ah8tJ7LftYqTtIRREfh8d_ZHSzKT3COJ4Q8AA", "name": "Naturvårdsområde Stenbäcken", "lat": 60.67196700000000, "lon": 17.08134900000000},{"id": "b82d3379c22f41b6958dada4fe3082ea.16", "url": "http://lh3.googleusercontent.com/jE7yeTsg4bu6HBHCe69qW2YBpJ67id5GQ4Vwm7FXXfm50yj6C9dMnAm9PUt6OOyzw9Wzq2sHCmmjRoX8VDSHg_gZ89w", "name": "Runsten vid Kyrkängarna", "lat": 60.67902600000000, "lon": 17.23306100000000},{"id": "b91ca288404a418ba104b2cea3b766e6.16", "url": "http://lh3.googleusercontent.com/xsJgkTiXhcUQxhe1YVcNHxUHZO_fH33_YiqQkK_U9ZlUDwf6XiRognb5aF7d1plFVinIqeWPuoZBiAjar0n8Cp8N1hw", "name": "Månskensparken", "lat": 60.64660800000000, "lon": 17.13434800000000},{"id": "b96fb6fd53304cf8b881cae920efec39.16", "url": "http://lh3.googleusercontent.com/XfgDsXjwuiNinjwFdlUzUYJhPs-r8oZGycCTKSrUifxVOYUlO4xhW7iMzqpeD-IWPj-IOugCPyJgoSumv3BDnNpRIg", "name": "Idrottsvägens Utegym", "lat": 60.61851600000000, "lon": 16.88641300000000},{"id": "b9a64c218a1d44c788526219bbb2f818.16", "url": "http://lh3.googleusercontent.com/TyswGqizHfgEMiJ5ntcm8xtzIbR5DrpODa9t05tqGaCBMqVonBQVSq5joWYRHQY-ncHMe5vQmBJVUjLspJj1WmtG7w", "name": "Anslagstavla vårvik.", "lat": 60.66549500000000, "lon": 17.30077800000000},{"id": "b9b13e1b60d2426988477fecbc056be6.16", "url": "http://lh3.googleusercontent.com/p_SCmFGxUnRV1Bode_z4ANZHzHidTTdXP3NHNr0Me5I5do2UvCi0_KVUOVByy7Sm58YK7Gq8asfdNndvSqGpEWV0QJk", "name": "Furuviksparken", "lat": 60.65170000000000, "lon": 17.33256300000000},{"id": "bacfd480c57842459863a98685da6622.16", "url": "http://lh3.googleusercontent.com/EJRgMq7xtsQdxScPCrVw7UDVnGrVcgnoHC5OOymMtf96FaPsOiplekq53N_N4wnt8Jf3L99ha2yDVKycg_3ZIbC7qH51", "name": "Vikingaparken", "lat": 60.66167700000000, "lon": 17.22299300000000},{"id": "bba0a8c28d4c44a383d7a9aa95a56d3b.16", "url": "http://lh3.googleusercontent.com/ey6fvv-Qb8AOVvePGgGbb6CChP0y2LCPxLFgWkrXDEWmhVA0emB4Wm2my8TfjSLeLjeaokGfr1YerwX1QxyJHkF1tnVM", "name": "Limö Fyr", "lat": 60.71446800000000, "lon": 17.35382200000000},{"id": "bc78f933edb4400d981fa66a796642d5.16", "url": "http://lh3.googleusercontent.com/uj1Iwh-ShIrXRzpFNj4IQZSEcWp5mbKd5pzk69tg9Hu7jE71AU2xDx8UJ3LGt-OA1r5kixbS5K3EY3HNwDeWvXm0RPpq", "name": "Piedestalen (gammal grindstolpe)", "lat": 60.67805500000000, "lon": 17.19444500000000},{"id": "bd5854d560ba4efd92872387936aaf45.16", "url": "http://lh3.googleusercontent.com/oJB7g97A8zX00KbU99ZDdMaWibQWiE760Iz_NPAXK5i0n3NMbDVgA8XJepigpAUEwEchKSYYRVXyEM8cBwUyOIXO-Dg", "name": "Två Kanoner", "lat": 60.66780400000000, "lon": 17.11535000000000},{"id": "bdf7129f1eba40ca82d5ecf518b395b4.16", "url": "http://lh3.googleusercontent.com/QYkKEg9DQFAj2o7WbKS2Q2RoK7TPgWDLjHGeSG9TGYDlJivgGNEKH50mh2rmsFNA92DsAlX6Nr7rrBqEcpcBCHgwh5M", "name": "Runsten", "lat": 60.66513100000000, "lon": 17.15472700000000},{"id": "bead8721f6f44efaa0d863fff6eaf359.16", "url": "http://lh3.googleusercontent.com/0srOBhUdJ0vyxi5EyPAZWej9tLEQKrkPGfgQyvFPr30oWkUO9Jb9zOaZrgbfh5AAeE-vXti0XbT_QWOXvrFBkn6fcJ3j", "name": "Naturreservat Testeboåns Delta", "lat": 60.68495500000000, "lon": 17.16593700000000},{"id": "c23a9f4182274bba82ab3947969b7b9a.16", "url": "http://lh3.googleusercontent.com/LYPuZ9w_7lRXRyGeUghZn3yySRabvX5gOFJCmJLh_UxNn8xWbaR8X9EIGMTIr-olZVz-O7xLAnYgTjBgsn8vqjW41O8", "name": "Betlehemskyrkan", "lat": 60.67280500000000, "lon": 17.15266600000000},{"id": "c2a1dd86e6af3d019a7e41fc6e238be6.16", "url": "http://lh3.googleusercontent.com/PKRRG_50aqZyvd32hMBaemVO57Xml5yDrYReKFN7qKMb2z9kjGa2zhhYsC3-hQ0S_kGKuCO4PMwmq7yU-oPgHgCTUqoS6oYRROr7m6HG7g", "name": "Anslagstavla", "lat": 60.63522700000000, "lon": 16.96732600000000},{"id": "c2fddc3d60b04617a3b09715fa7e764f.16", "url": "http://lh3.googleusercontent.com/MTL7zqR2rcPHxRgZ8cjHtpiiGxxY5X4sA9xtldIrT0cvJXo_UhoBcPOlwOHsfunRy83K5DWciOKOofqLTPX9ycNl8_E", "name": "Gamla järnvägsbron", "lat": 60.65856600000000, "lon": 17.03693000000000},{"id": "c451282389fd4743a7bc1089baf83313.16", "url": "http://lh3.googleusercontent.com/2jAt763rpNP8p0JHnqnQE1r-RgE9r1VbLJi-oHf0WUFo4stpsaBWPYNroYacjZTlCGw3ZFpFn_e9QXjIX8gOH3nsDZo", "name": "F.d Brukstallet", "lat": 60.63910500000000, "lon": 16.96388700000000},{"id": "c694f146a565472fafcd21e71c05a05d.16", "url": "http://lh3.googleusercontent.com/MNA_T1aPZO58eWZfKZUNXLT5hppwbZxIMIgDjPSiB4lIBflGhoKY7MwfsPdG2qFpRj2rCi72mF-hCW2WZwuS1MnUww", "name": "Valbo Församlingshem", "lat": 60.66384100000000, "lon": 17.06919100000000},{"id": "c6f58089724e47f5acc4f989953cf73f.16", "url": "http://lh3.googleusercontent.com/ARLUiEEJMWFn-AyXVs-suk8Fa32dLNN5sU87Db2cM-UL_Hyl2ZDKYOVKA8we1RaAa7xGg9GNhDVf7Pq3q0XpM81jpw", "name": "Skogsfruparken", "lat": 60.65935700000000, "lon": 17.12929600000000},{"id": "c831eae90bb74583a1298dec96ca38d7.16", "url": "http://lh3.googleusercontent.com/VcIugGMBtZAWmZVpB-Jxz9JO2J8ux_7Q_AGdQRSoPK-NtoVASUJlQQsXlMrxXe6dHbBoqOPtjoq3KMFgEQZDyDOWqQ", "name": "Långbackaparken", "lat": 60.66748600000000, "lon": 17.20858200000000},{"id": "c8bdbb6908aa4472b40321d797eade76.16", "url": "http://lh3.googleusercontent.com/sigPm2IsWRgG2ZaLUdy2BgQkKAVh7jop-IcL6z1bhQhFgMRTwEc_EqLTxZSPOC8Bphyy8_AbvvuMO3VdpdSy5IOgZtM", "name": "Älgpassets stora lekpark", "lat": 60.69393600000000, "lon": 17.10328300000000},{"id": "cc3a6768e4544f67a67026cffad7bafc.16", "url": "http://lh3.googleusercontent.com/yXAb-Cxv78jAwRDbR5Pq0Lf2IpQ7hBDNoeQoC-4r31jWclvoMzHGnVPMJP4KornGaHWNXgxwNHdBLPD3g0DzBF3jATJtB-T8G9brPma9gA", "name": "Rävpassets Streetbana", "lat": 60.69408500000000, "lon": 17.10675900000000},{"id": "cc5153f9a2e24c07b86643863461284e.16", "url": "http://lh3.googleusercontent.com/NJu5nSHkE89htq6SHB86uk6XrNKSqI1Epsa1UYC_TO4gqZf0CdKoHPE0P0ztaMaC7U_yGXRRKw1pD_ma8kU6e2vuBMI", "name": "Urbergsterrassens Lekplats", "lat": 60.65985800000000, "lon": 17.14471900000000},{"id": "cc833dff957c49cd892845492ec66e34.16", "url": "http://lh3.googleusercontent.com/ynKcs7VILpAZfERMixVzLF9CWTJ7nlVgRdZPnzRwPNrYC6pIymPbWgxXlqEl2Aq4WICqF-ocd5a5zUjqljgxuKNgHoAe", "name": "Boulognerskogen Entré", "lat": 60.67534300000000, "lon": 17.12098000000000},{"id": "cce38b25cdd849f48ba16f0e5d019810.16", "url": "http://lh3.googleusercontent.com/mc6D7Z7el_SbH3tXVNWi8VCIas7KU1rIV_pXQgmwbGyIERXg5WsrPWp6EHsaas5FZi_7u9czIFqX1C0NxmRp5HpJLw8", "name": "Båtvinsch", "lat": 60.67822800000000, "lon": 17.16935300000000},{"id": "ceaade5617744a92baef5cff553a9a37.12", "url": "http://lh3.googleusercontent.com/ese1Mhep_laUje715v52Ltetga5qFE8QXRUl6z_WvdQ14O-wYYJW0TlZTrhdHNpAU69r6fj3GOx3YPpnJ3U8_3c8riw", "name": "Solglitter — Carl Milles", "lat": 60.67663800000000, "lon": 17.12047600000000},{"id": "d0cd936bca234b53847f8c2823f3fde1.16", "url": "http://lh3.googleusercontent.com/ZdOFEKaNiC2t-XYIJPxAQCQrySRCbrLO89GvGLpsV3j_bzhNapwPJ1la1zxXjpf2y2wAi7YjNZ8fnZ8IDrfkeLc0Vg", "name": "Trädet", "lat": 60.65105300000000, "lon": 17.13397100000000},{"id": "d1baa0e463874fcc92f1240f25b7c9ed.16", "url": "http://lh3.googleusercontent.com/WoyiFlDsbJjv7NeMdNm_afUilsCJM1oEQOURQWDz83LhEKOkO7FFxHmc4oX3sIDznMZFHBCvQse23ZmwEohofxLEUA", "name": "Lunds Gammelgård", "lat": 60.66014000000000, "lon": 17.01233900000000},{"id": "d408438f390c47db831e416ea804192e.16", "url": "http://lh3.googleusercontent.com/eASfXh1ec6R3wRqAfWmpHJGj8tvxJM4M6bkP1exwtwPsoCZC3q6Wc4elpSn2PyG1wCzwHGWshtlV2xO39m7ymBA0JPY", "name": "Ulvsäters Tennisbana", "lat": 60.69699600000000, "lon": 17.09513300000000},{"id": "d4a70887847948e5ad7512d05f6f8b90.12", "url": "http://lh3.googleusercontent.com/MBbK-zAi86kO5q4WtYHHlNBXMcSfl-IbpAwL_By3Qnzbq8HH3MCFRTCF3_ZdRSOw91Ae0AdA3GbRKq10xhiW8sEyGR0U", "name": "Återföreningen", "lat": 60.67514400000000, "lon": 17.12199800000000},{"id": "d553a9f2f99b4092acaf2ceed96cd1de.16", "url": "http://lh3.googleusercontent.com/sMT1Iqn291hmvJaLd-h6rY64U7qcxw_18Eq7t1FjyHol25OvldeRY3_DKXVtVm4plWr4w1td_JWHU5W693AHeeBlRg", "name": "Treenighet", "lat": 60.67432400000000, "lon": 17.11897000000000},{"id": "d7c73b13787d4b629816c0d9f3ae5c38.16", "url": "http://lh3.googleusercontent.com/EarQ3BQYmBQVrHxDHiImTwkRxoEnBXTuZfk-hNyRnW7xKdkToX4MSDmkrNjaeGEBIQReAEwtaAybmSI88HL4UjixjqJS", "name": "Vardagsrum - Gustav Hellberg [2012]", "lat": 60.68080300000000, "lon": 17.16871200000000},{"id": "d84b33025ca84b6fa702537b925c6e62.16", "url": "http://lh3.googleusercontent.com/xfMk1sBFK8Wmu5yAXjpjw1-dgXs1pJFfDZn8gYaHouciA0hB58tlkDDjAGGWmFUnEuFVbCtpJvCIDGJMUXau2wBqSYk", "name": "Hedesunda Missionskyrka", "lat": 60.39403000000000, "lon": 17.00921300000000},{"id": "d85459d5724b4e0aa748ee63bcee72f7.16", "url": "http://lh3.googleusercontent.com/Niyy6Xp2ZkG_mVRJXQq9Yuer2TEGCHR9FJU108qDBZ1BrQy1EJ0qS9nylDCd_qs-aWxzJW_qylj2XQxcxevlTVf5nLQ", "name": "Gävletravet", "lat": 60.69035400000000, "lon": 17.13544600000000},{"id": "d9eb49345aaa463082b16a5d5b95af5a.16", "url": "http://lh3.googleusercontent.com/GIpuZ7S2w1yRKxwbtQ-Ogu3-IpFJaFFnO4gCtqmqJqVWIk81WnkviZnLEX9w67ksWPG53_uxZOuCdTpEnvs3j0NUhZ8", "name": "Gränssten Valbo Gävle 1940", "lat": 60.67751500000000, "lon": 17.08934800000000},{"id": "dc4a6fc0dea64b29afd07616a1e2f634.16", "url": "http://lh3.googleusercontent.com/pgT79cHRIch9ROZJN1D9L-ALiJHlnOjFZg9eXkdNkgPDg6inT_eO78hmAYnIFqG6FvUfeabOdbWRuj7skUgZBZXcXe-t", "name": "Gustav Vasa", "lat": 60.67325900000000, "lon": 17.13611300000000},{"id": "dd12307b12af452abad9deecfd932ae6.16", "url": "http://lh3.googleusercontent.com/d9UW7cCGwTejuRRcOaG4XPNZzfhjb-3yocFu-BoArnGS8MXalLsxBIEgxOC01kEguiG5U_05qyn5ItCy9qTHh59HXUnM", "name": "Hemlingbyvägen Vattentornet", "lat": 60.64974200000000, "lon": 17.16943200000000},{"id": "dd5bbcfd3f2842ab81d0a7bce17af3bf.16", "url": "http://lh3.googleusercontent.com/Ee4wTAj6mNinLmvW1Wktwg9bRiYJoh9mdcRlIsDHiOKKpWP8KnCFgW3eBMFefzH1XnqreWYtoc8Ls9r56N-Ddp7Vm-c", "name": "Cold War Artillery Bunker", "lat": 60.65876500000000, "lon": 17.34178600000000},{"id": "ddaf17c1408c4d318a9db9761c50d334.16", "url": "http://lh3.googleusercontent.com/WTOrdrd79ezMjL2_6uXGG3zMUdsP23BiMp7Y7RCvr_N3339wnA9hSLk0oihypy8ExhEMrzFiSw6NrkIxkmmwrlJCgoc", "name": "Häklinge 1854", "lat": 60.66248200000000, "lon": 17.06055000000000},{"id": "dec47b191212437fbe5e5ced2548512a.16", "url": "http://lh3.googleusercontent.com/rSpF6675fcU6jQOrVYikZ9uXDPpHF8ioM-iySuU0sPL5ntrjC3gZrrA8jQGle99d_ZgLfJWpx_h8t76eWrpnnj_XN30", "name": "Lekpark Rågångsvägen", "lat": 60.65819000000000, "lon": 17.15360900000000},{"id": "dec98acd7ae34f4199c551881df35374.16", "url": "http://lh3.googleusercontent.com/w7CwOqYmVeNx4WSaJAg-5hZOcEnkQXGAfpKubJXiheOitxgD5QcprxINRuNg6UCY0A8WLHr_4WOKG1sXrKj8UtgpYgbX", "name": "Angel", "lat": 60.67498500000000, "lon": 17.10692700000000},{"id": "e11a0ec089754029a46824d7dd02d6a4.16", "url": "http://lh3.googleusercontent.com/90d20rSb5fknzGr6agign8AQg9YLgkJLHa-0ojhkAlP29alF0Zk-9MvJ3TtoUnSe2AHVJiaKOA-ZoG7Kk1Zkgi0XvtM", "name": "Siriusparken", "lat": 60.67741500000000, "lon": 17.25247300000000},{"id": "e14abb0aa5f14f15b6557e3c4a602b25.16", "url": "http://lh3.googleusercontent.com/nAWiLI2myi_nGYtrWNP7MFDsyH1U3pwdR2Rk8-kupUDc8cUcJ4jm-uzsPn0MTkpofeqp-0nq7p8-f4hxIINP0vXaSCv5", "name": "Två Getter", "lat": 60.69963800000000, "lon": 17.17676500000000},{"id": "e1895febaf03427d93bb3a8400a2ad67.16", "url": "http://lh3.googleusercontent.com/xnweBUAnzPAdcasiGTlx9-FuHFeagIC-mTNv5W0S8W1OS4fgCCOC15mIk_Akg8IIqWmCuVbw0LB2_52ihzEdUb_YzUQ", "name": "Klockstapeln", "lat": 60.67060700000000, "lon": 17.12138900000000},{"id": "e1a931c9aaa04c17987e956ff3f57558.16", "url": "http://lh3.googleusercontent.com/HLp6Po3maHWTFE0WNKjUhzev701kRdM1F24sSxVvabVZ7GEQyyjXjhb8GRg8zv8pI6nB0vqSSNsrgb4bjg401DB35Q", "name": "Piratskepp På Hav Av Snö", "lat": 60.68062600000000, "lon": 17.16206900000000},{"id": "e209c1265d4243d892a298ce08c0cb87.16", "url": "http://lh3.googleusercontent.com/rTpOsqK3hpNmcGMNf1cvxkeNVMLREWsaFwIKkC90b7zZaspIV77ko6moxmdgdeld9gIe6I1KxusvKyJhM9mUdD2FBSU", "name": "Gavlevallen", "lat": 60.69120400000000, "lon": 17.13437000000000},{"id": "e31b368bb49a4e8db157dbad8d1553d9.16", "url": "http://lh3.googleusercontent.com/xq8bIbm9Gqpo0cSEepxodOm1wDdMM4ybjjgGtzWdrPKGBFzxHC1SQhwR82WlZiUoBvhLUGt81nQqoC_qKCMBy63zvYPA", "name": "Staffans Kyrka", "lat": 60.67066600000000, "lon": 17.16244300000000},{"id": "e3505436034b46148581116f248d5643.16", "url": "http://lh3.googleusercontent.com/puCvzppLPJmGx8a_bk0U8m_EKAXhbay0bli8JfOxkNULx7C-sKm_lMvo5akqOUfJ-lOWW6-BgxKSJizF9q4Ofs6fLqE", "name": "Valls Hage", "lat": 60.67679700000000, "lon": 17.10751000000000},{"id": "e595436d74b549efb5de4d16b33fa1fb.16", "url": "http://lh3.googleusercontent.com/yh5cyZxqgjmuX-lA1XtQJYZBEkfwOdXN47NYEve1-aTDf13taCbsHMoWKj45l564SaaaHWDYIT6Fg1iMY8Ihz0Bv6n0", "name": "Testebovallens sjumannaplan", "lat": 60.70980700000000, "lon": 17.16403700000000},{"id": "e675f008a3724eb99a413d36122e8f50.16", "url": "http://lh3.googleusercontent.com/qIqfoyIhwkA-7jryR3vr2Lz847QHGTWnjjd-u-EVIgizKKwqhD5U66J2jql6ZUFVgiicuJF3GAClqOc5rxaEB3M9VJNH", "name": "Hedbergska Fontänerna – Carl Johan Dyfverman", "lat": 60.67516400000000, "lon": 17.14398200000000},{"id": "e69c4408f29d49bea111816f8d22ed74.16", "url": "http://lh3.googleusercontent.com/BX_kX9wiv4Zqj7BMg_9G6Y615SAX7vlXS8cnse0K8OkEUmZIV6ucql-Zl2nFa-3PrytEMI_UC50XNseZCZjyUR7rqiI", "name": "Zebrabock", "lat": 60.66922200000000, "lon": 17.11255500000000},{"id": "e94edd98ecf84d44a59613146b709bbf.16", "url": "http://lh3.googleusercontent.com/w51hAvc3eCEaUTL2gwbisKayLDZtqJiTxoIBqeanPf1WmAdp9PkqL2hlXLpdri9LCRove-mpRyLXNE9k491WhYlZH0ps9E9RXpaUntw", "name": "Gran", "lat": 60.69762200000000, "lon": 17.13156500000000},{"id": "eaaf27a3829849859bf45066b40e60cc.16", "url": "http://lh3.googleusercontent.com/_CD0kjwioRd7Tqitkw1uIn_Sh4jVtPCh6ndzNr1IROGkbR3I9ClifG7cT1gBuO4TipjYYBgbgj4oZ60bIM61mpOODaL2", "name": "Rikets Sal", "lat": 60.65496100000000, "lon": 17.15338800000000},{"id": "ec18b8be524145e190280cf75bfff5c6.16", "url": "http://lh3.googleusercontent.com/oOnGNaHWDHRa-83RTzFPmndDJkw4SdLGPIpgMQnbwy-7rQ-cfOKrfau3VvmyqFqLGLmmsP1-yxMl-g0sWsMU0yF4423X", "name": "Älgpass", "lat": 60.64017400000000, "lon": 17.17009100000000},{"id": "ecde7c899a484425994284d1689a1165.16", "url": "http://lh3.googleusercontent.com/vjOSK5zrQrffLd3crwtKQLUBoRQral03eNt_3VhaVkqsg4pvRBaO5YReqs17iyAdt7ptzdcQrfubhkzN0y5n3kTs4s9kltP2ozhtaNE", "name": "Stenbärsvägens lekplats", "lat": 60.69070900000000, "lon": 17.09195900000000},{"id": "eceff9ab3d0243059ca7385d316adeec.16", "url": "http://lh3.googleusercontent.com/t3v9jj-z1x-E7Ahi9yldl7BmiNOxU9hnNLmv6LxdaUlpJnLocHNBtc2AVVGqkfoNuqPllHLhbwe-0Jm1-xJONoN3ayU", "name": "1/4 Milsten Från 1785", "lat": 60.66278200000000, "lon": 17.15580900000000},{"id": "eebea7c7d57147d48f4d6e387d549c47.16", "url": "http://lh3.googleusercontent.com/bSx2z_n0h1MdHrouZIhk0gz2sWu82gXKXvoUQtwzQPQx3AICwnXbqN3tZxuMCkWEzulRj-Zz374wwoK8kk8T00rPHg", "name": "Sidlångparken", "lat": 60.70300100000000, "lon": 17.15029500000000},{"id": "eff000efcc6b4f0282689f6d066069dd.16", "url": "http://lh3.googleusercontent.com/_gfau2pi1Opj_RgKIEJW1XjRhGORZI05BpcAZIAbF5jeplnGCJhElssCD5acHrHkAc6-J8jR4PzaDhOe0dnrQHyKMw", "name": "Gropen boulebana", "lat": 60.61446700000000, "lon": 16.97304100000000},{"id": "eff15d93bc0246d48fe815bdf8561b85.16", "url": "http://lh3.googleusercontent.com/-ofLvs_1IZsOusfZfa80vvQGTo4IzAGxp3fz_q_IIA9r17PB_dfJ1MEFZ58Otu-wJjj5pJnEbogfmO4TsJrg9aAm55fX", "name": "Hemlingby Kyrka", "lat": 60.65645100000000, "lon": 17.16620300000000},{"id": "f0ce28cb595348eca2caf45b5f26955c.16", "url": "http://lh3.googleusercontent.com/d9YDYs_MQkD8Nx8jAMhOtkEf1VkOVq7Y-WYtXcg3zvEg3ocuzy78PdvZ8qcAxJpPqIqo5n-JeBoR5bXtswcXiqAkI-Y", "name": "Ångbåtsbrygga Laduholmen", "lat": 60.61399400000000, "lon": 16.88589300000000},{"id": "f0db286b793d49dcadcdb261ccdd45b1.16", "url": "http://lh3.googleusercontent.com/iEq7nVozIHpS5BUE2fFBZ4N9GslSi6vB_TX7XmRemsQ3GhCGEWsLeARA3g-Bhp2YofTAjprp3FmCpAyemPrZetfHOw", "name": "Skulptur HiLo, Johan Wiking 2002", "lat": 60.70965000000000, "lon": 17.16676400000000},{"id": "f1124569687e4c2ab785143b93cf4e2b.16", "url": "http://lh3.googleusercontent.com/MpWldq8ntIqsudWfZZCIaCZIMwqrh41gwFzBIhNG1KDBgX2-ItPLpNad2ykvESGJPKaltohdLCaNR-oVmsbnXiSdSvg", "name": "Lindesnäsvägens lekpark", "lat": 60.66965500000000, "lon": 17.06237700000000},{"id": "f3d3cc38e7594a049cf264fc5c12c75e.12", "url": "http://lh3.googleusercontent.com/ZUcnNpSi8lbWMbkKStfGSjWL3a2088L8C_w7MjbcRmoIq_hT_mJw6ATFfTtKNTWgGq4lHb8kKkVFOUm0NyVANh2v3hrC", "name": "Festis", "lat": 60.65420300000000, "lon": 17.13429400000000},{"id": "f3d588df762246ce95dddfd82666a616.16", "url": "http://lh3.googleusercontent.com/Wye8x8zp3ZvpS9AuwjxAdUcGewwP5d4QN8SjspHVaIARuZp7Qd-pFofNnbdWQEX9JDH44ZZsAwV32P5-JamM-4-qCA", "name": "Kvarteret Albion", "lat": 60.66393900000000, "lon": 17.15744800000000},{"id": "f47bf4eec5a24e239637dbc06ca7833d.16", "url": "http://lh3.googleusercontent.com/ixsmS1YvYlkIVC4K_KjZ49tP06g0GqqSnxtS_jSF2QW7tQs0C15td-KAQ3ev55-jgxNXwqi0FMjndJrn7wTjTSNhUnE", "name": "Björsjökyrkan", "lat": 60.66525000000000, "lon": 17.22800600000000},{"id": "f5028888462f42208e8f76ab12a929ba.16", "url": "http://lh3.googleusercontent.com/SajwB76OWk6VrXDGMtNujYfvT2cFyZOEL8yqayC1EYaXfEQmhDXsfV1w_3HSiP6RpTlNehgMawrl_Ixze2TVLDCaVw", "name": "Hedesunda Kyrka", "lat": 60.37911200000000, "lon": 17.01846400000000},{"id": "f55995b42b6248c68ff4682c95c2257f.16", "url": "http://lh3.googleusercontent.com/BR4UORdxOCXl0qtAy46ieVQzVFBfUbFQHjSkgQ1sd27nerZSwDEM-ROXbC4wQSFkFnoNOLDHcC5aNKZP0opMSiZ9U0E", "name": "Mariakyrkan", "lat": 60.69147100000000, "lon": 17.11480500000000},{"id": "f581792b26524c80849b1dc1cc183dfe.16", "url": "http://lh3.googleusercontent.com/tZBx65CvPkjZFc7fYWU7YFAKlj8y2QTgVoCRY0m4E9ITnVYPVfXLeY-lxHen32pxuoebh2cTt-gD6IEDsfh-my8k2A", "name": "Undinen", "lat": 60.66523100000000, "lon": 17.13236700000000},{"id": "f735d6deeda2433d902bdb2c7c049b28.16", "url": "http://lh3.googleusercontent.com/LyKSUeuGRP5WER_EVUBPZeAEvFA_wT5Sd6aMVeIF9L4tAJMFZ4a_0w2EUAZSIgJObqR8dz-Kqmmw1iIeEvFe8qNQ4Xo", "name": "Sankt Pauli Katolska Kyrka", "lat": 60.67056200000000, "lon": 17.14971700000000},{"id": "f788502f0f2d4a989b315698cb1b35b6.16", "url": "http://lh3.googleusercontent.com/aYr6Fkg7UYZnVyFoZIFjx_XC22k1ud8hlwTdogTXrlklouou043baSLFzwADMDpQ7xmGx5KJCezPy49_mTXykHWaNxEc", "name": "Nybo Brunn", "lat": 60.64796000000000, "lon": 17.02059900000000},{"id": "f7b7bcbcf298407a89016bddad103229.16", "url": "http://lh3.googleusercontent.com/GpTweD0gMZb8w235DUd3kBuzScv2gU1CUgTbLEbKXN8G9c1SXPPtOPBsVdq5WAkeGR6108mQ9K48Iasfd9B2FPMpiUGsz-SlpFxHFN81Iw", "name": "Lekplatsen i Bäck", "lat": 60.64972300000000, "lon": 16.98547400000000},{"id": "f7d91376633b41e5893d16c5e8b1b129.16", "url": "http://lh3.googleusercontent.com/wEw8xShmtPD2AlfofDZm1koDRKZihBJs5ANJQm2UpAUxJzwIcuUmr9mLI7KVF4xubAWICC7ynihBmp2xoQeTiPwA6obS", "name": "Gösta Nygren Founder of Furuviksparken", "lat": 60.65282900000000, "lon": 17.33458500000000},{"id": "f8c68ffcc9f344dba95fe21ffe923945.16", "url": "http://lh3.googleusercontent.com/Aba3dYFoCNnVp1IPnJEoem8WyagzW94Xkb68unXhd1Uf_7YlVVvRqV9OaoZWgLHMm8-88Xng7p6-OAMsZWPAS0dACVU", "name": "Tidsaxel", "lat": 60.63922300000000, "lon": 16.96725700000000},{"id": "f9c7e583d61043c3aa6587acf9fc77ac.16", "url": "http://lh3.googleusercontent.com/OJVFksE2Nv1hGYS3NRkWfwRTZh7y3ey-GvaERme8DBzK6Vm_tJFsZ4xj-XdAstXmnxplQaZGSRUpmshYQWKdTm2Cog", "name": "Mejeriet", "lat": 60.63965400000000, "lon": 16.96438900000000},{"id": "fc96982e22c94acba332f82d3b360309.16", "url": "http://lh3.googleusercontent.com/PWxjOs4xL8l6oURYH75Wy09fHziMfLnoAcgZEDdVI7-li2vA6ENINoNZbfoLhrmjTx9pcI6kpvfae8DXA66HWS9BBA", "name": "Gammelbron", "lat": 60.67134300000000, "lon": 17.14007900000000},{"id": "fcd8e9fe437140b99fbc5b78b75ba530.16", "url": "http://lh3.googleusercontent.com/EvlSp2XItcTFj9UnIF7ghldtDeBuILEs1Oriof5C8pjkmSsaQTH2xFoBs6GNeOKrz0gJw8d9xyQKQV1B1dSi_RWqiJHv", "name": "Hemlingby Friluftsområde", "lat": 60.64856800000000, "lon": 17.16298100000000},{"id": "fcee03ff30d062dda3ee86674885a06c", "url": "http://lh3.googleusercontent.com/R-nAIIj2MTyblLEeu4Sd4yex4JtL0fBtsRSPbuRhf55Z_n7MUnPtgXnSBzZJsKLUeiay0wT6ur25DNAMfCkZp5oXycWS-Y6sAYlMIQ", "name": "Circle K", "lat": 60.66753433000000, "lon": 17.07965255000000},{"id": "fcf888c117c54a93a64feb32b5a0e92d.16", "url": "http://lh3.googleusercontent.com/BBTupsFXnbysLBxt41Jia4wQCJDvheGh73urBGZE0Fhwu5lJKklCytaoR9JmxNWHAU7a6KgKmv2-WNVIC0rxUor_ftk", "name": "Järnåldersgravfältet i Strömsbro", "lat": 60.70086000000000, "lon": 17.16876200000000},{"id": "ff1ee172c59549bdb698e5544f44cbc5.16", "url": "http://lh3.googleusercontent.com/t-dII74cO7V99VSUduEEnnZGK2S1SmtnRkn52kIJEzt7H13OuzzyzA8Pqrb3r9zOV5dv7y5JnzUj64v-dROXL8n-NQ", "name": "Helgevallen", "lat": 60.65084200000000, "lon": 17.14101900000000},{"id": "ff370b19b51f4f42ad1530838febe7a5.16", "url": "http://lh3.googleusercontent.com/euVp3gpA80xsuQfsIz08RcX-D1HdPEWWPiEOy4Gi7TtPsWOsa0jsDESBPqZv0xeWWWA3TIf3Bz7zlXAlTMox_LBca4Zl", "name": "Gunder Hägg-stadion", "lat": 60.69351900000000, "lon": 17.13369500000000},{"id": "ff54945a228240e1ab5355ecc034e984.16", "url": "http://lh3.googleusercontent.com/Ej87FkInXksEOWF3k44YURTykKwhnmcNPuqwfNEclNYqTBp36Yc3TVmmG7EYWa4hq9o4gtcIr8sgSjiRbsb3dpb9uVc", "name": "Myrparken", "lat": 60.66831800000000, "lon": 17.22163300000000},{"id": "ff89442ab6fc4cb8998a985e1e8e2be1.16", "url": "http://lh3.googleusercontent.com/AJczbWU39JttRuSNEYkvVK99iz0-XHRN5kYWKTZkXf46LF1Y1iV_N-aks-bs1RIwzulbxoTA_fEipwraAQd0cgqmLwCw", "name": "Raketen", "lat": 60.65217900000000, "lon": 17.14175900000000}]
