[{"id": "00bbf1825f0039db86b202eb43f148a3.16", "url": "http://lh3.googleusercontent.com/bZCDTDlppFFQi3FLzm1NrU0NajbpBg4i3HyXSehM0qU0eJkOc5_Ge3P9gkPlK_2DfpppIsvefe0S3gAeLbBCjhn6wj2WNCkC4gqAMTg", "name": "Lekplats Laksjöbadet", "lat": 60.09624600000000, "lon": 17.15955600000000},{"id": "0c8ea92fbcf340d2b0f2c37542e4ea91.16", "url": "http://lh3.googleusercontent.com/-1vAA6d3QqrXbnKoKmvnIm_hEcCyAXUoTjSdu5IPM12U36zGlWNcZPN_aCYDqYyHaK9eETnsnaVXIR3Er2viGfXy_w", "name": "Tärnsjö's Fotbolls arena", "lat": 60.16311500000000, "lon": 16.93327000000000},{"id": "10c286b9d4c647639a44b0c69530938e.16", "url": "http://lh3.googleusercontent.com/5nHm8YZPcBg4piiLpqJR0Rx0RCMlor6EB3n43-mO4A-6zk_3HBYivPMkbcu0ZZ86bEvvT00esnRTuG5Mk7ex1JdHHPY", "name": "Salaortens Lantmannaförening", "lat": 59.93302700000000, "lon": 16.96244500000000},{"id": "11865155b7bb4fddb4eddf39cf1a8121.16", "url": "http://lh3.googleusercontent.com/rpaBldFI4I496b8IoPR2-vSwZzdM7G3p5yQnB0CRcg9v3crfuGNVSfaAGDgUS8H7mOGrul74dXRBFbqpLVFhXr5paQ", "name": "Östervåla ishall", "lat": 60.18627900000000, "lon": 17.17149700000000},{"id": "124f0a729fa94eefbb8f0d56e8008fa6.16", "url": "http://lh3.googleusercontent.com/5sqh7Gb7aqlQBjBZsKMr3p3DAJIHpVKZAZjohnavWr-snH3MQkfamON9qPa-nDniBM_murW3hAKMJMA4Zw0xqMRRxQ", "name": "Birgittastenen", "lat": 60.18011000000000, "lon": 17.31408500000000},{"id": "18725626816747eca2f6c06ff2283e05.16", "url": "http://lh3.googleusercontent.com/aNPRBgbtOLGPkBbsWBawgBJ9xQmQPoLSJDwmEJAzRW_VkSiRT7qf-8NZlbt0tiGpStpkVSc2OYhLzgGdiLsTTASYydM", "name": "Runstenen som kom hem", "lat": 59.93300600000000, "lon": 16.96342100000000},{"id": "19203c4264c14567b8b6a685e98af608.16", "url": "http://lh3.googleusercontent.com/_tOwVXFCwvDNUjCUenyoWET1wFouQ0GcQwrw2jqa483KZ9sJ0aIkzPP0xxt2CNn4Tjqk4ayI6v1n070l85rku1gXFQ", "name": "Allévägens Lekplats", "lat": 59.93733900000000, "lon": 16.96415300000000},{"id": "1bfa4400d5db441698ad61e9e61cae6a.16", "url": "http://lh3.googleusercontent.com/CRFPheixtbXn3s6_CTYzqIM__h3Y1cUCbe0pBtXMqg4n8fbor8GhIHTKdtVI-dvPIymv227WKqdvQvjaxSTSH28svtsh", "name": "Kalle Stropp", "lat": 60.15285700000000, "lon": 16.94596000000000},{"id": "1fe5671c22cd44d9bd6e7bb28a59b461.16", "url": "http://lh3.googleusercontent.com/0eu1m9NpqGKrCt8ARqZWGgcU98WQkohWij_jwyNy3oQ2u7Sas8SnZqdYnGOCtEoRxnlnxgCLcksQObYUjvfiEwUw-Anj-1lD54GZ7hU", "name": "Kolarkojan", "lat": 60.15736500000000, "lon": 16.92521000000000},{"id": "24034affe06c41ccaead640dd8760339.16", "url": "http://lh3.googleusercontent.com/iBqv5AWjqWRAa0nG7ylvkbgPwaDzl52hMzrD0jyKY7Yx_KUZu2mtjofoqVVHXKgDsO30oTfG5oBU08g6FOV6ewGLjg", "name": "Missionskyrkan", "lat": 60.18223700000000, "lon": 17.18408900000000},{"id": "3639e6ba16884022b96921f95d8a95da.16", "url": "http://lh3.googleusercontent.com/kaMU8YQeqi07eKwNSgAsC_gQgxafkjhFuKmfCDOeE2HHG091WT16sl8em4cgFwSFwExhVTfqi3VKKB6tPLqiNg4DoxIWk2vpS6JumIUxAw", "name": "Heby Vattentorn", "lat": 59.93573700000000, "lon": 16.84094600000000},{"id": "3704ff19ef31428a83a5e43e0e701b62.16", "url": "http://lh3.googleusercontent.com/lBf5vRiKmAuOgzZTVSrz5EfNQAvdfxXcPd3lFSqAvnGe8x8vtMDQV6bi1WKWP1L9lSlq0T2PEaWqJvyMAzJwiDzcTA", "name": "Enåker Kyrka", "lat": 60.03510400000000, "lon": 16.79971900000000},{"id": "395c3d84246f4206badb6862f93f07ae.16", "url": "http://lh3.googleusercontent.com/0bG0IiWGpmYfIS6S81-bx2K5vWcdLvjHakboLMxykBV1nV4RdwBwVTJ8dygKHFhj4Z2X0ORp8D_3NzFr8wTOZqiahrDi", "name": "Vittinge Vattentorn", "lat": 59.90612600000000, "lon": 17.05851200000000},{"id": "3be82c60102c436a9d9923f84c919309.16", "url": "http://lh3.googleusercontent.com/DAJ_gXUWcU8DqIewQLP6fAxWvuUbG15mhRC9qRD1pCi4fOuLk_cVjSNvwyS7c2-e5O1n33CpATKb7r0REPr0GgubHw", "name": "Gårdsjö Bygdegård", "lat": 59.97048200000000, "lon": 16.96956600000000},{"id": "3e22901b84d14065825fec9335eadc49.16", "url": "http://lh3.googleusercontent.com/noMaeIw57wa-E7Sf8p9W16M233CH1nOZLqPRH7pY-wyInV_271K_FcUYU5oV02r_1Of_reV-yNhlPsEdMYa3pWoqL0M", "name": "Naturreservat Hårsbäcksdalen", "lat": 59.86939200000000, "lon": 16.91480200000000},{"id": "3fec2e6daf964f238b4f143619e72cb3.16", "url": "http://lh3.googleusercontent.com/bispvrf0qvzw0iS13VLejLNYWE6vLWFUf37w4I8CzZNUjmE3OF8lVXFbBpvCMPlvjfMcH6gocgF8DN54_cvTUcVBx5c", "name": "Korskyrkan", "lat": 60.18291500000000, "lon": 17.17216100000000},{"id": "45e1c838bcd346b8a3085bf574c0d39d.16", "url": "http://lh3.googleusercontent.com/B2EVsZ5A3Z72MoK-ns7r96XSJwQqqYHNohJy7MzpU5xO8PDNGMlaaz75nTsYqEEAry9frHThT-62xclek4MISEbX1Qs", "name": "Centrumkyrkan", "lat": 59.93800600000000, "lon": 16.86243000000000},{"id": "46c9b9fabbf44f4face6661ad3dfa962.16", "url": "http://lh3.googleusercontent.com/dAdnzCEAJRdZH5fTaZtfahWI4sKhNaXOnhjRI-n9vDa4Z_sbFiMCfiWDSgROlFqy_kOhgiY4dQ9z-bw7dL6hotieoSw", "name": "Infotavla Heby kommun", "lat": 59.89665600000000, "lon": 17.11345400000000},{"id": "46d3f157155b40f29fc3a66e70b5afaf.16", "url": "http://lh3.googleusercontent.com/gxEeJC48J6rbFs4pxQFFqgT1ROabrsX-64s1mZ40NfounGbz62R2bHO7S9pWjw5-P_r3T-nVYgkFPCCA5xqDhVEluMA", "name": "Kyrkstigen", "lat": 60.15499800000000, "lon": 16.92070900000000},{"id": "4fa95b3d14c5429eba18e9203dccccf9.16", "url": "http://lh3.googleusercontent.com/cEpi5G2g8xCsrbIxDzCA-j8aVOkE_TelFHFZpep-MmbAKBFcf3uK2way5AQCuwF92eZI0AHW20eeV3QcYt2drFHf1g", "name": "Östa Nature Reserve", "lat": 60.17728400000000, "lon": 16.79066200000000},{"id": "59a7ffb08ba84cd182a6a6f131b9d76a.16", "url": "http://lh3.googleusercontent.com/mvhMlG0vnKv6R7cqCW5c4jaZ8QzvuJw_bK21W9iKoGMiwzQ8uVwXNvfYRQVuuznwSWkfO_Izw9RYnHKXSBFwX3anfblB", "name": "Vildmarks campen", "lat": 60.14711300000000, "lon": 16.81643500000000},{"id": "59c5ffdc1b774535bce34ff8603706d8.16", "url": "http://lh3.googleusercontent.com/HuLoNWOnz5jetvIUCM36s87nJT2NwdGFkMtsm2IL5Yc08szfUGP0dbHNQOIBCAYCGC6tCpk656RQ662IHwqbkNeEIh27t0Mo0_C6SEI", "name": "Lekplats", "lat": 59.93870900000000, "lon": 16.85191900000000},{"id": "5de594e7489f4a4090a96219dcf2e33a.16", "url": "http://lh3.googleusercontent.com/9xjtM9ccBeYtcRPG0RRRSwdvrB1v679FyEaBGULDsfeICu4SULNgewO1UiWmA8OwEiPpEIBXpAk-127iS9xM2pSy8-dI", "name": "Ramsjövallen", "lat": 59.93056400000000, "lon": 16.96462900000000},{"id": "611dcd1cd42f485b9d4cd08ae6e46139.16", "url": "http://lh3.googleusercontent.com/DyGGiPYW0hOc2zdLknd1cWWs7aq9t2vgFta6I3LncVDua9bZcuVWyTGPVKm082nt3VnsFf6oBi4wrKwHtUzSlBsjDEUTMMiUN6oR_1Kk-Q", "name": "Park swings", "lat": 59.93757000000000, "lon": 16.86824100000000},{"id": "67c3ee9aef204ae1872ab4cc9ed8d242.16", "url": "http://lh3.googleusercontent.com/A3papPrwD3ip5AT8QgrkWy3I_zvPfEIMf9UOj7bYeE41_x4t1KzHh8SbzHJE9uJYlP36QFYMnFt2Y0t0hEH507fVVQ", "name": "Västerlövsta Kyrka", "lat": 59.93903400000000, "lon": 16.85627300000000},{"id": "75ffba516d9044aba8397a773c9fa7f5.16", "url": "http://lh3.googleusercontent.com/jecf4VZ8yCQ0vqxcA3daMKgwB24aafi9bxNLSLHwLmdBEZDxVc5GUl6NwjLP13mll0bd2oQLpMB_hJcOz9qrxK2H7UsM", "name": "Ingbo Mill", "lat": 60.14871600000000, "lon": 16.83580100000000},{"id": "7f157631964e4e5389a28f9a89cc29db.16", "url": "http://lh3.googleusercontent.com/WriNMWETC1gTCuRDHkGgDx6gDLYV9m4r7On-qUV_zw8q8QW7jV7QV-2GPGmi-EElnXwzWqVqtcs9-bMK5ldcrwjFSiI", "name": "Upplands Runinskrifter 1175", "lat": 59.92904800000000, "lon": 16.97781200000000},{"id": "878e78ae27814b35b9cf308b5f8dd648.16", "url": "http://lh3.googleusercontent.com/KsyE0HoWX152Gp3wwnZsTMf2Q4Jwzi5xOOGMfZQgg73N3EWDyTc9bzHkgnj16Vb-FljfyDaH6BYbrFU6tDnkiFiImhc", "name": "Tärnsjö Kyrka", "lat": 60.15381500000000, "lon": 16.92034300000000},{"id": "8b0c7cd309ce40caaf3f4378a11d375b.16", "url": "http://lh3.googleusercontent.com/AdVyXThlfYOGJZIEhLn_oP7zEi_txiNR8XHquEu5WoL9o7UGeUJ_4jU9ASyhfTwZ4Arz5YtmJMd0auxgyNpE9xb0pA", "name": "Östa Camping", "lat": 60.17387200000000, "lon": 16.79633900000000},{"id": "8b28c56ce21d4ee19de0050561c27534.16", "url": "http://lh3.googleusercontent.com/UbiRMqQ_WsgdQX5PoUcyhkCyD0y9W7bqH1sHCiJ9foD4R85Uapymn4ae4X1rEuebFObdt5Y_OsPPHExysMcnAeA4jA", "name": "Östa Naturreservat", "lat": 60.15570500000000, "lon": 16.80547800000000},{"id": "8fc68d5d114247e394c38d71e3782715.16", "url": "http://lh3.googleusercontent.com/QQ42SkxHEOAiVW1V7sUvlJMFAhZWGk7YkkKU36OMZAuQ0gWngowq6l13fKtJINYt8KuQnM2mOwBjaWFFRK5sdT4ts8Rs", "name": "Runsten från 1000-talet", "lat": 60.18391200000000, "lon": 17.19253500000000},{"id": "92f02d99068643fe8a9f58da534fd896.16", "url": "http://lh3.googleusercontent.com/3-ASvuk_dWBwwWX5eToofgdjlLxwgngnnEV9t82N5xm0nQDXby9tLq26itn3ZljH3bY5hlhKFnzg3CAz6vL5dHK3Uw", "name": "Kyrkspången", "lat": 60.16030800000000, "lon": 16.90351300000000},{"id": "94aa2175ee5d42df873d3d4b47477fbb.16", "url": "http://lh3.googleusercontent.com/1WXasVEU5nmxzXjP4fkJKhwbA7fuuNxnWVNOhYU8HoBSMuIOFTDbBwRKQb6bqVqIfpLlRt-34ySuPhHk_U9mvIFA-mGC", "name": "Färnebofjärdens nationalpark", "lat": 60.16679100000000, "lon": 16.79898600000000},{"id": "a033551ba3f64d7a9e2c70f0fd29765b.16", "url": "http://lh3.googleusercontent.com/OBOYH6ULxwl1qF51x_QC2zqjzpu7YkizRHdJ17tZ_Iya-dI7i2ugeGf8g1vHOnPurSD0RgA8s__cjB4Ph3ZTlmH5vYg", "name": "Gammal Och Fet", "lat": 59.93801300000000, "lon": 16.86743700000000},{"id": "a1e2d22c0b914bf8a6f78be1644f096d.16", "url": "http://lh3.googleusercontent.com/grRj6Y_XYKxnai6PJ3zS-BBw4IZLDkgAWHvvAuNCuc6AekeqT779Dscng3se0cKZUkbiix3NWKwU9Vpk-PnC_TGiqIo", "name": "Milestone JR", "lat": 60.11019500000000, "lon": 17.21127300000000},{"id": "aa57f3b9a74146839ae441e5069dd394.16", "url": "http://lh3.googleusercontent.com/Z0qhMWfq7jEES1z0BzstOQV7uurTWkfWDyzxCVuWs3z49Jow-Omrjlq_C-CuMprEmckmK0CE5MQ2O76ZreWIrpNa3Dc", "name": "Östervåla Hembygdsgård", "lat": 60.18271200000000, "lon": 17.15745500000000},{"id": "aa616bb84f9a4ce6a24f41c079729050.16", "url": "http://lh3.googleusercontent.com/jC5NJpPJIXXSi-e-ih67zOFeQXrXW0PiZ3vybQr0KfnUaZ3_jVyCu4Nm3d70yJaGIriHQYk7nzXMCcPYy28WzDiRyqc", "name": "Tärnsjö Vattentorn", "lat": 60.15192800000000, "lon": 16.92828600000000},{"id": "bae84859423b39f897cdea21c46b57d6.16", "url": "http://lh3.googleusercontent.com/GSjTgcu1TRe_Co-rM1_DSlf-GyAaMovoQKr34an3jPonHVRySYq7H_4Syx7uhp6fvsbdk8ZXvjKqIreuEvA0KeXrNzO8qkxyOQBZ2Zg", "name": "Utegym vid Adolfsängen", "lat": 60.19025900000000, "lon": 17.16409900000000},{"id": "bc9d22dc75514a9db8e019d92e6e3bf1.16", "url": "http://lh3.googleusercontent.com/uuDpkV-uBtBF8iBGZnWX2QnwXAvhroILPXtZVglEQKP_9rpqjDhlKpW7QmO6j6zgFLHAj7qX_a4SQR6lhhbJnxKEnV8", "name": "Harbo Kyrka", "lat": 60.10524600000000, "lon": 17.21403000000000},{"id": "bd828e465c7d49edb396325dcd9ca2de.16", "url": "http://lh3.googleusercontent.com/CkKW03Kpu7A1g3txX_CjDbEC5qbY9nj_-86BtqcZn2kKgPhOoaw3Uxgzjq8cwpmCWhpmV0Y17AFCBnQ7IERiel886w", "name": "Minnessten Efter Sjösänkning", "lat": 60.10541900000000, "lon": 17.20024500000000},{"id": "c02ecabd767d44caa75e4d25c27c8f73.16", "url": "http://lh3.googleusercontent.com/jQ_86pzNTOJ0-cYo6hAK6ZCUiPPpjonC53G0kJoR9xqADuoQZ0krlOOk4ExjjULiKZz9pw8DDnb5LcXEr32O3ietqy5nVwqL7jmJwsM", "name": "Folkets hus", "lat": 60.15687500000000, "lon": 16.93294400000000},{"id": "c341114c3c594b548e28463336e453e9.16", "url": "http://lh3.googleusercontent.com/nnkjo5UYtTL9z6OFa0Pyk1BVT8cNcuzcmoKUTr19c-PW5Nfcp7CAmW62zxSQuwMZG7d30-TiRzYXgysDy-OQK_565Q", "name": "Aspnäs Gårdskyrka", "lat": 60.18193300000000, "lon": 17.32006100000000},{"id": "c3e757e7490a497fbb5b3e34ca696e9b.16", "url": "http://lh3.googleusercontent.com/XOIzkd2yTOd_MXX9YTI0hBTJlOv7imPpzSK39KynaPtYrc9n02caD_xAdlw1guJJenAY9_-o4QY1rbn-7L5sa-Vew16J", "name": "Lekplats", "lat": 59.93774700000000, "lon": 16.83439500000000},{"id": "cc5f7a0ad98540e4afb174d07395ed5c.16", "url": "http://lh3.googleusercontent.com/9H8j74u0DQyBBSAYQ1Sc-cnXSPXwUdIPS_9jh9CSQG7U0Odb26hx08KQYYkaKsNmvVw3go-Sv-uVCIvvL5FVCkirXEc", "name": "Tärnsjö Missionshus", "lat": 60.15311700000000, "lon": 16.92974300000000},{"id": "cce5e6c01fad4a08baea392542a28458.16", "url": "http://lh3.googleusercontent.com/SPVkZXi5NRHtGn6mA9p6i2qIyBa1anOvumQGtUff5MLPqa56Eo5lPvORkGnMSOELLX6CnZrDaVvcaw7BErSsXPM", "name": "Huddunge Kyrka", "lat": 60.04895700000000, "lon": 16.97997500000000},{"id": "cd27d291fee34917b846303d5d761bf6.16", "url": "http://lh3.googleusercontent.com/GZ_mtkebQ9inqs_PfH2MaVdH8qAu7FxricwQHlCqWImm1hQYHVrgm88kujGcdSBdqTBrh6oIjNJDtG1c9FhnQs41oXxIRqjkya4PUipWdg", "name": "Lekpark på Torgvägen", "lat": 60.18069000000000, "lon": 17.17854900000000},{"id": "cf5f696652cd44eca1da03f6bab94127.16", "url": "http://lh3.googleusercontent.com/WB0Zj7BkHXVspaSFAa5PLg68C0hLNLvxB_RbQsUQPP6JEj9JfdiSuRVYfRBZ4fWEn-A2g3KsFJrdAf9ZG7d7jxepl48", "name": "Heby Folkets Hus", "lat": 59.94060800000000, "lon": 16.85835900000000},{"id": "dca7e7d6cd0e44de8a29c368c4f5284a.16", "url": "http://lh3.googleusercontent.com/oeKVxyFHBmEtnOH8Zti6n5GBACK44bba5Xn0lWlGnuqVe0vJ6oa1eNvRHYpprp8oAZsddHsJ8FGxFlT3DKr8lsI-iIY", "name": "Färnebofjärdens Nationalpark", "lat": 60.21226100000000, "lon": 16.85355300000000},{"id": "e5475f5456354b009a11a2a3067223b8.16", "url": "http://lh3.googleusercontent.com/01t5zuIDke3K7AN2sydJ3L967ggkHmhrgOWTT6GGmnmYEgrWg1C5h19akMypIWgObCiFJ7yOVcMTPEay25dbsx1juw6C", "name": "Östervåla Kyrka", "lat": 60.17882500000000, "lon": 17.17766700000000},{"id": "e6dc9ddbdc4c37ce98ff29b4cba1fe95.16", "url": "http://lh3.googleusercontent.com/_dtP6wPIt-UL828JlVVOlXjbJ6fCraT1DbOd5EAktdMkAgq16FEGZ0egI4W6HnjfwlyzsoL5r1m9ZjlnZMekg2la1kchA6lC5YbPIBY", "name": "Heby BMX hall", "lat": 59.94420600000000, "lon": 16.85215200000000},{"id": "e83e50d8dabf4417a3e8d4eb1c9196cb.16", "url": "http://lh3.googleusercontent.com/CW5Lh9TL3NFZdkpJqt3j8SAJTvhhQ2JghrRV-O5YOXZcja9_LxczwwHIvy7xauXc56Pc2Yjwp7vZHF2jSV3at8D4Dgk", "name": "Heby Kommun informationstavla", "lat": 59.87394100000000, "lon": 16.92342800000000},{"id": "edebce588a354a86aacf50ab7fd45ea3.16", "url": "http://lh3.googleusercontent.com/kttKpFQrGUchbdjafAe-SKH_LF3FxvBWQc1aHPIHGkdt4LmR_AF9fItLWwnmMdhzojVWJE2vcssideVHWGYxYMWHlPY", "name": "Motions- och skidspår i Östervåla", "lat": 60.18680000000000, "lon": 17.17031000000000},{"id": "ee0656b4cfe04bb3b8e1b857326ac04a.16", "url": "http://lh3.googleusercontent.com/zIZkKZI8SA7LEI5eHKQT99AcrStyvxOhj0_INOVqC4BRh2XISaJiFdgPa2t0pw7VDETDJxGJlpiUl68PiGX3_1uH7lQ", "name": "Lilla Snigel Akta Dig", "lat": 60.15231700000000, "lon": 16.94523500000000},{"id": "f033b79954984c5a937a9454f8a0cdd7.16", "url": "http://lh3.googleusercontent.com/ENdyHXLkP81YrqsvyGUhEBiUJx7pxZ6fwtieStVAah73Y-dO7N_n8zyTcDxfH1dC3Ypizzyp2RGIwr6QeWaWqwpnaVuJ", "name": "Älvlandskapet", "lat": 60.21232800000000, "lon": 16.85093700000000},{"id": "f5818b1cfa6e4bb5bfcc3a2a6d8d6a43.16", "url": "http://lh3.googleusercontent.com/hsOMyWzHxhNUd95vNEus-_Vg598v4_EYTCa0UgG_ilOv-qE0SdKPk3HaVjtZvhfN-OYJa1s05NcmAPOe0Ia-BzL65Vk", "name": "Vittinge Kyrka", "lat": 59.88857700000000, "lon": 17.00051000000000},{"id": "f765b6da4e2e354d8f6ed21b501ea831.16", "url": "http://lh3.googleusercontent.com/YFAyY56cnreBPipsu323DMpsjtrk-5qglh7SFASEPK0d5KMGDux1dCkEhMy8TAPhJ3C-ZvSqR_8Djrs6whrl4nY3b6IuObiEb8JOMUbC", "name": "Runhällens lekplats", "lat": 60.02723800000000, "lon": 16.82626000000000},{"id": "fd88686a833649198bd38448e71d5785.16", "url": "http://lh3.googleusercontent.com/3JYsnYPHBZ1dQa0w7o5nQ2nOegcjz1mg5f-qjAIHknNxWn_ucq7nWJ6vHxca15lqoMrVk_XFT2ei0tGRpXOdAZrgOCyL", "name": "Heby Centralstation", "lat": 59.94010900000000, "lon": 16.85260200000000}]
