[{"id": "00acc46bf95e4c9d98da1fea488a9851.16", "url": "https://lh3.googleusercontent.com/0n_esRJ2pwTCBb89PsiB3KlVZE1uRholZEjxX-c8Q1chj1ELAPaIaNBjRula7YGwJyA7kdk6U7Fhv0pgnOk9IX1nEik", "name": "Vidja Pumphus", "lat": 59.19932800000000, "lon": 18.07137200000000, "team_id": 1, "available_slots": 0, "bs": 736, "bc": 10, "rs": 87, "rc": 9, "ys": 0, "yc": 0},{"id": "00e3bfe3d5f544c4b5e3ac5d88a7cc71.16", "url": "https://lh3.googleusercontent.com/hl4Cf51ZNxnRhjwffTQGOwGjlIdTN9946UsEqUGAzJCikA-R0T4iKPC-e9jkgeOmMAmWJhF9C66T9YVmZ2OgnHedoeA", "name": "Palissaden Lekplats", "lat": 59.28099500000000, "lon": 17.92886300000000, "team_id": 2, "available_slots": 0, "bs": 36, "bc": 75, "rs": 37, "rc": 76, "ys": 58, "yc": 67},{"id": "015c2bf60e794c248981eb6357288fed.16", "url": "https://lh3.googleusercontent.com/pxowZ9J_-SpTuu_iRSU0pAdH8Kx5rxPhxRLg1Gd0BbIqp8d03FrZm8bporglDRzwCm-U0isMF9H37PdqafDaqIaBC0c", "name": "Visättra Sportcenter", "lat": 59.21659100000000, "lon": 17.96273500000000, "team_id": 1, "available_slots": 2, "bs": 53, "bc": 84, "rs": 37, "rc": 82, "ys": 26, "yc": 72},{"id": "01b23379dd7845ccb377a5ae6092f428.16", "url": "https://lh3.googleusercontent.com/dgsM3bhN7IlCclr3gRE6NCLDYFxe4smOAQuENULsf4AC7m5yowgp8Gb5Zt3OzYWhLH6EdBeLK4BI6s4QOfrpxEekoQ", "name": "Hinderbanan", "lat": 59.21752100000000, "lon": 18.16316600000000, "team_id": 2, "available_slots": 2, "bs": 27, "bc": 72, "rs": 66, "rc": 104, "ys": 18, "yc": 42},{"id": "0204e0106ad341569a0554f23fc78975.16", "url": "https://lh3.googleusercontent.com/BqqZtaEYr-UH_NyjovGa7GKa2CFSrXb9yPSFMd25Cu4n4RzPvVFcZNZqoVibW9WE3M9ImOE5OdTNtlWFPJP57e8mtg", "name": "Huddinge Tennisklubb-utomhusbanorna", "lat": 59.25075100000000, "lon": 17.95184700000000, "team_id": 3, "available_slots": 4, "bs": 55, "bc": 45, "rs": 55, "rc": 41, "ys": 86, "yc": 55},{"id": "031a04ac7983410e8c2280bd5c068d10.16", "url": "https://lh3.googleusercontent.com/W7UZLNq1ca9eXwXkhF6LuTQEVK53N3_90ZsJkMIk-DQF3iOHsK7IhYLPr4MVmUKRmzQsriESvDKMX1RRc-iBvL0pwJae", "name": "Balingsta kvarn", "lat": 59.20259700000000, "lon": 18.03247000000000, "team_id": 2, "available_slots": 5, "bs": 472, "bc": 6, "rs": 207, "rc": 3, "ys": 729, "yc": 8},{"id": "03fdd31716a3417da78c6257f985acbb.16", "url": "https://lh3.googleusercontent.com/EQozwHt_lQGSCQZDqtx63B52fJ7VK8_gzCB5jG4JWB5ytUSwW_FWBUzaE0noYDHnJ2PR_PIL8ngJlfVxvaTgvNrCnbn4", "name": "Röda skutan", "lat": 59.25761800000000, "lon": 17.87989800000000, "team_id": 1, "available_slots": 0, "bs": 124, "bc": 23, "rs": 176, "rc": 28, "ys": 63, "yc": 23},{"id": "0407968f5e0b3cab879e40fb8ef7a661.16", "url": "https://lh3.googleusercontent.com/2z1eB1cEBxlZy6A-Rf1Q0xkQQdBaTLhbTPTzLeGl17Tu623lrMRdiOf-QJvobOJHgwKAVidpJrMJ_19vKH5Rnd4lyTcxhSEXN0TKIDM", "name": "Rastplats med utsikt", "lat": 59.20455500000000, "lon": 18.03953400000000, "team_id": 3, "available_slots": 4, "bs": 567, "bc": 4, "rs": 996, "rc": 3, "ys": 513, "yc": 3},{"id": "04178cf626cf4d8598d394ea65ff0af9.16", "url": "https://lh3.googleusercontent.com/YZajT9CFo3vcymX0U54Y7atr6-3IZkjH-ByvJuMrhN135ti7D3bqHUQVu9DhMLfnmqAoKREG2g0BmAZhovuPLUE9WA", "name": "Gömsta äng, naturreservat", "lat": 59.24367700000000, "lon": 17.88401300000000, "team_id": 3, "available_slots": 5, "bs": 271, "bc": 10, "rs": 129, "rc": 8, "ys": 103, "yc": 3},{"id": "04ab901b985549aeb3a7b3c98a80975a.16", "url": "https://lh3.googleusercontent.com/Bpq0ZufEz2356zpPxidHfZukEc-zue6aE1qREDZgaT0f-CYvcnOuk-_mQqKVlvW4x3gU2RnfI7QiDbtiWiK8ZtHoBd3_", "name": "Plant Mural", "lat": 59.26442500000000, "lon": 17.88477500000000, "team_id": 2, "available_slots": 1, "bs": 37, "bc": 173, "rs": 14, "rc": 85, "ys": 16, "yc": 122},{"id": "05d320905df0436c9dd2412fded858ef.16", "url": "https://lh3.googleusercontent.com/NQlraAOTj7HHg21ZH98WOuS5zVj741KM39DIfp9rFsrwsMTJNh2YPHu3TYGIhnWobHAyiJQLDjM6bu4fhMWKhARdtaR8", "name": "Vårby Gård Slott", "lat": 59.26359900000000, "lon": 17.87597800000000, "team_id": 1, "available_slots": 3, "bs": 191, "bc": 14, "rs": 161, "rc": 17, "ys": 200, "yc": 20},{"id": "07475c921f354424814dda8cc1745d61.16", "url": "https://lh3.googleusercontent.com/JUzZKpDwrvFAnV_Ps4_r3x8zSZWSS3l6XZmfBK2MS3w3JdsSTfoc9KYDghoAtNJL_4ewnZIJD6xiz6Am5do9ItXyPBLy", "name": "Trollörtsbackens sandlåda", "lat": 59.21950600000000, "lon": 18.00266000000000, "team_id": 1, "available_slots": 5, "bs": 23, "bc": 240, "rs": 6, "rc": 32, "ys": 17, "yc": 236},{"id": "074b6c2731584652bbcb82a90c098623.16", "url": "https://lh3.googleusercontent.com/Q8Q8qgSNcVny2fVbrkzqQ3LHQl4W0_1uy36Y-jZ1KGYVAHBAATAJ_mGPGFpK4W_fTDlxfkVItMNFsO9FgBYiPXzmspec", "name": "Flickan med dockan", "lat": 59.21759900000000, "lon": 18.15369500000000, "team_id": 3, "available_slots": 0, "bs": 24, "bc": 123, "rs": 12, "rc": 82, "ys": 33, "yc": 166},{"id": "094ef8937c5f422c8aa4def7da84418c.16", "url": "https://lh3.googleusercontent.com/osRKgoGRrQz4gR5262eJb6SETBHdHJlqAk4q3jCAxjUpMvW2bkq3q-T7OkIuqPUWM5_4drH6RAGgmbPD5stZIb_R3vM", "name": "Loket", "lat": 59.21376000000000, "lon": 18.16482500000000, "team_id": 1, "available_slots": 3, "bs": 67, "bc": 91, "rs": 25, "rc": 36, "ys": 33, "yc": 76},{"id": "096f5488479b40a2931642bf71c33064.16", "url": "https://lh3.googleusercontent.com/Dz5k8tPwkJIqqCOyB5Cu2wBjXqP-Ig67F1Qi-LCL9Xd6369dDaURPk2GambtIWuxXC7UVenG9lMSAfnA7c0hWpg42Ck", "name": "Lille Prins", "lat": 59.22668000000000, "lon": 18.13129100000000, "team_id": 3, "available_slots": 0, "bs": 27, "bc": 105, "rs": 35, "rc": 128, "ys": 25, "yc": 87},{"id": "09c598a125ef3470858ae90777e27502.16", "url": "https://lh3.googleusercontent.com/2r_eGzco4av9pFo7uV45xeossBYJPYzwg1nJTFezU-6BBbVZtqJrGiHJOE_22Cnf-lY0R4pqv1CgF8Du8swPqpBF22IaYbFhkKVqDZfA", "name": "Nyboviks tennisplan", "lat": 59.19307900000000, "lon": 17.97477000000000, "team_id": 1, "available_slots": 0, "bs": 0, "bc": 0, "rs": 0, "rc": 0, "ys": 0, "yc": 0},{"id": "0b267055f4bc4b548c3f936cd7d8af75.16", "url": "https://lh3.googleusercontent.com/GpCb5obbY5ClCOIJEeAKza3NL4R2i03fpRjn3e6j-7e4_TuaHxUwV0_VvAckWnnymfhCUSz859ns1mKtWZmyOryuvQ", "name": "Sjöängens utegym", "lat": 59.23415400000000, "lon": 18.15562000000000, "team_id": 3, "available_slots": 4, "bs": 25, "bc": 80, "rs": 72, "rc": 64, "ys": 41, "yc": 66},{"id": "0c924f54a4b847d8a1773027ae9be09a.16", "url": "https://lh3.googleusercontent.com/Bi9cYnRm8dpHGtW2unEpsIi1PZV_tt725dYP3PdZireRncqVjMECRknr_evyMzXYsBtHwaCBmfGC37CFLeIeTW2mrg", "name": "Björnkulla utegym", "lat": 59.21151100000000, "lon": 17.94000200000000, "team_id": 1, "available_slots": 2, "bs": 58, "bc": 48, "rs": 59, "rc": 55, "ys": 61, "yc": 54},{"id": "0ce3150e0d9f401ebb067dbe4c0ce686.16", "url": "https://lh3.googleusercontent.com/db9QDCqqdn5BuQqS0i3LTZMal-xA96QAjQcgYDF546BpiPIbaUqDoz_Y5G71jxL_KbJa8wrOysQM7m9fgZnOrxBLVg", "name": "S:t Botvids kapell", "lat": 59.23657700000000, "lon": 17.88733100000000, "team_id": 1, "available_slots": 5, "bs": 193, "bc": 37, "rs": 34, "rc": 14, "ys": 55, "yc": 35},{"id": "0dbd1b3c35f330ee9fd577fa33d5c347.16", "url": "https://lh3.googleusercontent.com/g4RdZpXLQca78FUUxDoJemnEBz2XQyvwqwCrynGmTfJYI6Mi28nC4yrlXqnBLCEVuoQzvJ_NLvDmbXIwEj-WF7a2CZLvDfp85q8xki0", "name": "Vägvisare Huddingeleden - Vidja", "lat": 59.19851300000000, "lon": 18.08907100000000, "team_id": 3, "available_slots": 4, "bs": 0, "bc": 0, "rs": 1611, "rc": 1, "ys": 0, "yc": 0},{"id": "11092ff103c64a7cad4dcc864e3b9613.16", "url": "https://lh3.googleusercontent.com/_80YsJAuYrwg4KNdMM1X5HrSqaICYWe1eKvqvt_0lf8PP0Dv1E8Apoi7M6IyLO04r0TJQNvNPaLy6Kaxb72ydXyayS4OJY-hjo-NGhSv", "name": "Björksättra Smedja", "lat": 59.18614300000000, "lon": 18.04272300000000, "team_id": 2, "available_slots": 0, "bs": 0, "bc": 0, "rs": 0, "rc": 0, "ys": 0, "yc": 0},{"id": "1110ee3f093d3f199d5e98113e350305.16", "url": "https://lh3.googleusercontent.com/up_25yByPl3riIts4rqm2RkE5hqkGX1DJCuPRGQPkmTH-jFRrYDh9IOE0S-CeIpbtkdoF3-R_G0lO1ZgNyqa-H_arf4KJzb-R_m89TFUjg", "name": "Nynäsleden - Västra Länna", "lat": 59.20378100000000, "lon": 18.13176200000000, "team_id": 2, "available_slots": 0, "bs": 105, "bc": 43, "rs": 58, "rc": 26, "ys": 91, "yc": 36},{"id": "113dc42bb131477c9332b79d960e87e7.16", "url": "https://lh3.googleusercontent.com/-p73hjXrZesbd4QigYO128c_tsgp2dz7fqn08-P_msW9cZIqOL967o0EHj6zqDN8jrAOS4SPoDC699pJV2XxY632wKw", "name": "Rutschkana", "lat": 59.21174900000000, "lon": 18.16740300000000, "team_id": 3, "available_slots": 3, "bs": 19, "bc": 88, "rs": 16, "rc": 22, "ys": 73, "yc": 102},{"id": "12a4299625994b5ebb703484a9cdb64c.16", "url": "https://lh3.googleusercontent.com/KGEcG1IDG0ipE9LLF3yhorEEbDaryohIhNxCk4rx7mMr5IskQ8KIEGDJGOVvzJ87IXll1RpaQautNno2iy1GWfAl98w", "name": "Skulptur i betong", "lat": 59.21833600000000, "lon": 17.96444100000000, "team_id": 1, "available_slots": 5, "bs": 85, "bc": 62, "rs": 47, "rc": 54, "ys": 47, "yc": 36},{"id": "1402db0aef0d49f0823948ddfc2f3958.16", "url": "https://lh3.googleusercontent.com/OfrwiiPZypOIv9bamLTxZZBw6CZ3jlYkVZbc66_FqVVWVYitK94N11kN8MUuFT2WaV0O4xdtx8_6pj9SPsgja4wXSXQ", "name": "Elhus Graffiti Forsvägen", "lat": 59.23623500000000, "lon": 18.13903000000000, "team_id": 3, "available_slots": 0, "bs": 34, "bc": 44, "rs": 83, "rc": 48, "ys": 87, "yc": 44},{"id": "146ade78d96931449c314767024f5213.16", "url": "https://lh3.googleusercontent.com/bRuz_SY4k7J8-T6zJU7Fk7lw_feYqVPzlxUZgb_sbSwizhDvuNR-e10AObtN5acFawGNzdIXyvLTVnbsCddpy0yl3lej9AgNcaL4PLxHLg", "name": "Vista dammen", "lat": 59.23860000000000, "lon": 17.94816000000000, "team_id": 3, "available_slots": 5, "bs": 13, "bc": 46, "rs": 10, "rc": 38, "ys": 21, "yc": 45},{"id": "149b4c50cb2c4ed2801c4eb0166ae678.16", "url": "https://lh3.googleusercontent.com/lfuAZfYEdJeRABo1uFOJJpFuMAWxc7NHI1-bM0Xh58D5un79GaX-pYfyTKm6KVDWgMHVY6X4wUY1BWu-lKgM3eSPRJU", "name": "Snäckan", "lat": 59.24951700000000, "lon": 17.95189800000000, "team_id": 3, "available_slots": 1, "bs": 32, "bc": 111, "rs": 24, "rc": 87, "ys": 33, "yc": 114},{"id": "14ad0ad68a8c391db1772505d51495e8.16", "url": "https://lh3.googleusercontent.com/QdTE55Kwufemz-sZnX4TrO35OEXsbmZyFoT94TxC5lKcq82bHFU59TnRP1YGhjortmWtJS7Mt2uE5lGAps9D-Z5X-CxPchVqMkSx_1xuwQ", "name": "Vägskele Ågesta motionsspår", "lat": 59.22122900000000, "lon": 18.10441300000000, "team_id": 2, "available_slots": 5, "bs": 150, "bc": 7, "rs": 249, "rc": 8, "ys": 246, "yc": 8},{"id": "1522d2bad63d4ae09aa29d6701292559.16", "url": "https://lh3.googleusercontent.com/BEteKDFZvSij8KIq_CaX6n6SaOjVadQ1LIHSgQJ_eZfI2_0AjXBMuY5kcN6JysR_aoCRcLrWVsNbO7HpH_qSh_IvGw", "name": "Stenfontän", "lat": 59.24311300000000, "lon": 17.99626400000000, "team_id": 2, "available_slots": 1, "bs": 12, "bc": 260, "rs": 16, "rc": 250, "ys": 12, "yc": 201},{"id": "164b04d265d84a21a68419aff939ca08.16", "url": "https://lh3.googleusercontent.com/3yzvM13iz6APrxkAcqbwdxFkj2HeuJROLLkkDYNUjYFTy0AuNZziGSbjdPw5pkIr2vtLRTWYpS8fdzi-EOhyCdifa4M", "name": "Huddinge natur - Vitnäsvägskroken", "lat": 59.21564500000000, "lon": 18.17296800000000, "team_id": 2, "available_slots": 4, "bs": 90, "bc": 52, "rs": 56, "rc": 50, "ys": 47, "yc": 42},{"id": "178a3a1965de4b70a6902ed1570b078b.16", "url": "https://lh3.googleusercontent.com/1CJ8o-HhWf6mVOb-Zy0ujrYjnxO0gZlr34VMn22e_NmZbEIRm1WyS7N38kfCqCUOJbYjRgSOvN7lsKU61ATcQnDQpmZDwREZfhNo0j4", "name": "Märken", "lat": 59.20982600000000, "lon": 17.94186200000000, "team_id": 2, "available_slots": 4, "bs": 56, "bc": 31, "rs": 102, "rc": 48, "ys": 74, "yc": 37},{"id": "1915b4ff7bb03003b4291e51a3c30003.16", "url": "http://lh3.googleusercontent.com/c-DE4sH1AoRet853P797pWLdBYlsyctlsFmrR3Ms5ReAHqhiNN4MA1j5x59Lk3qQrT_bUOF9bbfRQc2MwjFqF8sk2MEH", "name": "Grillplats vid Gladöviksviken", "lat": 59.19491500000000, "lon": 18.02227200000000, "team_id": 1, "available_slots": 4, "bs": 0, "bc": 0, "rs": 0, "rc": 0, "ys": 0, "yc": 0},{"id": "19aaa05c992e4dc58f0c082f79023596.16", "url": "https://lh3.googleusercontent.com/Zy7J_cwEcOhfYzD6Bw1XznoDHpFzJA2ZbKnHiy24-up_QsE6OKOjlBArwy-0rjFfYgxqssbggJdkYPYaDpSRTJO-1Q", "name": "Knalletorget", "lat": 59.26086800000000, "lon": 17.97337800000000, "team_id": 1, "available_slots": 0, "bs": 41, "bc": 94, "rs": 38, "rc": 87, "ys": 30, "yc": 81},{"id": "1a2a17d1bcbf3ead968d8f4d7ff24cf5.16", "url": "https://lh3.googleusercontent.com/_IU14WtDA4pjBUqHGLrqTvh2esKmKveFFposTiOkWtP56RqGScYQQReRDrT937VwE4NYtaycElOdJ8VVokMNU17y19CkKO9d5VKw_xa9Bg", "name": "Vägvisare Charlottendal", "lat": 59.21799800000000, "lon": 18.02824200000000, "team_id": 3, "available_slots": 5, "bs": 215, "bc": 16, "rs": 94, "rc": 7, "ys": 287, "yc": 17},{"id": "1a520fdd6e7b4df389aac40603c54106.16", "url": "https://lh3.googleusercontent.com/dZsZ2CCdsozasapBeVefGHfnVWDLWJJGgS_Q6amu-2ExAymTVLICLHMO0Ag3ExTLK0YjqX19XlmPCiWbN1jMb8086Rw", "name": "Kungen i Kungens kurva", "lat": 59.27137900000000, "lon": 17.92085600000000, "team_id": 1, "available_slots": 1, "bs": 39, "bc": 88, "rs": 38, "rc": 105, "ys": 23, "yc": 91},{"id": "1b32c10ce0d04611b1e47beb6e4b3681.11", "url": "https://lh3.googleusercontent.com/GrrDg1oEIUlRKKY13UPmWdHUDklnauiYYC4Kd8CAXdPBW1EgFVR9wSh5X6ifErfiTvHA6MTnJAdcoWEoBelinJAl0g", "name": "Mimi", "lat": 59.23461300000000, "lon": 17.98394200000000, "team_id": 3, "available_slots": 4, "bs": 16, "bc": 235, "rs": 9, "rc": 130, "ys": 18, "yc": 255},{"id": "1b5a7e36ed934eebad91d07db15a72ca.11", "url": "https://lh3.googleusercontent.com/TjkXe6LT6MDCTIRSN6Ealbw2Xq9DzK8TYhvLjUbqbc27EabMMgAg-hdEpMnVxYeE7JCO14aZuGVGN0s5NI_MU--D6Kg", "name": "Snäckan", "lat": 59.23691700000000, "lon": 17.97956800000000, "team_id": 3, "available_slots": 2, "bs": 14, "bc": 346, "rs": 9, "rc": 279, "ys": 9, "yc": 261},{"id": "1b633ebb94b8477b990464fda80e4d72.16", "url": "https://lh3.googleusercontent.com/yWH9saUtKkkBAfNT8NeG6u6BwGoAP4pZPJGzuABzHxNFTEoQv7ovV8EnSxEqRLXEQ002EUby7UoH088BjDYH5-sMcg", "name": "Hedenhösvägens lekplats", "lat": 59.22672700000000, "lon": 17.97805000000000, "team_id": 3, "available_slots": 1, "bs": 8, "bc": 156, "rs": 13, "rc": 73, "ys": 37, "yc": 196},{"id": "1c27eeeffeb04700b59964505a20b8d2.16", "url": "https://lh3.googleusercontent.com/55doLnmXT5pWzEd_Q2eFC5NAWH5joVli3knFlVNNgtm2pkMv1bQj8QIfmLOS7Yw51as97sxdanZaBGkSz2lEgBoN2wc", "name": "Kentaur", "lat": 59.24142200000000, "lon": 17.99423900000000, "team_id": 2, "available_slots": 0, "bs": 23, "bc": 166, "rs": 22, "rc": 171, "ys": 17, "yc": 117},{"id": "1cb5a720bc1a4a9c9b11b9345645828a.16", "url": "https://lh3.googleusercontent.com/th9dE2ecJ2z0XlUJ5a6znv_HYvWV2xJuJJ3x80Xnl-vSpo0ca1QcKO1NEjKKvo85m56wSAbI6K65xFuPYnqaJDsihYM", "name": "Huddinge Kommun", "lat": 59.22834000000000, "lon": 18.08741000000000, "team_id": 2, "available_slots": 2, "bs": 99, "bc": 34, "rs": 114, "rc": 40, "ys": 80, "yc": 20},{"id": "1ecd9ff865934e48b5de0b1d31a66ba2.16", "url": "https://lh3.googleusercontent.com/3zdKZB2pK8KWzxTqtk6EPIApsfCho1dSbMAymx0AncROzX13dmxUb81R7GLdQRHmul9MdKVvei6AhHhSMDqUMqEQ_PJFj_BRnAM0NRLg", "name": "Säljägarnas Plats", "lat": 59.15430900000000, "lon": 18.02766000000000, "team_id": 2, "available_slots": 5, "bs": 0, "bc": 0, "rs": 0, "rc": 0, "ys": 0, "yc": 0},{"id": "1f4524195c963398bee161826172abec.16", "url": "https://lh3.googleusercontent.com/o7ar_aMEP7pXC2PX--ccbNwsblEfTREBKhWxvuy5pS9zr1aKG3xS0UsJAptWJhik0DqkgeLQR8XNyfkkUBWM5PdwqkIBydl9KjGrF7o", "name": "Playground at Hoppy hill", "lat": 59.23571900000000, "lon": 17.95066600000000, "team_id": 2, "available_slots": 4, "bs": 14, "bc": 50, "rs": 18, "rc": 29, "ys": 17, "yc": 34},{"id": "20bebc30020f43a39558a139a73edc12.16", "url": "https://lh3.googleusercontent.com/R3XANFJKhrk7yYujFhzqBFAEdkW_y14wt7Ezk3LYczAu0gZCM4vZzFUWp7JY0wwTzsXdH-ygvf3iY6yFNQA8FFDqfiyAnXjZu0j03M3T", "name": "Kalkvägens fotbollsplan, Balingsnäs", "lat": 59.22267000000000, "lon": 18.01230700000000, "team_id": 3, "available_slots": 0, "bs": 208, "bc": 34, "rs": 84, "rc": 12, "ys": 44, "yc": 26},{"id": "20dab0972ad442e58c4c40f698159c40.16", "url": "https://lh3.googleusercontent.com/0gDdOzzlJ5PG1iVI0Yw-cDJvAiVrYIxBeqTppiHsiGoXv0tCRLy3cD0yOKXt9l_JUZUFJ1Azrw8gMST6I7jLnabUeyp2", "name": "Torpet Mellanberg", "lat": 59.18600500000000, "lon": 17.99372700000000, "team_id": 1, "available_slots": 2, "bs": 0, "bc": 0, "rs": 0, "rc": 0, "ys": 0, "yc": 0},{"id": "2143145c3e94456ca3ff5783c99d676e.16", "url": "https://lh3.googleusercontent.com/lLLiYUFcFf55oK5Q8Kk9JV5G29O6bxlS4BFLoAfZ7wRcxz98NbT8BasmkRfbiQnJbwGigNFU9rXY68MUfQL5OwQMt3A", "name": "Fornborgen Mariaberget", "lat": 59.16349200000000, "lon": 18.02594100000000, "team_id": 2, "available_slots": 3, "bs": 0, "bc": 0, "rs": 0, "rc": 0, "ys": 0, "yc": 0},{"id": "27296b2f70f0430592919467fd8fe87c.16", "url": "https://lh3.googleusercontent.com/xYHBPHLyhWGi9cwLyx0IOA3JSxj8VgcQ1IIdnWBwF_YTvNlshueK2BhYfkqTDAuxlz2GPWhGi9JuEZoPR5YcJbokcJ8", "name": "Välkommen till Paradiset", "lat": 59.17125300000000, "lon": 18.03772400000000, "team_id": 1, "available_slots": 0, "bs": 0, "bc": 0, "rs": 0, "rc": 0, "ys": 0, "yc": 0},{"id": "275476512d884eeb892812ae20161aac.16", "url": "https://lh3.googleusercontent.com/8a_2Drik9eRPa8pvmkM0pqBj78ox9pcZabFAGl6maGxNdkm2vhiUXjiiVya0F55dclgm_EZy_-Uw81BDqxAyPi3UtXTQAVzKnByi83gd", "name": "Björnkulla Boulehall", "lat": 59.21057200000000, "lon": 17.94058200000000, "team_id": 1, "available_slots": 3, "bs": 43, "bc": 61, "rs": 60, "rc": 59, "ys": 51, "yc": 67},{"id": "27e2923cbb1642a4872f9c5508f3aa13.16", "url": "https://lh3.googleusercontent.com/wb0vZihNUU-5lfWz58lAIxQUMu8-_IQOLnJti5HmYooCq6dpiI31TmXEJ3kkFP3MJvsRYgTMqxUzkcoG7qnIayo7xCTl", "name": "Magasinet", "lat": 59.27255500000000, "lon": 17.92969100000000, "team_id": 3, "available_slots": 5, "bs": 24, "bc": 126, "rs": 17, "rc": 70, "ys": 39, "yc": 137},{"id": "27ec3efe49d24cad9e35edd570ab1c04.16", "url": "https://lh3.googleusercontent.com/KqBE5vEET3YN9_hyfRkfLq0_BBfU7THjE-nu-Qg0uz75DSJSt9HVk2RSdOU0cwa3s4ULfoMz35BpBkztbTk4TLpjmPw", "name": "Lissmadalen", "lat": 59.17639500000000, "lon": 18.07547000000000, "team_id": 2, "available_slots": 0, "bs": 0, "bc": 0, "rs": 0, "rc": 0, "ys": 0, "yc": 0},{"id": "28b9a8bed83d4ab394ca8fa366922a19.16", "url": "https://lh3.googleusercontent.com/5bUQzC5CZpHhIgT4Px1h_3Saol0ro4sQ9xMJhbwtpDCBDJchTOwExW33r1W2jNrHuJkhSDEvRYFwPtIt5WDZCqmEPKU", "name": "Växthus1", "lat": 59.23631000000000, "lon": 17.97670700000000, "team_id": 1, "available_slots": 5, "bs": 22, "bc": 143, "rs": 32, "rc": 125, "ys": 22, "yc": 110},{"id": "293ac8c61ee746a58593ac6a175e5a16.16", "url": "https://lh3.googleusercontent.com/52dDmVaShtGR6DFpcyM4vmw0o_XqCWhbr27MpKozeocQJwzTRxE7VA1OpG_kcWYOkLaPQKsLEATSep4z9kYGkiQhDS4", "name": "Skyltkonen", "lat": 59.26814500000000, "lon": 17.91020100000000, "team_id": 1, "available_slots": 0, "bs": 31, "bc": 133, "rs": 24, "rc": 117, "ys": 22, "yc": 115},{"id": "2a1771848ce54cc184bbb0f8cc478b67.16", "url": "https://lh3.googleusercontent.com/KYUGtXYsJ46mXztjILcfm7uhEid2xL9jxLhg_0SOo5VMgqveZaH1d3WaE3m_fmQjMAyG0MB2BnMqo5OqcMLVVapM-g0", "name": "Natt och Dag", "lat": 59.22124600000000, "lon": 17.93715600000000, "team_id": 1, "available_slots": 0, "bs": 17, "bc": 259, "rs": 13, "rc": 200, "ys": 13, "yc": 192},{"id": "2aa0b3b8d12449f9a799d3b2d4ec6024.16", "url": "https://lh3.googleusercontent.com/5GNlltgYO8KzWXhJnnReOimqFV8PKxhIeNapJHLDD1R-_cdlFfA6mXOqyAS-6L2eiEuvC-qvXRaePkSuR2wW2zqfKw", "name": "Lighthouse - Lassemajas Detektivbyrå", "lat": 59.22207100000000, "lon": 18.14593900000000, "team_id": 1, "available_slots": 0, "bs": 71, "bc": 49, "rs": 56, "rc": 53, "ys": 66, "yc": 46},{"id": "2af6d9a6b1374cb2be8290ef66fad990.11", "url": "https://lh3.googleusercontent.com/RYysLVxC4iq58rjX5Zjr6rlLY34IPfVzkohZvJOLRwQG_CHDFNPSUKnf-i1ZItUP9cMmnAz-TwEdsIRAYv9rhD75aF1l", "name": "Titta på röken", "lat": 59.23468100000000, "lon": 17.98902600000000, "team_id": 1, "available_slots": 0, "bs": 39, "bc": 179, "rs": 11, "rc": 99, "ys": 14, "yc": 102},{"id": "2b87059dc37648b78e844cf1dfb41460.16", "url": "https://lh3.googleusercontent.com/Auv36z4O2LXmWSwUsgL4zocPgJ6DAjSo1EGFvZJYcbN7qAjL3bWhvZ_Oz699VNuBeUqZCmi4ezmhnk0YrbHqDXhsuw", "name": "Orlångens naturreservat, Gladövik", "lat": 59.19352900000000, "lon": 18.02088900000000, "team_id": 1, "available_slots": 0, "bs": 0, "bc": 0, "rs": 0, "rc": 0, "ys": 0, "yc": 0},{"id": "30cfc377479241829e01964b8a34190c.16", "url": "https://lh3.googleusercontent.com/zSFdMzAte953DoymNqEPbqK4zbNduE08EEFko2FokRpGhJSmbPkd1W1RAbAolp2KXtvnRiHKpB_DONSY9_l5r87jHKqRSG7lGphDjOs1", "name": "Sittkonst", "lat": 59.21728300000000, "lon": 17.95675600000000, "team_id": 3, "available_slots": 5, "bs": 20, "bc": 23, "rs": 28, "rc": 32, "ys": 47, "yc": 35},{"id": "31e9092c82904e0b99cf429be79e9ada.16", "url": "https://lh3.googleusercontent.com/AMZ9zG-C7VtM0Q2tnYrjWPAM5NCr3nmIOT_l8a9tuOWXZlkkYz59Qo_dO387SFojO67L0hfsrg6YZnx_iJtPSEb9DIA", "name": "Duvbergsplan", "lat": 59.26219200000000, "lon": 17.88740200000000, "team_id": 1, "available_slots": 0, "bs": 20, "bc": 295, "rs": 12, "rc": 278, "ys": 6, "yc": 51},{"id": "3398588506df4d308d90a4247bae124a.16", "url": "https://lh3.googleusercontent.com/2gS7Z0r92yQEMuRvEkizUcUtLpHxi00y6HdGFX00UlUbZlWYH4XFAEs4ZP0PYY9NpX2IW75fjasJutZwvHgEkAHmOQ", "name": "Elhus", "lat": 59.23909600000000, "lon": 17.97096300000000, "team_id": 1, "available_slots": 3, "bs": 16, "bc": 393, "rs": 8, "rc": 371, "ys": 4, "yc": 72},{"id": "341a29a06a804e0192d85280833f6d18.11", "url": "https://lh3.googleusercontent.com/CW_i7uY4Gf3UzlijupJfh5RQSEq7YigelEtmgRhVS59PdToJhrhbGMahJYOu0qq6sa_E9vtJQPLG-E-X-iUsfikAeg", "name": "Stuvsta Stationshus", "lat": 59.25271400000000, "lon": 17.99661000000000, "team_id": 1, "available_slots": 4, "bs": 22, "bc": 251, "rs": 13, "rc": 172, "ys": 10, "yc": 194},{"id": "34856437858f454a9e866c0ffa49a15c.16", "url": "https://lh3.googleusercontent.com/as7e2qcyu5XEhhA5mBKmKF5_4s_HcDTeMJx5xCgqzAflVVuFo6l2ZBALO-WtvM9V0BxzUMLEhOMk2WDo_jRLpRs_dHFm", "name": "Hanestorp", "lat": 59.22515000000000, "lon": 18.06097900000000, "team_id": 1, "available_slots": 5, "bs": 395, "bc": 14, "rs": 240, "rc": 11, "ys": 170, "yc": 8},{"id": "34d5c566641c4b48ba65a3192552e27b.16", "url": "https://lh3.googleusercontent.com/mKezN2CkfoRlaMaG46Lr3JqiSPM_r0Gz5BtYYX6A-zbzV53-3qimlsp55rjwf-SHYQmxJ9sSRmkJW7qHkQPbtpkgN-B3", "name": "Gungorna på Norströms väg", "lat": 59.23144800000000, "lon": 18.12942100000000, "team_id": 1, "available_slots": 0, "bs": 20, "bc": 72, "rs": 24, "rc": 115, "ys": 39, "yc": 139},{"id": "34d7e641ac5d41a3acbab3e612a22055.16", "url": "https://lh3.googleusercontent.com/p2FiA-A98Iv9aW9lH1wr5ovy67pWZXybV35ETAcuiVFKiuQxdJsYZqnDL7q8MCuz9QiF0s2mVU0wTgErz3ERi9hS2pqY", "name": "Minneslund", "lat": 59.23606700000000, "lon": 17.89427800000000, "team_id": 3, "available_slots": 5, "bs": 238, "bc": 32, "rs": 62, "rc": 7, "ys": 61, "yc": 23},{"id": "353d742f013e438c9cc0161ef2e1bac4.16", "url": "https://lh3.googleusercontent.com/d99NrA2pMwPCFjYL4AmEuwFZDl4AKsBxKRGYhGXzW6f7_7kROu8ZMsEikWmr4K7ih8z0l6WObZXXnrXPtTyWDVz4lA", "name": "Trångsundsskogens Naturreservat", "lat": 59.23392800000000, "lon": 18.15789400000000, "team_id": 2, "available_slots": 1, "bs": 18, "bc": 58, "rs": 74, "rc": 94, "ys": 22, "yc": 69},{"id": "37aadd1714c44273993e13fcc3045901.16", "url": "https://lh3.googleusercontent.com/092KOVi2FSSOJ145ZEO2gHtRdmMmq97xrehVYKj3z-rn28lIQSbt3J2CSoKiEevYWMT_d50Sn1s23cN1lXlUuWaa5Ak", "name": "Balingsta Skola", "lat": 59.20652800000000, "lon": 18.03786500000000, "team_id": 1, "available_slots": 4, "bs": 205, "bc": 22, "rs": 54, "rc": 4, "ys": 228, "yc": 20},{"id": "37b11ee53f9e4052a4fb835f01726721.16", "url": "https://lh3.googleusercontent.com/ra5j0VnEgQOmuKJSjpCyiZeSl1XX4gnmSEpZsy_me9nrCSMmXiF2rI9hbB7hGJ9ENnBoy8Bjsqf8rlaTbFVMP_kix50", "name": "Orlångens naturreservat, Ågesta", "lat": 59.22057800000000, "lon": 18.08097900000000, "team_id": 2, "available_slots": 5, "bs": 104, "bc": 64, "rs": 39, "rc": 53, "ys": 32, "yc": 27},{"id": "382af344cd973f47b3ec41f648815049.16", "url": "https://lh3.googleusercontent.com/4S9dA4Ph8zHIqFf5sHPqBj1HQ-xM997ddlTylAl6OYNpl6v7rkRQQa0HUBUS6GM6u2WVJnJ-nRoLMc9TYlJy5Xbc0_UtXNEpwAEHo24", "name": "Segeltorpshallen", "lat": 59.26826300000000, "lon": 17.92993300000000, "team_id": 1, "available_slots": 3, "bs": 31, "bc": 73, "rs": 31, "rc": 60, "ys": 24, "yc": 65},{"id": "39c5d708fd7242dc96b868411c6f199c.16", "url": "https://lh3.googleusercontent.com/bUTil5Nkq-8-fD9ngFtnQYa7dR8ar_Pb-Au4XubV_SLkck7lrirtL7u1BMn8E75V3NXDD2SyS6y7nGgyPCLv7hRJ-w", "name": "Ågestavikingarnas gravfält", "lat": 59.21863700000000, "lon": 18.07626200000000, "team_id": 3, "available_slots": 3, "bs": 470, "bc": 12, "rs": 174, "rc": 8, "ys": 133, "yc": 8},{"id": "39f4b7b0b048433eb382828be14f3650.16", "url": "https://lh3.googleusercontent.com/cfwTw4VqHrfCPK_Ywo5t_LTgWmNrfGRmeIxK1jAwMTsIZ3-zXOG8TN1qVswouICc032GaMMMJyrft7azKyFusQTBqxw", "name": "Långkärrsparken", "lat": 59.23661800000000, "lon": 18.02207600000000, "team_id": 3, "available_slots": 3, "bs": 31, "bc": 41, "rs": 45, "rc": 67, "ys": 84, "yc": 61},{"id": "3c67493e126e44b3b29939431b932139.16", "url": "https://lh3.googleusercontent.com/V-uqroOpBmaLvzHE6Lva-d7Yr09XQmyvt8MQd8bR10gIqqSYAs6AoTYBLXZfc-_oYr32ETYMcu37nO8g-PDFgZLQ-iZs", "name": "Hörningsnäsvägens lekplats", "lat": 59.23354300000000, "lon": 17.99229300000000, "team_id": 3, "available_slots": 5, "bs": 10, "bc": 272, "rs": 11, "rc": 277, "ys": 11, "yc": 356},{"id": "3d0e8a385cec3e2ca41521748285e217.16", "url": "https://lh3.googleusercontent.com/gFKjRj9X59RJlm71USTlJ1_-dDM2IzdB8Cpl-6dUP3ETFB0afFf3r40sHr6yf_VhBiH86sSN5TbzkiZ5-AJKSpvFBbOh3r_pqtf5xdE9", "name": "Scoutstugan Djupån", "lat": 59.21953900000000, "lon": 18.12096800000000, "team_id": 2, "available_slots": 4, "bs": 139, "bc": 7, "rs": 345, "rc": 16, "ys": 106, "yc": 11},{"id": "404673fc642a487298f955456b3c2856.16", "url": "https://lh3.googleusercontent.com/ZYC3FD5JcwYwBNcmkC2iOEsNPoiSyT5yTl37-qjz8YfoGPsdzYi04MAesUanClP3ALok3u88ileBnJnFojGGhZqVpg", "name": "Huddinge Natur - Övre Sjötorpsfortet", "lat": 59.21101100000000, "lon": 18.16737300000000, "team_id": 1, "available_slots": 5, "bs": 85, "bc": 53, "rs": 25, "rc": 16, "ys": 84, "yc": 51},{"id": "408cdaa7ff294b96978e8ca752fc7bad.16", "url": "https://lh3.googleusercontent.com/IZ6U0THa6QXWjzl_41qK8XyvZMXGhwRm3bbhY7O-Y2GG4gU6KrmMYquGV2XLLHjvnTo07ezp39XBOSn51mMCbbW1nA", "name": "Lekplats vid Lissma Café", "lat": 59.18266400000000, "lon": 18.07085600000000, "team_id": 1, "available_slots": 4, "bs": 0, "bc": 0, "rs": 0, "rc": 0, "ys": 0, "yc": 0},{"id": "40b04bf9efe4472fb737e5376e562458.16", "url": "https://lh3.googleusercontent.com/C4eO_-ZetXMzgMm9l1rNRtnNQP-LpK471sEQVRokkrDDS9P-9b661RO9hWA9voc1GoVcW-sZwnE2tjQd4tP7RIAWGfI", "name": "Asmunds häst", "lat": 59.23911200000000, "lon": 17.97408800000000, "team_id": 2, "available_slots": 0, "bs": 34, "bc": 130, "rs": 34, "rc": 103, "ys": 20, "yc": 77},{"id": "40de3e80bbd63f9a945a45ac0b15d9cf.16", "url": "https://lh3.googleusercontent.com/skcCyBR7Zt9XeIshsaJfg8ZICoRnZCfMY34WYyAAnVhMz0oEH-xG6QNlLQNFksW99A9s5kiQCshbJnfWowjegXDdD8ESvx4CD_uqiEHX", "name": "Nytorp", "lat": 59.18213600000000, "lon": 17.97529100000000, "team_id": 1, "available_slots": 5, "bs": 0, "bc": 0, "rs": 0, "rc": 0, "ys": 0, "yc": 0},{"id": "420aececfd244946a9da61bdd806ef17.16", "url": "https://lh3.googleusercontent.com/Gkv8B7507MHCyd3ei5DETmwU7koTcNYLltfjlrtFxrua43vWLDOtTjcTT3Lr4aZ_BZ32zkR9DiNYQn1v8H2qnKKsGN9K", "name": "Segeltorps Idrottsplats", "lat": 59.26724400000000, "lon": 17.93101900000000, "team_id": 1, "available_slots": 4, "bs": 35, "bc": 118, "rs": 26, "rc": 83, "ys": 30, "yc": 106},{"id": "42d01df0637c47209e5f4ff2679316cc.16", "url": "https://lh3.googleusercontent.com/1R0VeE044aUFE0U77GlAnf8hzokTPJPlayXWWJIt3R3JLvgeYMCtTUXw_RnQVPBB7HqA7gI11rBCZ6iwPwg49i3K5gjW", "name": "Ormparken", "lat": 59.27053300000000, "lon": 17.95455800000000, "team_id": 2, "available_slots": 2, "bs": 43, "bc": 78, "rs": 40, "rc": 93, "ys": 30, "yc": 82},{"id": "4378cabec6bb438e804e9170b2714c50.16", "url": "https://lh3.googleusercontent.com/irth-3kx7XKXXOr0pkMIDm2u2Hp_7TD8_2wM2UgvxtjxUdDnSom6XICFho-nWbYNA32jY4H_ykE2BBIVo8y6QvXvLg", "name": "S:t Matti & S:t Benham", "lat": 59.22782500000000, "lon": 17.93814600000000, "team_id": 3, "available_slots": 0, "bs": 80, "bc": 28, "rs": 90, "rc": 26, "ys": 139, "yc": 33},{"id": "448b234ae82b4ce39dcca2d96fc76d94.16", "url": "https://lh3.googleusercontent.com/bdP51NUBnh7y_cMASl0JrKawdEcOOXhD4Ps9v92KgB9VkZ8Xq91W8YZ9WMzG0nu-u5D0eG32YTRk9gnXQwmToOP_3g", "name": "Lekplats Gösta Lindells väg", "lat": 59.23687200000000, "lon": 17.95272800000000, "team_id": 2, "available_slots": 5, "bs": 18, "bc": 199, "rs": 20, "rc": 157, "ys": 19, "yc": 144},{"id": "45f4bbc17865424294b32b924aeac88c.16", "url": "https://lh3.googleusercontent.com/idl-UVNAjCQWiBtPRHwR7WUJCl01V3atBKzuriZ3Shca-sZY4ObMzPHliO2EM6EItgFa8DIzQBcFhcr-qQQnWSk6tmxUJ_jQUtjMkzhzGA", "name": "Ridhuset", "lat": 59.23816100000000, "lon": 17.93795900000000, "team_id": 3, "available_slots": 5, "bs": 37, "bc": 23, "rs": 38, "rc": 32, "ys": 47, "yc": 43},{"id": "462546c3984b4293af282d6df4c50430.16", "url": "https://lh3.googleusercontent.com/6m5M6WsNXmHQkj8SOYKoJE0D0iYa483FSujdKiSHkwMkgIqgi7k3LAy515PuoBFLa8HPDXdeL0rQmqPlXkdwl8LOKb6C", "name": "Brandkårens övningstunnelbanevagn", "lat": 59.20742500000000, "lon": 18.08061500000000, "team_id": 1, "available_slots": 3, "bs": 236, "bc": 32, "rs": 65, "rc": 29, "ys": 44, "yc": 2},{"id": "463dcce0296d4d319c60177ad2dcea7f.16", "url": "https://lh3.googleusercontent.com/oaC374TsFiikVROJfrv7RYIipvR5bxKp6zznV8D6KZ41r3YuIfB_mna31df8ZXiR3_h4ZWNMJ2SUioea_XF9GcN0p8A", "name": "Ågesta friluftsområde", "lat": 59.22266000000000, "lon": 18.10329800000000, "team_id": 3, "available_slots": 5, "bs": 60, "bc": 61, "rs": 54, "rc": 58, "ys": 54, "yc": 51},{"id": "4a27a704edd2454fb59740e42ac8ac8c.16", "url": "https://lh3.googleusercontent.com/mFRZmxtFeHEH62blygMYSBisgzRT1TB_KhYzjaCZvt4OaZkPn5BiM7pw_aiOL74Jx5WWS7LiXQ05jY9U9uP7_DPtEso", "name": "Välkommen Till Paradiset", "lat": 59.16553800000000, "lon": 18.04736600000000, "team_id": 1, "available_slots": 3, "bs": 0, "bc": 0, "rs": 0, "rc": 0, "ys": 0, "yc": 0},{"id": "4b6dd65f26f846c78de791a9ba57fe33.16", "url": "https://lh3.googleusercontent.com/S8V4uFKGigx9jDO_lbTtYwOw77yG1hdsjh9y3B-hTf4IIX2RUWNzn0IFHcbhibEMSYQ3Lr4ejoNg13IzQk-L2Vt66_U", "name": "Holy Diver", "lat": 59.26665600000000, "lon": 17.91128500000000, "team_id": 1, "available_slots": 1, "bs": 30, "bc": 167, "rs": 14, "rc": 159, "ys": 17, "yc": 138},{"id": "4b93ae5dac204c1fa1cfc0c4c0e88f95.16", "url": "https://lh3.googleusercontent.com/QUQ38XWitWRT5m06VYwGC6hFVcmpoAaOspL083_GIdmH-cANGUBSLa_LQ7lqAnE3iYyxWfJMzoPu7xzcUrcpQWj6-XY", "name": "Gömmarens Vindskydd & Grillplats", "lat": 59.25357900000000, "lon": 17.92370200000000, "team_id": 1, "available_slots": 3, "bs": 107, "bc": 9, "rs": 251, "rc": 5, "ys": 244, "yc": 12},{"id": "4bb2388b13514dceacc97ffdec66cfef.16", "url": "https://lh3.googleusercontent.com/9cDoBCjz0au7TFiOIkx8kzzGyl12laLZ3868eFVnCppyZF8nAYFGA2djaSSSPFdTSDZUIZWzvWpHg4h-EIJBHjPQmw", "name": "Infoskylt Drevvikens Rundisbana", "lat": 59.23886600000000, "lon": 18.13953800000000, "team_id": 3, "available_slots": 2, "bs": 50, "bc": 50, "rs": 57, "rc": 46, "ys": 92, "yc": 47},{"id": "4ce0f216d01f4dc28f76cba2888fb3b1.16", "url": "https://lh3.googleusercontent.com/sH1Q3ANvKHorNdpvTkJOfPRFR49JQt3pbcx6oUitRU4rKahUHh0PwQREzx9gaVxKQktTkFTO3dfepzckrpWq1bxASzE", "name": "Basunerskans Bön", "lat": 59.21942200000000, "lon": 18.15226500000000, "team_id": 1, "available_slots": 0, "bs": 35, "bc": 105, "rs": 21, "rc": 68, "ys": 38, "yc": 118},{"id": "4cfe7686b33b44d38aafd887866b7d18.16", "url": "https://lh3.googleusercontent.com/Tetw187vn--iYAfLkKE3kR65Pbyl_AuugIWeY_VZayQ7YH4TURokYPglSac_CwBo8KCiZ5UqhV5A-6grADa2kl0vYA", "name": "Ugglekojan", "lat": 59.15010400000000, "lon": 18.03716400000000, "team_id": 1, "available_slots": 4, "bs": 0, "bc": 0, "rs": 0, "rc": 0, "ys": 0, "yc": 0},{"id": "4df5796c57a34f2d943fc2cb1295f2bd.16", "url": "https://lh3.googleusercontent.com/VHH3-mAS8mvVqh1KnvOcIwWw45spEVr0YWORInviQD7Ccc8RLvey9fBV6-6z3GXuZvowb0_XR0BMSGDq7z4Viz0_vQ", "name": "80s Art Myrstuguberget", "lat": 59.24917200000000, "lon": 17.87945000000000, "team_id": 1, "available_slots": 5, "bs": 82, "bc": 40, "rs": 82, "rc": 56, "ys": 41, "yc": 41},{"id": "51d6b7f6ce3b3c2ea00d86245116268d.16", "url": "https://lh3.googleusercontent.com/r0yqip26kIudC2plnNVVyu3-oFZZEPJdPD4Azg4QM443W7ommzrg1p2gqrC96Rp2_B_bkx2Fmq1tmFscu9CD8AGsCtQs", "name": "Vägvisare Paradiset", "lat": 59.14980300000000, "lon": 18.04086300000000, "team_id": 2, "available_slots": 4, "bs": 0, "bc": 0, "rs": 0, "rc": 0, "ys": 0, "yc": 0},{"id": "51fd156244df4bce95bbe8ad32774379.16", "url": "https://lh3.googleusercontent.com/fcMdi3TMygoSsCkbPUdv6D54vB3hvlhzrvLl2qhtg_7vVrPZyeUkDkQi8HxNCNZ21Z5llnMiIs1QiYp5_SAQsKDs40Y", "name": "Klocktornet vid Vårby Gårds Kyrka", "lat": 59.26332400000000, "lon": 17.88434200000000, "team_id": 3, "available_slots": 3, "bs": 107, "bc": 54, "rs": 59, "rc": 40, "ys": 52, "yc": 27},{"id": "53a3e1279e1d49339ece039e0f34d980.16", "url": "https://lh3.googleusercontent.com/rdsAZiEGRkqYKGa7MZwAvo9YCzwpG6ZBXzI_fKztSqby26CyPpc7Caj0HkeRD67koTW4JImoc_MrjG11Spos7xo3Yg", "name": "Björnspinnarparken", "lat": 59.24272600000000, "lon": 18.02849000000000, "team_id": 2, "available_slots": 3, "bs": 28, "bc": 151, "rs": 21, "rc": 151, "ys": 25, "yc": 83},{"id": "567788ddce9041eda9491bfe969cd3cf.16", "url": "https://lh3.googleusercontent.com/iJqiixtfm8EZuC0am2VRCASltqqS5wwKApxPVswnnRstcVsvEXtLyRU7PPYw_UoOtrKU5rMuyA0rtGe8yXaKWgRKdA", "name": "Gungor Operettvägen", "lat": 59.22324700000000, "lon": 18.16757400000000, "team_id": 2, "available_slots": 4, "bs": 165, "bc": 20, "rs": 97, "rc": 36, "ys": 69, "yc": 31},{"id": "56e42428c7d949e7b89eba9c2001c9d5.16", "url": "https://lh3.googleusercontent.com/Zvcax8b7-yc-CglcIJSVU1QociefeWBYD7PyBvWJBKmf2kIOwZiFuvUZaTPKXN6hEk2Ogh4dbN3tr3Os_Pa6fbTIKTE", "name": "Kattfamilj", "lat": 59.22827100000000, "lon": 18.13242900000000, "team_id": 3, "available_slots": 3, "bs": 25, "bc": 276, "rs": 7, "rc": 74, "ys": 10, "yc": 224},{"id": "579620ae61ca32f1b153cd6a9761103f.16", "url": "https://lh3.googleusercontent.com/FG_AByeVHWkJI9x_csmDN7FBAWlvxhqB4Csu2L-LTjQ2lYiWS7HrGX6VGhxTcEAT_LQwetsLwY_laQ0NLwwGXJ8WyY9TcG14BDwl8aUy", "name": "Vindskyddet vid Långsjön", "lat": 59.14391200000000, "lon": 18.03547700000000, "team_id": 2, "available_slots": 4, "bs": 0, "bc": 0, "rs": 0, "rc": 0, "ys": 0, "yc": 0},{"id": "57c915d50d794f3ab11346c6fce1e2ce.16", "url": "https://lh3.googleusercontent.com/QeJOLXctlLbOD9BXO1WaJm24NUYvVQMqW0DUOrdKQYPfgHXtVkjkktkWhwQu5wjkpE0nAdsFITsbB66xkYm0VrN_0Q", "name": "Båtparken", "lat": 59.23234200000000, "lon": 18.00130100000000, "team_id": 2, "available_slots": 5, "bs": 9, "bc": 147, "rs": 29, "rc": 199, "ys": 27, "yc": 90},{"id": "57cc6149ed8c4a03bc94eb3f6652bee8.16", "url": "https://lh3.googleusercontent.com/oWn7RXsW_oZkPqeh6cgiruEve5PKYz3VAdrw1eSCSe_jlM1w0JQ8u1YEllmMkvXbNzbjPtV6P1jw0KspwmgkOr3wIzw", "name": "Sun Is Shining", "lat": 59.25796300000000, "lon": 17.97149500000000, "team_id": 1, "available_slots": 0, "bs": 50, "bc": 131, "rs": 20, "rc": 114, "ys": 12, "yc": 49},{"id": "58c05359c15b4c94914de0ba8e0a391f.16", "url": "https://lh3.googleusercontent.com/MZg4J4CahZLHTQzQgF--fwNGuoYvqfIpylt3UZBeK_vVY9Iji3AqCWpwpmykGWjm9lTn6gO9jfcoByUkkPmTn1NIQ4I", "name": "Mellansjövägens Boulebana", "lat": 59.22287200000000, "lon": 18.00759500000000, "team_id": 1, "available_slots": 5, "bs": 65, "bc": 96, "rs": 30, "rc": 64, "ys": 28, "yc": 39},{"id": "5b534134683549ce846e1ecaf92990e2.16", "url": "https://lh3.googleusercontent.com/_i6sZUGwLNJYj2nO_fudSHn5RK9Gzb1En9I-j83fA4wS7AcPT40G5kE19sXd1C0wzqetUER1YpM2l0H1FzuMA9iyM6I", "name": "Rågsveds Naturreservat", "lat": 59.25056900000000, "lon": 18.02662100000000, "team_id": 2, "available_slots": 4, "bs": 18, "bc": 129, "rs": 45, "rc": 144, "ys": 14, "yc": 52},{"id": "5c4620f743eb409896aa2e5c8307fe78.16", "url": "https://lh3.googleusercontent.com/2ZV9IOckLEdO2q3NWHRhvS-fYp2XT1rjbIzX5QGt6mZ2lJZPJUWZfGGFIkTTEpHqSIUwg8pPhPr-E2-e0ukNBfFjqac", "name": "Kacklande Höns", "lat": 59.24629900000000, "lon": 18.00478100000000, "team_id": 2, "available_slots": 0, "bs": 22, "bc": 100, "rs": 55, "rc": 118, "ys": 20, "yc": 22},{"id": "5c6646d732bc429a9a4a5e6213106765.16", "url": "https://lh3.googleusercontent.com/nMHxmq9MEvft0iMRc3DJ8vD-_wH0wpsTylddOpHs7Kqom8nwdTOGyFC5Qawj1zFYgB-EFDUqFHnD-NaOgFpzWdNp7OlY", "name": "Lötparken", "lat": 59.21732700000000, "lon": 18.14954900000000, "team_id": 3, "available_slots": 4, "bs": 24, "bc": 68, "rs": 20, "rc": 64, "ys": 66, "yc": 100},{"id": "5c9aec44ed774011ac62fa32a12609c7.16", "url": "https://lh3.googleusercontent.com/Op4f3mgJziIk4HJTfTwm4213XlR1iLw-tqWk08DKd5XdV1n7GxtR08Tt0ZGVKg_4qWoS-jZ2mOJSQIHY-B3h68y5Sw", "name": "Välkommen till Ågesta Golfklubb", "lat": 59.22433100000000, "lon": 18.08281600000000, "team_id": 1, "available_slots": 3, "bs": 102, "bc": 62, "rs": 47, "rc": 37, "ys": 35, "yc": 42},{"id": "5cb694d53cd9431690f89d439e20e764.16", "url": "https://lh3.googleusercontent.com/UTdfLxkZiePSAci9yzGKHRsIGSPa0cKxKNnJYb1IMDjydTy6RghiaS1ue4RXV9jWlgb4ptTvxyApJy8qdC5mMq-bPNs", "name": "Nytorpsmossens utegym", "lat": 59.22504700000000, "lon": 18.14463700000000, "team_id": 3, "available_slots": 5, "bs": 50, "bc": 73, "rs": 52, "rc": 40, "ys": 56, "yc": 67},{"id": "5ccc6570cbea48e8839064b037518c06.16", "url": "https://lh3.googleusercontent.com/W1AYhkbfa9AlVgs4YFmxrqzG_SaSVKvWjeCjLPu-ZHKwT3IKwrfIz-p29jm4mx0bn3mQfzGlTY0wyLTuLw1l4y2Wsw", "name": "Trälekplatsen", "lat": 59.24048800000000, "lon": 17.99376500000000, "team_id": 2, "available_slots": 0, "bs": 27, "bc": 164, "rs": 23, "rc": 164, "ys": 17, "yc": 79},{"id": "5ce249b73d6744e68d6207ce740b72b9.16", "url": "https://lh3.googleusercontent.com/4t1QvwOaj2TxasfoyqLVNZNCjNsiJYatsWYchMJlfjQw86uScR_smpLJM3UgcCrkmfvr9GPbGIueIP5xuMNjwkwcIg", "name": "Myrstugans Lastbil", "lat": 59.24567000000000, "lon": 17.88171100000000, "team_id": 3, "available_slots": 5, "bs": 19, "bc": 97, "rs": 46, "rc": 114, "ys": 26, "yc": 94},{"id": "5d87a0b649374764b10eeee8c187fa6c.16", "url": "https://lh3.googleusercontent.com/6H_jbcg_0YZCWuQI3MniW4f15SMBr4s3MEPK8DzH499RVlXdjV1QCIG6WDP1ldYWrSs4UXi5ABORIdocjv30OyZqh4-t", "name": "Mindre blåvinge", "lat": 59.21977800000000, "lon": 17.93032100000000, "team_id": 3, "available_slots": 4, "bs": 32, "bc": 110, "rs": 14, "rc": 54, "ys": 48, "yc": 112},{"id": "5e4258dcac294691bd087147621ebb9f.16", "url": "https://lh3.googleusercontent.com/N8gX9KTDXwpUd7qeNBnKnbUa05MraUnLYMtjQtS0HEn92XYsVD2-7IB1nDkPlnMDXm8EKGB0R2nRywtT_5AmNtUIi4Q", "name": "Att Hitta Hem", "lat": 59.25229600000000, "lon": 17.88076100000000, "team_id": 2, "available_slots": 2, "bs": 11, "bc": 92, "rs": 49, "rc": 149, "ys": 13, "yc": 89},{"id": "609a69e5c8463720925e163c9fd10e04.16", "url": "https://lh3.googleusercontent.com/-P1ZszFaaLDdpm_adiAsvXB2dncIRX5U-K1QWjtXlrYZcEfGFiALaH0PMD3x7y_fAdS9M1M3a9x_opfVJ03e5mGa93zLMPyTamUpm9Ji", "name": "Källbrinksbron", "lat": 59.25051100000000, "lon": 17.96127400000000, "team_id": 3, "available_slots": 0, "bs": 28, "bc": 172, "rs": 19, "rc": 141, "ys": 15, "yc": 134},{"id": "60a5eeb85f0e4a09a8a56113f54e2f06.16", "url": "https://lh3.googleusercontent.com/pZY281dHR1bG9n-MMQDfiwrCyjTtLOJn1zxGH1eljiQ3Iqg904k1UFH6awh-7yYiIxZEgV9WmfvcBjskkJpaK9GGBy4", "name": "Minnessten över Lennart Wikholm, 1941", "lat": 59.20311600000000, "lon": 18.10932700000000, "team_id": 3, "available_slots": 5, "bs": 0, "bc": 0, "rs": 876, "rc": 4, "ys": 921, "yc": 5},{"id": "61b8c83c7aa3478d8712a884f76ecc27.16", "url": "https://lh3.googleusercontent.com/Rf734KzVHROyFRiGXU7XZJy7bq4KObunObQuTtBXfQD4ALk0B8naZ7hnMjBV8S7iNjL9N9fGXDZeXgwLBzlxyRTc5fw", "name": "Snättringe IP", "lat": 59.25444900000000, "lon": 17.98162100000000, "team_id": 3, "available_slots": 5, "bs": 29, "bc": 196, "rs": 15, "rc": 133, "ys": 15, "yc": 130},{"id": "6250f1810c58461091d172fa89a95759.16", "url": "https://lh3.googleusercontent.com/VPAjagylPpIMP0M2_DyD9peZvqPgXyg-O0FuF92dVJMVxYsGs8poPV9___bOEmxRXaVB3wHfHDVdBN4DvoH6GlFDv5HJ", "name": "Väktarnas Gravar", "lat": 59.26332000000000, "lon": 17.88332300000000, "team_id": 1, "available_slots": 0, "bs": 77, "bc": 43, "rs": 104, "rc": 45, "ys": 42, "yc": 34},{"id": "63cca2fa26d0445a891f576f6bb1163e.16", "url": "https://lh3.googleusercontent.com/Z4HBtIDgQTx-beXgglF5GAgWq7R3iEKvwhri05J2SizQy2Jrj0X5pEyTnBd6oVwNlW2vWG36tVVK1E6HpoxT4M-L3w", "name": "Gladö Kvarnsjön Naturreservat", "lat": 59.19005900000000, "lon": 17.99288400000000, "team_id": 1, "available_slots": 3, "bs": 0, "bc": 0, "rs": 0, "rc": 0, "ys": 0, "yc": 0},{"id": "65ca9135e2544820bd4cefec0f17ae0a.16", "url": "https://lh3.googleusercontent.com/gQNwh4WWLakKeqcCUz6BtaiZWollCv9zQslA5JIlV4MCJV6Jou4NkBheehyXVwYIenYT0aX1Mp3_J3ZxoJmwqG2olK0", "name": "Watertower Stuvsta", "lat": 59.25588600000000, "lon": 17.98848400000000, "team_id": 2, "available_slots": 3, "bs": 201, "bc": 13, "rs": 155, "rc": 5, "ys": 264, "yc": 8},{"id": "67d0a859fcff4e8eafb17f398df4fcd3.16", "url": "https://lh3.googleusercontent.com/OWgTUGHJctNeJlOJVp9Rjo-7p6nle2ctDZCynH4-Iu5cH8Od4fXoNz9Aw8eVctFbpZhiG5FFzOv4ZlvFe4W6gOM_LEoiA1sse48GVI7Y", "name": "Trångsundsskogens Naturreservat Bäcklöparvägen", "lat": 59.23253700000000, "lon": 18.16534000000000, "team_id": 3, "available_slots": 4, "bs": 171, "bc": 14, "rs": 159, "rc": 8, "ys": 241, "yc": 20},{"id": "688d65e303ec40a98d79903dff636289.11", "url": "https://lh3.googleusercontent.com/mmuK0pdM72wWQEPyutIQkOXHpDjNisqnHbofQxKQeQG6S9B9vPNn_8nlLqqwfUI4flXfLbwINTroES-IIbELk9chu6J0", "name": "Sälfontänen", "lat": 59.23615500000000, "lon": 17.98252500000000, "team_id": 1, "available_slots": 3, "bs": 14, "bc": 415, "rs": 4, "rc": 180, "ys": 9, "yc": 318},{"id": "68c9e7ad2f6b4326839e9834ca674265.16", "url": "https://lh3.googleusercontent.com/1tPjxCfYOY3rvsfflo_1hl0vjQWeZAqHtDcAvqC4O74ZogDgJJLeUww4XsT5fYbOKGN98RzZWCdGb4vH3KGYgQL5tACy", "name": "Milstolpe", "lat": 59.27764000000000, "lon": 17.93449400000000, "team_id": 2, "available_slots": 0, "bs": 26, "bc": 113, "rs": 14, "rc": 73, "ys": 45, "yc": 120},{"id": "692a05c23f344964b884d5a44ea01e20.16", "url": "https://lh3.googleusercontent.com/Rn5q864tDyz3gEjbcfdy-qaeqrnXC2oPf_bEeYiZRAA03WV52g_hX47FdmnjhxGp5bOeckAS7cEnrUFkiA5xGxw2GMU", "name": "Spindelparken", "lat": 59.22846900000000, "lon": 17.98399000000000, "team_id": 3, "available_slots": 2, "bs": 19, "bc": 92, "rs": 39, "rc": 137, "ys": 24, "yc": 101},{"id": "6c890db8110945e9b1122763bf290e2e.16", "url": "https://lh3.googleusercontent.com/yOvxojVy0fj6n2FiShtvbJVF8Jqn7t2fLU5NGyzz-MPobvyHiC5COpD_DJo3WkenHAyjiYj3yozkhVx6ahX4qgiAECk", "name": "Rutschkanan vid Heron City", "lat": 59.26778800000000, "lon": 17.90982200000000, "team_id": 1, "available_slots": 4, "bs": 20, "bc": 185, "rs": 19, "rc": 186, "ys": 14, "yc": 157},{"id": "6c90242cf0fc38918e66a402f049b0e3.16", "url": "https://lh3.googleusercontent.com/nhRYnKZTzcQoxMfr9t3G28YNaPiRDgM19bRnrALUZFhHwSaVhd1tRMjty7IBIKmw43Ga8kyRU3CXo3EqdRqny0pbHGamdQdEuXxA48WO", "name": "Långsjö Gård", "lat": 59.26412600000000, "lon": 17.97304000000000, "team_id": 2, "available_slots": 5, "bs": 24, "bc": 97, "rs": 19, "rc": 58, "ys": 56, "yc": 110},{"id": "6d5b70bd89f54913bcccdaa534e158fc.16", "url": "https://lh3.googleusercontent.com/dSah5cmR2gvZJWrYru4ZM0ExbO3tksnipzMx5nDWZ6YjV-55XyRQzbqCLWI36sBKn7JzRPolt0Wp02Cp5_nAkTXItg", "name": "Orlångsjö torp", "lat": 59.21555700000000, "lon": 18.06381900000000, "team_id": 1, "available_slots": 4, "bs": 1910, "bc": 4, "rs": 218, "rc": 4, "ys": 58, "yc": 2},{"id": "6d8f2e308057430f8419786892c0815e.16", "url": "https://lh3.googleusercontent.com/PNbavPFm6s7n7aAwg-LNcEpcIYeqtjfCEcWUZQgV9GMhpcQ--AIwH5u1i2itXqdrHKLJTw1JWL52lOk65rhYQE1lGOz2ljaINpCQ4Qy4", "name": "Stockholms gräns", "lat": 59.25606000000000, "lon": 18.01361700000000, "team_id": 2, "available_slots": 0, "bs": 10, "bc": 31, "rs": 229, "rc": 39, "ys": 30, "yc": 10},{"id": "6e6a2e6f4b4941d4980884d412e499f1.16", "url": "https://lh3.googleusercontent.com/CxoIOMms7BvUHzWslihLQAEzX1dXRU1e3J77ruvBEAVJoezeaKIWOUhK5Hntrget9U2sA8m0YsWIYaS_0hKCKm7oHg", "name": "Flemingsbergs Station", "lat": 59.21835800000000, "lon": 17.94621700000000, "team_id": 2, "available_slots": 0, "bs": 12, "bc": 321, "rs": 12, "rc": 280, "ys": 10, "yc": 248},{"id": "6f0993b238cd4fb4a9c7819de1a55e07.16", "url": "https://lh3.googleusercontent.com/hdK-8S6gA6lSUIlDjWZj9XtmmH6s1yjEKPezayX23bacRLuPWfthD0a8eFtJG7cpiIlrYnuLj_k-b9vrzxhSmRao_wM", "name": "Flemingsbergskogens naturreservat, Gamla Sockenvägen", "lat": 59.22013400000000, "lon": 17.98243500000000, "team_id": 2, "available_slots": 5, "bs": 117, "bc": 65, "rs": 30, "rc": 50, "ys": 18, "yc": 24},{"id": "73ba1ed812ee44239846f5289c6fcf93.16", "url": "https://lh3.googleusercontent.com/g-F6ITEP013Tasr2UWfjqF1I2r3aNTKgEFIt4i-4dCDiSYSKBVjJeMM9tAHngsnJnclcKphY7OrtN5hQwruOWBxZGA", "name": "Orlångens naturreservat, Balingsnäs Mörtsjövägen", "lat": 59.22005400000000, "lon": 18.01409600000000, "team_id": 1, "available_slots": 4, "bs": 93, "bc": 65, "rs": 20, "rc": 26, "ys": 52, "yc": 55},{"id": "73c67505c05b478fb4d61aaa6dd27e2d.16", "url": "https://lh3.googleusercontent.com/Pt7NpJ0amy1dOgWaXDDONxUNjmg0zNqDQm8huTa1QOeg1_rzwQvhbFvMEQt-X_BHDNd0Zkt6lqAp4xktVbU1pUJDZA", "name": "Nedre Lännafortet", "lat": 59.21255500000000, "lon": 18.14897800000000, "team_id": 1, "available_slots": 4, "bs": 97, "bc": 64, "rs": 41, "rc": 48, "ys": 45, "yc": 29},{"id": "74bcba8f11454b789f178daba2765a9b.16", "url": "https://lh3.googleusercontent.com/G6005JKt3DD6WNm5xH3cIZ43l15_4dTnfPrOQ4kcacbdqClN7NKgHwP3Ayl1SOdsir-fNdhUcYTJPJ3MnkasolZY7SOu", "name": "Balingsnäs lekplats", "lat": 59.22126400000000, "lon": 18.01295700000000, "team_id": 1, "available_slots": 4, "bs": 110, "bc": 52, "rs": 51, "rc": 37, "ys": 50, "yc": 38},{"id": "75ae2f605b0841348b15b459a8d0cf9b.16", "url": "https://lh3.googleusercontent.com/Pnllh_Xt8756LWhHiKsWuLxaY3g4UKTBPjdu9YCS9auYH5xrtpwLnALTk7T4e_TZz2eSAGHgTLt1bb62SSRsnCWFA2uo", "name": "Elefantens lekplats", "lat": 59.22341900000000, "lon": 18.00957800000000, "team_id": 2, "available_slots": 5, "bs": 22, "bc": 127, "rs": 29, "rc": 160, "ys": 19, "yc": 116},{"id": "77a5783f7d5d428bb919794e990f894f.16", "url": "https://lh3.googleusercontent.com/ioSYEwvOznoSU5P9uidyg6q-ejU5gEQxT1ZaMiuZc5m3qJ1wQ6eyAn__uPdUIXgUjqKIgdC8IvT02YX7VD76f05_9W1L", "name": "Huddinges natur - Betesäng", "lat": 59.19999600000000, "lon": 18.14369100000000, "team_id": 2, "available_slots": 1, "bs": 46, "bc": 95, "rs": 20, "rc": 83, "ys": 53, "yc": 65},{"id": "79600470f1054c04941d0bc9d8eb43e0.16", "url": "https://lh3.googleusercontent.com/7CfVn4LiURFgU0WGT-j-Zl-WuvcgSFLFdPkaJNOeQD83e6vaK-9tK-oh4hYWAyIprVfateB8ugEzHjpykBXblg-rH9AH", "name": "Ågestavikingarnas runsten", "lat": 59.22914800000000, "lon": 18.07293100000000, "team_id": 2, "available_slots": 0, "bs": 128, "bc": 19, "rs": 210, "rc": 25, "ys": 110, "yc": 16},{"id": "7a26cd9c99474377beafc3474c652817.16", "url": "https://lh3.googleusercontent.com/vw-qdxbkZJFLxCDmCM75bo4-ng7LreuFuhUGYu_PWeyjhjYWnfv7fvFPHIMx2_qIvXc5-sQV70typDSTXYFpb1qiJQ", "name": "Stenfontän och matchande plantering", "lat": 59.22077900000000, "lon": 17.93795800000000, "team_id": 2, "available_slots": 0, "bs": 18, "bc": 265, "rs": 11, "rc": 195, "ys": 13, "yc": 193},{"id": "7a9da487cc03425ebd8239dff613c729.16", "url": "https://lh3.googleusercontent.com/Z3rH22rVHfMHHuI-qxxUTca60DWvCuCkyh_mj657BRIKLoFFlBI49mbU3N8r1PQpDR2akxo7yUj-CgmD7tynzQXs7g", "name": "Stortorpsparken Trångsund", "lat": 59.23136400000000, "lon": 18.13681600000000, "team_id": 1, "available_slots": 2, "bs": 27, "bc": 61, "rs": 45, "rc": 77, "ys": 52, "yc": 85},{"id": "7b602e0e5101321abd4aeefdd7b969e9.16", "url": "https://lh3.googleusercontent.com/msXLMY9oqoasDId4h7ywGVA9-OUIxxYD3mdC6oGukxyr-7Rmj-Y7lwreQmVTtTmef1kPPxQlz1UV3-Ok6Pen5cEJVPLVqPuyvHHE5Jp1jA", "name": "Vägvisare Bottnen", "lat": 59.21354600000000, "lon": 18.03454300000000, "team_id": 3, "available_slots": 5, "bs": 249, "bc": 6, "rs": 80, "rc": 5, "ys": 334, "yc": 7},{"id": "7b705fd474ac49d2866a32c07893bb24.16", "url": "https://lh3.googleusercontent.com/zO2yeHzO8edq3Z53BAZNgHTgcbNZR817LxV2UllK5g7nV3uc1CPDvZjjd7t7NQPw1IgNlgWkhLknc8nJNw9LBvdKug", "name": "Gungan i lekparken", "lat": 59.23070700000000, "lon": 18.07449400000000, "team_id": 2, "available_slots": 5, "bs": 135, "bc": 33, "rs": 140, "rc": 33, "ys": 27, "yc": 18},{"id": "7c342396fd8e3a8d80a1ee9ab5d3c9a1.16", "url": "https://lh3.googleusercontent.com/pXgOqpVBwyKebGwXJgjL7zNFdcy6Uv-F0WiO9EjVshArRUuRXiuEvYPXUY9CCcJAq5sqTz9AhmjEo92HgOzQ6PXoXPclh9gT84r7GRk", "name": "Lekplatsen vid Regnbågsvägen 6", "lat": 59.23764600000000, "lon": 17.91684200000000, "team_id": 1, "available_slots": 3, "bs": 130, "bc": 47, "rs": 34, "rc": 10, "ys": 64, "yc": 41},{"id": "7d513d4e9aff46faae4c98ee692897fe.16", "url": "https://lh3.googleusercontent.com/tWZQrSphh5dMdInXHBMw0hOuqbC2K9R7aJHFvkO3-5ShgzK26OBdOvXEZeAqamFgQPo-s9YXuXD6Ig8bXb2SPn0Hkg", "name": "Flottsbro Rekreation", "lat": 59.22931700000000, "lon": 17.88624700000000, "team_id": 1, "available_slots": 2, "bs": 119, "bc": 41, "rs": 66, "rc": 22, "ys": 91, "yc": 32},{"id": "7db469326dd94cf6865f9f778a6cb6c0.16", "url": "https://lh3.googleusercontent.com/MWGxQAbKUxFfucXKRNEarOmM0By6WdaOWVkA0FZSGEE3u_4zXKqStuPfjbncInYm3o1x-pyUpYGIxPVnMkQoZ6BMW7A", "name": "Fleminghallen Arena", "lat": 59.21876300000000, "lon": 17.94909900000000, "team_id": 2, "available_slots": 0, "bs": 19, "bc": 62, "rs": 13, "rc": 61, "ys": 19, "yc": 57},{"id": "7e6bc75dc85d4565825f5f9a89a2ae9e.16", "url": "https://lh3.googleusercontent.com/HQbHEUMHHs_iSzvm8Zkv08EVOegIMPWVEdlCxf-p5rh_SOISkSjtwcnxpN4J1ykes0VMSoOUxvgqqX_KCSYsQqMeNw", "name": "Runhällen i Glömsta", "lat": 59.23477200000000, "lon": 17.91473500000000, "team_id": 3, "available_slots": 5, "bs": 214, "bc": 22, "rs": 170, "rc": 10, "ys": 157, "yc": 20},{"id": "7eb731bd6097420b8ac0fe82cf60fd40.16", "url": "https://lh3.googleusercontent.com/orTpEUZByJIfS5EfYPKdb5pCs_bAZJelzC265FUASro-ML6gwWWntIAh6GoiZ0Q7Z5DR6IMJ6-ipYS3tjPB7ycyzZhs", "name": "Sjöboden", "lat": 59.21226800000000, "lon": 18.16506500000000, "team_id": 3, "available_slots": 5, "bs": 33, "bc": 45, "rs": 39, "rc": 91, "ys": 49, "yc": 91},{"id": "80057a224fa74ce091e23b3eae53f94d.16", "url": "https://lh3.googleusercontent.com/_fedzqqgf_94SnH0Z_fnbTkZ0OCdVnA1DOXNJOma9y0sYVuWdL1xrIGknSJE1LidCGmS5zQw0XQq1VxLCDevbooqGQ", "name": "Gömmaren Natural Reserve", "lat": 59.26776300000000, "lon": 17.94367800000000, "team_id": 1, "available_slots": 4, "bs": 34, "bc": 140, "rs": 23, "rc": 67, "ys": 26, "yc": 120},{"id": "8086a8dc9d0e324c8f707a1a92648f87.16", "url": "https://lh3.googleusercontent.com/oRex-Vjk81XVLtcep_M2VLTQ4byjQwQZp_DP8A7qrXxAB2J8MqjenA0qvcJS49vIbZdZATBkkjzpytS-_FAfIt1pbSocSQTJaXR8Ar0Z", "name": "Gömmarens grillplats", "lat": 59.26861200000000, "lon": 17.93637900000000, "team_id": 3, "available_slots": 2, "bs": 57, "bc": 65, "rs": 28, "rc": 35, "ys": 71, "yc": 62},{"id": "81dc9cc5c3db4b9ba2232f1f67878fc0.16", "url": "https://lh3.googleusercontent.com/RQIUW55GFLVTD8uKHubEmAVietdpixp_PUIzdd9-V1KU9u39YE8IJ2vuczBiRJJv_n_V-ys80sVklGC3FzHLZhHYtnSV", "name": "Lekplats Timmervägen", "lat": 59.20934900000000, "lon": 18.14680700000000, "team_id": 1, "available_slots": 4, "bs": 32, "bc": 44, "rs": 28, "rc": 81, "ys": 58, "yc": 99},{"id": "828cd38448004f47b316662fcdc58a3e.16", "url": "https://lh3.googleusercontent.com/jUAtbVp4PxYly3aBg72vgjRb1qXHO_oN5PaJ4-AaSQe4ss_9w-u78-kWHdR0vbPvsbRLLPV8xs6p87E9vo8iB_k64VYok0mnOH-GaXM", "name": "Lekplats Sågstuvägen 4-30", "lat": 59.21729500000000, "lon": 17.96036700000000, "team_id": 2, "available_slots": 5, "bs": 45, "bc": 80, "rs": 44, "rc": 60, "ys": 42, "yc": 78},{"id": "82b965dd8d1e434fb6679b7c4fa4e0f6.16", "url": "https://lh3.googleusercontent.com/HEqqwg547xEf4wNEhVNIwA_BRmS2sCAJlQn7VzI9g9V5dUH7gjqepWrBCtULJ1Z75aqLqA-lhu5Qq6XFNy-txp0RMf0", "name": "Rådsvägens lekplats", "lat": 59.24246200000000, "lon": 17.99130800000000, "team_id": 3, "available_slots": 0, "bs": 11, "bc": 171, "rs": 32, "rc": 222, "ys": 6, "yc": 82},{"id": "82e59432daff44388024fec01b6bc2b4.16", "url": "https://lh3.googleusercontent.com/uWvBgGpBNCyrrnxjqvFNJ-df6aGKvCV8HDIP5zZSzggwqyy6IEPDhb8Xrbz_7wK-v7e8YTiAZYfyURB01kJuU7WEJyQ", "name": "Street Art in Flemingsberg Centrum", "lat": 59.22235200000000, "lon": 17.93827800000000, "team_id": 3, "available_slots": 0, "bs": 20, "bc": 178, "rs": 19, "rc": 182, "ys": 15, "yc": 162},{"id": "8305e650cb894b31ad3d322e4c8ecc9b.16", "url": "https://lh3.googleusercontent.com/fTsEkdqhXJvPWvqkOooW-N6YG4jlIChsRQfFAYK0KrQgr50_o6heR0lBxNTFFMyCeKdFzBv-Qbhzhk0X2tttJTdpkZc", "name": "Damen Med Hunden", "lat": 59.22334600000000, "lon": 17.94096100000000, "team_id": 3, "available_slots": 5, "bs": 22, "bc": 128, "rs": 19, "rc": 110, "ys": 28, "yc": 158},{"id": "83097e8ea061426eac31010a83d01280.16", "url": "https://lh3.googleusercontent.com/fnLMSf3EmX1pIP6Dbq7uNlKnDC-_CHa8QMP5QjzzwVD0pRZNQk0sZ3GievVXnzX5-d3v3wQ9j1ISk7TQ3ixmIUVn0Cy9", "name": "Brutal Milestone", "lat": 59.28193800000000, "lon": 17.95632900000000, "team_id": 1, "available_slots": 0, "bs": 55, "bc": 128, "rs": 16, "rc": 90, "ys": 18, "yc": 59},{"id": "8387c6e46ca64262bd3174976f175e26.16", "url": "https://lh3.googleusercontent.com/vmvWSkWSqPMnwRh0ZtUsuvBY8IUAliZHEGFQ5vwav_aCGJAqMWrV96oLvjrv4d702SgGGvd73ipwgbyMvPXKNwW2oQ", "name": "Rocknroll", "lat": 59.21675000000000, "lon": 17.95023300000000, "team_id": 2, "available_slots": 3, "bs": 17, "bc": 122, "rs": 35, "rc": 146, "ys": 20, "yc": 118},{"id": "85394cf19fe641ac85daca318a20450d.16", "url": "https://lh3.googleusercontent.com/QL5RieaIm9UUVNgHbsk7r1UEROulD62N0S2fQzJX_xINJnND_VfWUysRLWd9W5dOzCaABO8Rj7WLDCvdXxilBisEew", "name": "Stenhuggarvägens Lekplats", "lat": 59.25920200000000, "lon": 17.97613900000000, "team_id": 2, "available_slots": 3, "bs": 42, "bc": 90, "rs": 38, "rc": 98, "ys": 31, "yc": 66},{"id": "8764c4cdf50c482191f43d925bcb4d93.16", "url": "https://lh3.googleusercontent.com/CCE5yFVyIlalbj7gdDDeUshp1IDSlOvseG5MFu-7lW4JCLti6LFMH6GVR6QRORR0IJ5_bYqT6BY58d5Q46s5AMOwfio", "name": "Lekplatsen vid Kortvingevägen", "lat": 59.24779500000000, "lon": 18.03567300000000, "team_id": 2, "available_slots": 4, "bs": 37, "bc": 67, "rs": 89, "rc": 71, "ys": 33, "yc": 18},{"id": "8839c68098cc325791727bed27a52535.16", "url": "https://lh3.googleusercontent.com/uMbUcHkwgaoRMVHIwJjIr_04l6rsjJIX8Pz2IVDo0zBUDdO4ZaxSjAIaGjnOK17VZfDIdweFilyhzNOfA_w1FzUCGF4", "name": "Länna Market entré", "lat": 59.19872900000000, "lon": 18.12501700000000, "team_id": 2, "available_slots": 5, "bs": 92, "bc": 50, "rs": 78, "rc": 39, "ys": 45, "yc": 42},{"id": "8917801b3f65443e8b634208eb401f8b.16", "url": "https://lh3.googleusercontent.com/5f23q5dSuxhaAFK28ECh8jAu0iH1_sn18trkWSkrs4LPKPJ5FRjsvhL9owrwoZSSgRF8NStbThhlx27jUssvPFmoeQ", "name": "skepp ohoj", "lat": 59.26389800000000, "lon": 17.88985600000000, "team_id": 1, "available_slots": 2, "bs": 37, "bc": 135, "rs": 38, "rc": 70, "ys": 18, "yc": 100},{"id": "892434ce458c4906b9da79755c269c5e.16", "url": "https://lh3.googleusercontent.com/XeFEVFGtaXFhFa-NrHPVuThuDbd3Gy2qjYtDX9RbR9j42PBlNkGvOLY_xWy26b5kXnzEGNRcaYY49LDjp6yk7xBFNQ", "name": "Trångsundsskogens Naturreservat", "lat": 59.22770800000000, "lon": 18.16503300000000, "team_id": 3, "available_slots": 4, "bs": 81, "bc": 23, "rs": 104, "rc": 10, "ys": 237, "yc": 27},{"id": "8b607a31101b4200992a65861a7cb340.16", "url": "https://lh3.googleusercontent.com/2J8hQNJUP2-yHJQdgJX9WzzZKVolsUkj_pdNc2j9RHLY66nOGTei9K-zI8kezhbsqUb0gahsE461OrzfuNKxhooDUwKb", "name": "Gazebo Huddinge Sjukhus", "lat": 59.22067100000000, "lon": 17.93292200000000, "team_id": 2, "available_slots": 4, "bs": 23, "bc": 168, "rs": 17, "rc": 85, "ys": 26, "yc": 163},{"id": "8b998423c84a421f92c5dcfbd2b158b3.16", "url": "https://lh3.googleusercontent.com/WORR60OlpbSVqu33nwa8QUZTwPxafqQvEgs0hEDeyox5rxl77vpAA_e_izAvkOs25snSCHNvLZauTRw0grGAzlS2eqY", "name": "Uggla vid ABF Huset", "lat": 59.23863400000000, "lon": 17.98584800000000, "team_id": 3, "available_slots": 1, "bs": 17, "bc": 148, "rs": 33, "rc": 178, "ys": 14, "yc": 90},{"id": "8ba7bb30bc0a4d2088716a17f77ee788.16", "url": "https://lh3.googleusercontent.com/0pWRUrvgoSQQD3_vwBSeFU78DD6Nn6rBP-GOmXVycQ8P3yVL0AqvVvNv3WBgSGPVu08JU8Kop5pAgtS3zxqheDIGCf4", "name": "Elhus Skogås", "lat": 59.21745800000000, "lon": 18.16496600000000, "team_id": 2, "available_slots": 2, "bs": 51, "bc": 75, "rs": 39, "rc": 92, "ys": 29, "yc": 68},{"id": "8cd279fae9964905ac41551c90ff0473.16", "url": "https://lh3.googleusercontent.com/KyRnvhiYQzV-gK3oyJ2dhhDGkba2Wpr8fy2htDO50fHrFNW-hSyQzaY_4ZkuO58eJslUUxEfLX3YNZALc0xRVlTy7w", "name": "Huddinges natur - Skogsstigen", "lat": 59.20814300000000, "lon": 18.15934600000000, "team_id": 1, "available_slots": 0, "bs": 260, "bc": 11, "rs": 399, "rc": 7, "ys": 287, "yc": 7},{"id": "8de0d8c06bac3739b1c42edb8339eca2.16", "url": "https://lh3.googleusercontent.com/mfSbsjfD1U-xRKjZ0y-R2kkT3BBc9IQWlJzLrifVN4Nx5-Y1JYftnnNg6bVp6HEmCmu4iChOXnZkicYE1OKWVBqRdJF7tBMupN0C2zNbqA", "name": "Visättra Rastplats", "lat": 59.21764200000000, "lon": 17.96979500000000, "team_id": 1, "available_slots": 4, "bs": 170, "bc": 42, "rs": 48, "rc": 27, "ys": 55, "yc": 18},{"id": "8e0d912efdc6482fa9a15c0c92919baa.16", "url": "https://lh3.googleusercontent.com/lGGcJ9Pr5lv4xjYnjKhPGgi9UllO-xUcddkIOJxkSWj9yy_ZIg8a55X2dP7sqRHWNq7fl91f1jMgAUqwkWhwnABatA", "name": "Björntjänst", "lat": 59.23569500000000, "lon": 18.00582400000000, "team_id": 2, "available_slots": 4, "bs": 13, "bc": 102, "rs": 40, "rc": 166, "ys": 13, "yc": 116},{"id": "91a300792b5435c3bcfe0237a51dcc88.16", "url": "https://lh3.googleusercontent.com/TIiUUCzWDFkTylKE4FJhfcQjtjpgAF2wlwWjmZcXpC_qotR71bT7QUr7hpzQnDYw4CKNFjREl561p_OYS3oc6b2de9xGgtqdmfqOfOzKNw", "name": "Bron över skogsbäcken", "lat": 59.20780900000000, "lon": 17.93688700000000, "team_id": 2, "available_slots": 3, "bs": 0, "bc": 0, "rs": 0, "rc": 0, "ys": 0, "yc": 0},{"id": "931f8d90cf6241e7ae3ad7cc68d77e5a.16", "url": "https://lh3.googleusercontent.com/GoEATNXFgX4gtoFafMT2T1DJD8AmNHMBiZGxA8goG_-8Vkl3-vU4cDqEeYTZwATLAaC21ta2XEHtbVY9zSElCe83mgk", "name": "Huddinge Kommuns Skönhetspris", "lat": 59.22242200000000, "lon": 17.93880000000000, "team_id": 1, "available_slots": 3, "bs": 17, "bc": 195, "rs": 16, "rc": 182, "ys": 18, "yc": 179},{"id": "9360009d73974096a78b4aa32a1113ec.16", "url": "https://lh3.googleusercontent.com/WaRfD3m1xl10yZHWQMnmqsX5MRK6-J1zVltPlcThdxUJh3q_ZZW1YxvGoH6WGHXmuNLmY_3TTNuEhI4UrZXSK8tpzEA", "name": "Långsjöns Utegym", "lat": 59.26656600000000, "lon": 17.96678400000000, "team_id": 3, "available_slots": 5, "bs": 25, "bc": 112, "rs": 14, "rc": 54, "ys": 44, "yc": 134},{"id": "93e8424df0e14c1f8d0651339bd974e2.16", "url": "https://lh3.googleusercontent.com/ZHSaqqIByRBSzzG3aOjjZAy1jM7X-xmG0Q6oGLtKPsu9M0HkVsTqAZoJnVbmuTc70a5VWDpkGFNF2AGUMG_Bxxx2B8BE", "name": "Kvarnhjulet", "lat": 59.24181100000000, "lon": 17.99758800000000, "team_id": 2, "available_slots": 5, "bs": 28, "bc": 115, "rs": 30, "rc": 118, "ys": 24, "yc": 120},{"id": "980581055b1e4dd095044b7e08dd337c.16", "url": "https://lh3.googleusercontent.com/5N2ERO3INCjdSTGMC8-YcRL0dWj8Oggb6-nFtiGUEdoewlCWNrOgrFd3Vz2Hu9t2JuR5LSlADzuiHWDfbSdVtHutGg", "name": "Huddinges natur - Lännabadet", "lat": 59.20120600000000, "lon": 18.15100700000000, "team_id": 2, "available_slots": 3, "bs": 44, "bc": 70, "rs": 42, "rc": 48, "ys": 69, "yc": 62},{"id": "98871d86d0004a9686ff9bc9ed6cb49b.16", "url": "https://lh3.googleusercontent.com/5kc2DQ62gAMSTAJzmS55QHuBg7Y8nrFjh6DeSmMu1LcJkaROrmWlLmK8ir-rbKP0Ldgz_fLAGf4rnqmSA1eaN5ZTGkw", "name": "Masmo Subway Station", "lat": 59.24989900000000, "lon": 17.88112400000000, "team_id": 1, "available_slots": 0, "bs": 52, "bc": 59, "rs": 77, "rc": 72, "ys": 30, "yc": 26},{"id": "9889c0cb0b80420b8c9a9472ce921530.16", "url": "https://lh3.googleusercontent.com/xdvPr4mxQ6jQ-wZV9nlmlX-BeGsY13kjHhvDrP9j9q50ukJUwAmanN15WI9F_MK3-26Pwn11UK9MCSspYwdh-L4pmQ", "name": "Bergsvägens lekplats", "lat": 59.28146800000000, "lon": 17.95106600000000, "team_id": 3, "available_slots": 0, "bs": 12, "bc": 305, "rs": 6, "rc": 63, "ys": 17, "yc": 317},{"id": "9a4ea1e817014079bd0844840e935ceb.16", "url": "https://lh3.googleusercontent.com/j0Ve7f1oOYWf86hCz7vLCiVr6LQfUMj3yYuMqYezXRVg5tq4ySdDdXlgitpHEPHsKMACKXvG4wAt4I371Hr8z0tk-u5L", "name": "Betonghästar", "lat": 59.21954200000000, "lon": 18.15129600000000, "team_id": 1, "available_slots": 0, "bs": 32, "bc": 122, "rs": 21, "rc": 59, "ys": 37, "yc": 118},{"id": "9b5cebe50bfc45eaba343bc6790612f2.16", "url": "https://lh3.googleusercontent.com/WHpuramQ1Rclh6ScMZY8WJ_w7f38QqoQLFIB6_0BBBzvDL2Hzg4ByFO5ZnDvedd9ZLTKessdve_YqyWemuJ9i6qfk2k0", "name": "Lekplatsen Borgen", "lat": 59.23050600000000, "lon": 18.13373900000000, "team_id": 2, "available_slots": 0, "bs": 37, "bc": 102, "rs": 35, "rc": 81, "ys": 29, "yc": 96},{"id": "9c0df6b11fe14899aada2a23f12bc6cf.16", "url": "https://lh3.googleusercontent.com/Vhr-a2VZVJmQvTQPbxt87Baaz36USIBlD9W_XLut0I_M8cP-35Uo9MwZzwEovPTyxx9VwL30Jgl6PX-z5S3zQ5PVhLU", "name": "Fasaden", "lat": 59.21884700000000, "lon": 17.94996300000000, "team_id": 3, "available_slots": 0, "bs": 14, "bc": 270, "rs": 16, "rc": 212, "ys": 10, "yc": 211},{"id": "9d7157a22e8d4bf48c4e355fb7031127.16", "url": "http://lh3.googleusercontent.com/1mBHDn6XiXZQH7EP_uvHEEuRcJsqNBZ0yukfXwVTu1ha37V47faZ96baBEyLAPdFItMC0Kb-C7hvPCtR_ekR4KA1qURM", "name": "Flottsbro Lekplats", "lat": 59.23094600000000, "lon": 17.87936100000000, "team_id": 2, "available_slots": 5, "bs": 217, "bc": 17, "rs": 305, "rc": 15, "ys": 116, "yc": 11},{"id": "a09a40d5cc11431fa1c2f136fdd6a669.16", "url": "https://lh3.googleusercontent.com/4SE6v1FBsLvP1jpYLieK03DLaJ6Qa27Pme1CLgYd21AtB9wKCosdHR_Ji_mk-oeHJB0gtT4x4Zk1izzlUw5wEeZ-9iA", "name": "Bortglömd klätterställning", "lat": 59.21850500000000, "lon": 18.15815800000000, "team_id": 3, "available_slots": 0, "bs": 16, "bc": 88, "rs": 3, "rc": 53, "ys": 56, "yc": 137},{"id": "a1022b093cc04d878927e8deb36aef26.16", "url": "https://lh3.googleusercontent.com/xdn5Ms83yDnYobQRSELntiEUsmsmFrFuDGMdwabA5o5kp2NGM-dxZgjiJZehO0PRMv0g6map6pL2nFC1En_W3wrAMAJ9", "name": "Ekorre", "lat": 59.20536000000000, "lon": 18.13529600000000, "team_id": 2, "available_slots": 4, "bs": 57, "bc": 70, "rs": 35, "rc": 65, "ys": 61, "yc": 54},{"id": "a1071879bbc44175a0690188db7d9e7a.16", "url": "https://lh3.googleusercontent.com/tYTS7zznKtzpX-kId1kdz6kH3C3an2IvtPReTz2ctLMmeEncaqQUHatgxpO74WdT16EvO-aW1WCk83yX4wOCgS7t8w", "name": "Lekparken Balettvägen", "lat": 59.22685100000000, "lon": 18.15499600000000, "team_id": 3, "available_slots": 5, "bs": 22, "bc": 203, "rs": 13, "rc": 55, "ys": 22, "yc": 197},{"id": "a15f433357f84879aedace1e632a2c59.16", "url": "https://lh3.googleusercontent.com/gv35yhEwDRqx_m6LN1I82O0ABDsx_iZHvMIujarQAZOQlHGBTahsXcOQJaWTiqTQS-3Di6NDu0jn2Ur5jMBkSTxgBw", "name": "IK Södra klubbgård", "lat": 59.21592700000000, "lon": 18.12076500000000, "team_id": 3, "available_slots": 5, "bs": 326, "bc": 4, "rs": 1209, "rc": 6, "ys": 187, "yc": 3},{"id": "a35a08ee32ac413585689837e442d5da.16", "url": "https://lh3.googleusercontent.com/jsjXGtubeWevaU2cnbIfY6kNQEEGUZoLO9Xm3ef9G4tbc6i3HlShJS6yxOI2E_aNyg4oMDdINOHvEQlEd9v74ddGwUVa", "name": "Flemingsbergsvikens Våtmarksanläggning", "lat": 59.22150900000000, "lon": 17.97811100000000, "team_id": 3, "available_slots": 4, "bs": 107, "bc": 65, "rs": 44, "rc": 47, "ys": 25, "yc": 22},{"id": "a391ddbb67814e2ca77cafd1a244232d.16", "url": "https://lh3.googleusercontent.com/KYh8PGmSeWzUbqGpvIcsMxh6V3vO6sMQA5bpW1KaVNslie3hq2iYddUmN3Wt6lEaXwFB1p6CoktsxD52ksTg4hpsKSeK", "name": "Lekplats Vitvingevägen", "lat": 59.24793700000000, "lon": 18.02751400000000, "team_id": 3, "available_slots": 4, "bs": 5, "bc": 97, "rs": 13, "rc": 287, "ys": 17, "yc": 307},{"id": "a3b3911ff9d44524b53e294b89224324.16", "url": "https://lh3.googleusercontent.com/IlXNzWqTCKFtT17byxK44cl9erTiaklfiqH3qHWOL6RgXoiL9PIpckshPdx4VrTC6oYUVQ-IPC1Ey37pSbM9i7nAXg", "name": "Gränsröse", "lat": 59.20109000000000, "lon": 18.01794800000000, "team_id": 1, "available_slots": 2, "bs": 146, "bc": 36, "rs": 93, "rc": 27, "ys": 103, "yc": 13},{"id": "a4e070094ec345e789903f8c71a65bbb.16", "url": "https://lh3.googleusercontent.com/BI1ub7VbZc6zcu31fkBmTVFesZVbyzDs7yR7PP3OPPcC4y7lLeANpAmxs6euQQi_0Z-miQRZjd4n6TnBceETxxpj3euIb2XQH4eZROzX", "name": "Den gungande dalmatinen", "lat": 59.22787400000000, "lon": 17.92004300000000, "team_id": 3, "available_slots": 4, "bs": 107, "bc": 31, "rs": 50, "rc": 15, "ys": 167, "yc": 32},{"id": "a59f4503519846979f54cfd18c42e960.16", "url": "https://lh3.googleusercontent.com/DdoKgAWY7UC7JRbM1qUZbEGS1VAOmytPN1f14dKgZnMnl0vuEt0Wut_B7hl0khcaVNrx_Oiir9brWw160hxkwNsIs_k", "name": "Äppelflickan", "lat": 59.23876800000000, "lon": 17.98797700000000, "team_id": 2, "available_slots": 0, "bs": 15, "bc": 154, "rs": 28, "rc": 183, "ys": 17, "yc": 128},{"id": "a7150c913c6640a6af543fc005b05549.16", "url": "https://lh3.googleusercontent.com/085ebCCjZqcH_L6hihh1_B_9rTuHbs1ZmWMQICZuafvE7nHZz1_TKKw4_Rho4fN3x5THP1o6vvxk0bTFN2vO0f2uHyk", "name": "Lekplats Byggmästarvägen", "lat": 59.25941100000000, "lon": 17.96424500000000, "team_id": 2, "available_slots": 5, "bs": 38, "bc": 206, "rs": 9, "rc": 98, "ys": 8, "yc": 115},{"id": "a8080d48972d4f85ad1d4b46fce88dfa.16", "url": "https://lh3.googleusercontent.com/FG8qT7Y_Lu6dpiGAcQdx-u6hrYD7fzEIAeDxFudTBAjB5rX792Y2uuEMoR8X5HfWj9eDdCfjKBtzxrYmRwucod4HvQ", "name": "Klättra Högt", "lat": 59.27628200000000, "lon": 17.94787400000000, "team_id": 1, "available_slots": 0, "bs": 48, "bc": 120, "rs": 22, "rc": 69, "ys": 23, "yc": 90},{"id": "a941c830851f4624a183b19a7d714725.16", "url": "https://lh3.googleusercontent.com/ZrDetLNpp4jSjKpbVFnAP7VcuW9eErzYMA_M6RqwEPf1TwBQ-aPO8sW8GfUUrHh7fWZ0NhusmSODjHlTqyk4BFO9WU68", "name": "Minibollplan", "lat": 59.21659200000000, "lon": 18.14967400000000, "team_id": 3, "available_slots": 0, "bs": 33, "bc": 67, "rs": 25, "rc": 54, "ys": 59, "yc": 98},{"id": "a9bd00b9ec49497894270aaeddfd963d.16", "url": "https://lh3.googleusercontent.com/_Mr9LDolr3X_sf1VGLZZXd50qpnIQA8d7KKhwOK_IM5AKcdn2G4Y2jHdYs8N9AMRA6Xoa0PQx3IEcf2E7EQXBCA96Fc", "name": "Lekplats Blåsippsdalen", "lat": 59.23303300000000, "lon": 18.14776700000000, "team_id": 1, "available_slots": 4, "bs": 56, "bc": 62, "rs": 81, "rc": 62, "ys": 26, "yc": 41},{"id": "ab54b064e6544f2d995302db8d3e9e7e.16", "url": "https://lh3.googleusercontent.com/bkct4r_Gvem3SnbHaIO9WDqNzrcLJhCDCMe_jvZ3E7zXo_31jbLs5M1kh5cFExYntE9g4aaDR-Yf5wRny8fOfU36qw", "name": "Silvergransplanen", "lat": 59.23246800000000, "lon": 18.00426100000000, "team_id": 2, "available_slots": 4, "bs": 12, "bc": 14, "rs": 28, "rc": 56, "ys": 19, "yc": 47},{"id": "ac5d7cab07ad49799d48e216f543b8d5.16", "url": "https://lh3.googleusercontent.com/_K11qj-bIA-jTnMDzcm4xDnn0LIiccgYcuaSaNI9Co6nXwbDihonzc5rogOv_Jf3feYvmoiIk0jG1Sc_KbPGa1z_95M", "name": "Rådjur", "lat": 59.23779000000000, "lon": 17.97002800000000, "team_id": 1, "available_slots": 0, "bs": 14, "bc": 353, "rs": 7, "rc": 182, "ys": 11, "yc": 307},{"id": "ae16d6bb05164aa1a5ead20323a90e43.16", "url": "https://lh3.googleusercontent.com/scJ7llre1QcU5tmmy3L3lcGLlhcmqLnvY0fSwbUEgVeqpDt2jm75FV8YobRoy7sa07LsZf8t9cPm4JEE-uLs6n1Klts", "name": "Segeltorps Kyrka", "lat": 59.27707000000000, "lon": 17.94097700000000, "team_id": 3, "available_slots": 5, "bs": 33, "bc": 125, "rs": 14, "rc": 59, "ys": 42, "yc": 108},{"id": "ae83b2d3b7fe4a2298e6d555be15b5f5.16", "url": "https://lh3.googleusercontent.com/aAzt17b0qy_sPiPOzNiXdb9qUp7rMX9Ev3VxpxTvThk2ykK3WQvFDS5m5BFY49RZXeXUR-FFnYZ0GceHoyYsoua8T_4", "name": "Skrivsugen", "lat": 59.22874200000000, "lon": 17.92478500000000, "team_id": 1, "available_slots": 5, "bs": 54, "bc": 88, "rs": 32, "rc": 61, "ys": 41, "yc": 69},{"id": "af5f0563a292411995bf12408ac6fa0a.16", "url": "https://lh3.googleusercontent.com/QePgpoDY-zvhdKA5ThXxN-U4l8FK43T_0nc-HKHHlGzaGgoV4zWFf6rLWz2OjhjOILFDU0QepBewVJi9K937DjHjXxQ", "name": "Lekplats i Röda Gården", "lat": 59.22750300000000, "lon": 18.15071300000000, "team_id": 3, "available_slots": 0, "bs": 59, "bc": 69, "rs": 26, "rc": 59, "ys": 51, "yc": 72},{"id": "b263f0b87baf4d1c9831ad09366864d7.16", "url": "https://lh3.googleusercontent.com/Q9WKG8HX3gmNYh1HRAabWi9BVzjZsiMzy5botcnkaHvHfDIjmI7g8tDwKBjf_Vfhlz2GPo2akrP2zlgaqcJ4LakD0uY", "name": "Kaninstatyn I Segeltorp", "lat": 59.27959300000000, "lon": 17.94193100000000, "team_id": 2, "available_slots": 0, "bs": 12, "bc": 243, "rs": 18, "rc": 270, "ys": 23, "yc": 81},{"id": "b2be89a637544822a21c35411951e97f.16", "url": "https://lh3.googleusercontent.com/H8BQBsXWbWnLUucl5_yefBIJfnLBMEpy07AEHoH1s0BEa2K9TEpGz8dVbJt7QDXbSf8HLOSyPkbYi5TrdNCgmXUIRrw", "name": "Flemingsbergsskogen", "lat": 59.20123400000000, "lon": 18.01610500000000, "team_id": 3, "available_slots": 5, "bs": 130, "bc": 42, "rs": 73, "rc": 28, "ys": 83, "yc": 23},{"id": "b2fea45ab9bc4537984d566dbc65a791.16", "url": "https://lh3.googleusercontent.com/mbNwgUCUycyYgV6ODgGVcwPSguFWjoxRNR75rbdh9V0iC2dWlkZ_kweC0_kKDHENNdExwUTlICepSJTDklLR31rs7N2j", "name": "Korna i Tunneln", "lat": 59.22411900000000, "lon": 17.95395600000000, "team_id": 1, "available_slots": 1, "bs": 49, "bc": 2, "rs": 145, "rc": 2, "ys": 15, "yc": 1},{"id": "b3a0f5cfb1534f7682e5c0c16f65ec95.16", "url": "https://lh3.googleusercontent.com/Brt2cb_Jn_y51pGK3gUboOtjJtzYuHMkdk2VIj-mZEYpZFdoDljf2_Ky0cr-dI6x1dOR6S0Gu8LEZVMz0tsI4ev2ypJK", "name": "Sjödalsparkens Utomhusscen", "lat": 59.23698200000000, "lon": 17.98447900000000, "team_id": 1, "available_slots": 2, "bs": 23, "bc": 221, "rs": 16, "rc": 169, "ys": 11, "yc": 156},{"id": "b40df53d98294131a9ac3edbdb872232.16", "url": "https://lh3.googleusercontent.com/GH7SyN8e4GgqcmxTWAhSu9bsBYDh_q7X_lSQ0YqH8YKgmA6LlT-CCbWHg1OuOlnvJvTXD1WkBJvLic5pfx9NwruCcmk", "name": "Rakufågel", "lat": 59.21918600000000, "lon": 17.93618700000000, "team_id": 1, "available_slots": 0, "bs": 14, "bc": 216, "rs": 14, "rc": 182, "ys": 19, "yc": 201},{"id": "b47720f8a23b4cc888182ed995a8c5e2.16", "url": "https://lh3.googleusercontent.com/of-ZYk1EURpbiD1V8YHm_nUEgRMg-lhMrHFpeO5loaKpcOpbyxyV8rBhauotgos_OCzypV1aGkkaXuQF6b2i_MzBq0s", "name": "Källbrinks Utegym", "lat": 59.24798300000000, "lon": 17.95044100000000, "team_id": 3, "available_slots": 2, "bs": 38, "bc": 92, "rs": 34, "rc": 68, "ys": 37, "yc": 95},{"id": "b4c7012b37394e8db23b57fe4534e795.16", "url": "https://lh3.googleusercontent.com/mGZP6BUSSWgD8svbLjBB59Wt103SKM6faZq3C4kQORN6CvtYKbzw5wzve5QY0Ubq4JXlRzd6mXzKw8y8oULPxzR9kAo", "name": "Forsforfällning", "lat": 59.22780600000000, "lon": 18.01053600000000, "team_id": 1, "available_slots": 5, "bs": 16, "bc": 39, "rs": 55, "rc": 113, "ys": 28, "yc": 97},{"id": "b56be530f0234a7dbd50bd18aab3ae2c.16", "url": "https://lh3.googleusercontent.com/uDMUNvj7VsRxNjlTqUXq3i-H9WVqHAyO2Q01Z1He-erpv301ZUxaJXwsmRLeZ9Ay7TYDTi2f2E7ElWZbuOG1fNmdng", "name": "Lissmadalens naturreservat", "lat": 59.17917500000000, "lon": 18.07288900000000, "team_id": 3, "available_slots": 3, "bs": 0, "bc": 0, "rs": 0, "rc": 0, "ys": 0, "yc": 0},{"id": "b5e13ec8985c476497d93ea281009f53.16", "url": "https://lh3.googleusercontent.com/whG1_F1rR3sXZv_COH-EtINgE2xj6-FxuK668UpKtTTiEh0XAZJFRJvXw-qTUTVZL6D3iPTnzPbcP3-VZ6ntyUrN7lY", "name": "Lännaskogen, Naturreservat", "lat": 59.18797700000000, "lon": 18.06981900000000, "team_id": 1, "available_slots": 5, "bs": 0, "bc": 0, "rs": 0, "rc": 0, "ys": 0, "yc": 0},{"id": "b62d4263cb814400ab4697f67299c723.16", "url": "https://lh3.googleusercontent.com/5iK620NFUf-jjLww_uiKMDLHDwTMJxvDaNarjqeufoxnCy5IKgMmQ0TPUgh-QvgjCNNQE6Gac1dcnds_j3SO70PYCg", "name": "Milstenen i Snättringe", "lat": 59.25561900000000, "lon": 17.97044900000000, "team_id": 1, "available_slots": 3, "bs": 18, "bc": 282, "rs": 13, "rc": 255, "ys": 8, "yc": 134},{"id": "b76ff2422065493f896c175b0d5e378a.16", "url": "http://lh3.googleusercontent.com/2_JQTeDBiU4_gixMdE33nprJVBtBiIV07hsrRYrPuwYnNSP5V1c4pKVcx6zTcgTUp5VxA-ZzGxqgLAnCo6LMPoWEXg", "name": "Övre Rondovägens lekplats", "lat": 59.21117200000000, "lon": 18.16528900000000, "team_id": 1, "available_slots": 4, "bs": 26, "bc": 74, "rs": 61, "rc": 113, "ys": 12, "yc": 59},{"id": "b8031050db1b3711a6421704d0cebfb5.16", "url": "https://lh3.googleusercontent.com/PQ9F0o2Beuu9JUTi4rD-fVhIrXiz2RpkIsjpXRYI84y_ly3ctVFJP7T_C-NEjvD8HtjC04Vkge5jzD8udIOYhjLB-8fJvFsO9cFHOuI", "name": "Ladan sport center", "lat": 59.16622000000000, "lon": 18.02522300000000, "team_id": 1, "available_slots": 0, "bs": 0, "bc": 0, "rs": 0, "rc": 0, "ys": 0, "yc": 0},{"id": "b81ac27b43764a42b1a8a2f9d3010794.16", "url": "https://lh3.googleusercontent.com/mowuKrlhallVQLZiRVRyIvD7Lh79fbXy5pVnnplnQCFI1NPlhDUDLuix_uYd4oNRC6IQd30WH8I61vdwkv9VwXKfOBI", "name": "Tårtparken", "lat": 59.20919800000000, "lon": 18.13268300000000, "team_id": 2, "available_slots": 2, "bs": 87, "bc": 56, "rs": 59, "rc": 38, "ys": 56, "yc": 41},{"id": "b877e06c5d474e3e9abd1441dee42ce2.16", "url": "https://lh3.googleusercontent.com/ZbUBGT6uhLFu4jJAu9QVSVLpea37SrbncGER0AYzG16KVnwW8Y-RMOvuOb_CRPd5AdhwvPPSYjhepTZ7O8n9KIEYyEo", "name": "Länna Vattentorn", "lat": 59.21135900000000, "lon": 18.14335800000000, "team_id": 1, "available_slots": 4, "bs": 438, "bc": 9, "rs": 836, "rc": 5, "ys": 126, "yc": 6},{"id": "bc1725f6f6884078bde49a67c327fb07.16", "url": "https://lh3.googleusercontent.com/KXOLexCznbg9gZZXcYf3KiU3lQf9McXPvifMitmE1WWUNj7eRJdB5By8lMhgi-m9IB4cQr4wPEcXdmGnJ4L71n7jhg", "name": "Skogås racketcenter", "lat": 59.21731300000000, "lon": 18.14856800000000, "team_id": 2, "available_slots": 2, "bs": 25, "bc": 75, "rs": 18, "rc": 54, "ys": 63, "yc": 106},{"id": "bc17cb79a5ec4627a85a48ed5e85dd4d.16", "url": "https://lh3.googleusercontent.com/fP4uxTgsWCSDh7Hp0Ccgt1BlkZ_riR2Wh9KXAVesvIMBIM8YhkeozVUDchn3FcH1aZULAWiZ8FtStjpK1gk7DvpXjKs", "name": "Björkängshallen", "lat": 59.24126000000000, "lon": 18.00630600000000, "team_id": 3, "available_slots": 0, "bs": 22, "bc": 72, "rs": 23, "rc": 116, "ys": 36, "yc": 148},{"id": "bc8715f1239e4812973f3b69b0a9dda2.16", "url": "https://lh3.googleusercontent.com/rAXrddPDahDCoDQlM98nMWxBI8JNCD5yfjdnsRpYGWbvSpOMDQ5mgsgdkaYegys_Sl_sduXCd4N5ZzMf09tAO4yeGuq24Ytld1tmKuEV", "name": "Skogås station - Norra biljetthall", "lat": 59.22027000000000, "lon": 18.15233100000000, "team_id": 3, "available_slots": 0, "bs": 29, "bc": 111, "rs": 19, "rc": 60, "ys": 43, "yc": 116},{"id": "bcba9e99cc5e4495a6c9576404997f1a.16", "url": "https://lh3.googleusercontent.com/ljFRjHAbIpmredOAoo7kiTPN4oqgJX29n4CK5UVe-42S1ruYWoI4ReRPpyvEl5VjG54mXAONkBCsfMFWrbYWXShHz9A", "name": "Liten lekplats", "lat": 59.27830300000000, "lon": 17.92739100000000, "team_id": 3, "available_slots": 4, "bs": 12, "bc": 383, "rs": 4, "rc": 95, "ys": 12, "yc": 370},{"id": "bcccf108dfc64d18aaa336ffad68bbea.16", "url": "https://lh3.googleusercontent.com/BaE5tX7YdN2EZwDhII2rWhklCrsEyFaPLNyTCUEQDGq904esYSO1L7dmj9D44r23Za4v7vUemX5kxAjsBh7Yu0pD3JjPG_nnw4Dnwqud", "name": "Mörtviksbadet", "lat": 59.21877800000000, "lon": 18.16819800000000, "team_id": 1, "available_slots": 4, "bs": 59, "bc": 56, "rs": 51, "rc": 49, "ys": 72, "yc": 52},{"id": "bd57542a420d4a818a09bb089437f46b.16", "url": "https://lh3.googleusercontent.com/SzNHKH65fVLKLxYc2g5igPK96ddz3jryLchgzjZaGtvAZ5iSBc6cAsGWgwKHO9DzL8GAR-3WRdDLdtWsyzmHWCVH4JA", "name": "Skogås Station", "lat": 59.21805800000000, "lon": 18.15454800000000, "team_id": 1, "available_slots": 4, "bs": 14, "bc": 139, "rs": 12, "rc": 78, "ys": 40, "yc": 166},{"id": "be081668fc7d333cb686056ad1718bca.16", "url": "https://lh3.googleusercontent.com/y5Z4y8ELKUzwogQIGsyaXV2-KG5PZ2lcVcSLtbLaDr97ixaCobkmOPR_zDE5kmVpAoSnHNLjYWUbi7NsMXE05oCPjm54i3uHzN0s9nE", "name": "Mörtsjöslingan", "lat": 59.21214200000000, "lon": 18.03053000000000, "team_id": 2, "available_slots": 5, "bs": 323, "bc": 3, "rs": 575, "rc": 3, "ys": 1341, "yc": 1},{"id": "be24d2f11a824d9f8f0ca72ad97095b3.16", "url": "https://lh3.googleusercontent.com/E7ukFCaZvbjMWd_t5wm-_qpA02k3ruZIkFHh4OdUskZ8LJ1-G6xn-gzZdbRI5384CMmpB2JP-FcpTxtY8jMdakh6-w", "name": "Visättra Discgolfbana", "lat": 59.21766400000000, "lon": 17.96832900000000, "team_id": 1, "available_slots": 4, "bs": 135, "bc": 49, "rs": 39, "rc": 35, "ys": 54, "yc": 28},{"id": "bee1ad32792f412d88f46e8128294850.16", "url": "https://lh3.googleusercontent.com/Xf7TOEQjy4mn8BZefpktsqIbQH8UJ7_U_woYnX-FqgFF4sOV-s83qcnO6O1b_0v5yMfFQwUfSEDQYwBDb8U5mLj65nU", "name": "Pallissadparken", "lat": 59.28125700000000, "lon": 17.93182400000000, "team_id": 1, "available_slots": 2, "bs": 41, "bc": 114, "rs": 23, "rc": 58, "ys": 32, "yc": 108},{"id": "beeefad00dbf4762ac2121f4c2903296.16", "url": "https://lh3.googleusercontent.com/XL_9W2u5_d41AU9mLQ3_Wqs-ARYfzRmWObdh80Q4fZBnYl6XK1gFZ6cJBwvgE-su310PfW8bxJG3S2zg_fj0PIs_SceK", "name": "Gamla Kyrkovägens Lekplats", "lat": 59.27792200000000, "lon": 17.94914800000000, "team_id": 2, "available_slots": 4, "bs": 21, "bc": 234, "rs": 18, "rc": 232, "ys": 10, "yc": 66},{"id": "bf03c40b27294a359c428b59fc1c3fcd.16", "url": "https://lh3.googleusercontent.com/qYpcymZnsOs7XMRVBJsg1mtduM-n_H0r2xnymdDSwAlfUkfJtsmD7aXhytIh71yvH-O2WICA4vC5DrCdTFs_R9v33g", "name": "Balingsholms herrgård", "lat": 59.22607400000000, "lon": 18.02832200000000, "team_id": 2, "available_slots": 5, "bs": 14, "bc": 29, "rs": 118, "rc": 65, "ys": 36, "yc": 39},{"id": "bf7cad1f133e43999008462d751c7f63.16", "url": "https://lh3.googleusercontent.com/YGG2Xpm0lJ30e8jTz6cesrZ-p60Z5E0WVSYKTnu5l8aU-tSI6HzK4RRb1XVMjqXWHr5XI4NSS2fzPJlkImLqiT69YOg", "name": "Jacobslundsparken", "lat": 59.27861100000000, "lon": 17.95222400000000, "team_id": 1, "available_slots": 0, "bs": 47, "bc": 139, "rs": 15, "rc": 73, "ys": 18, "yc": 103},{"id": "bfc064019d6338c3b7d520395a84181d.16", "url": "https://lh3.googleusercontent.com/eR2YGRXCPQXf2E0zGw0Sj5aF2MsFi7GUSpf5vtKVlPsIz7hXDzWGHqgJ2CHlpK43XWwXlcw3rdNwU9AyXEbTd_0Szm85", "name": "Patterned concrete tunnel built 1973-1974", "lat": 59.28295000000000, "lon": 17.94175200000000, "team_id": 3, "available_slots": 4, "bs": 10, "bc": 82, "rs": 11, "rc": 191, "ys": 15, "yc": 202},{"id": "c1d01f44c94b438cba99dde414f0a661.16", "url": "https://lh3.googleusercontent.com/Ql3Lx-HGpZ372Q23RqPGXP5MMjJLOoXaD2_y1CM9X3ypTqKUSrnLW_ZXQVCdbDXECgRW5rHlMr7xQPBA1tVlYF6ZB1s", "name": "Trångsundsskogens Naturreservat", "lat": 59.22848200000000, "lon": 18.15894100000000, "team_id": 3, "available_slots": 0, "bs": 43, "bc": 66, "rs": 21, "rc": 42, "ys": 68, "yc": 84},{"id": "c3dfc6e0e3cf499d8431c1e03680d597.16", "url": "https://lh3.googleusercontent.com/oJn5GGgR7RNwEde1cvQmB_i-C54CaWBPzQSyqEKEeVc2YD6TAKn4kb6rRDl5sm0gvtw7LPkWTkyLIuSoFd8TzBoGAxI", "name": "Fyrfatet", "lat": 59.21866800000000, "lon": 17.94096900000000, "team_id": 2, "available_slots": 0, "bs": 17, "bc": 124, "rs": 25, "rc": 178, "ys": 18, "yc": 156},{"id": "c4af6f5e1bca4dc0af8004d8ece34585.16", "url": "https://lh3.googleusercontent.com/sabLheCjYphl7thqc7yHt63vl8ZRpauDyjGfgq-90Qd2aI7Nc_gULLOLuZrdBLR3t1UeIibQDAvw532QpiorAueN3nOlHmgB0lgYiWI", "name": "Heron City Sphere", "lat": 59.26765900000000, "lon": 17.91029200000000, "team_id": 2, "available_slots": 1, "bs": 20, "bc": 235, "rs": 12, "rc": 227, "ys": 12, "yc": 172},{"id": "c4b542e7fe843df5b748bda787ac3d8b.16", "url": "https://lh3.googleusercontent.com/bwD6YOvLy_fjpc7K2ibn5dZEv-6Bf5VSKcnyocyyWLS6V_2kKxZ5f2NwAepFvPr2cfjahUqsPoprQFcejrSsg-kSdA", "name": "Lekplatsen Festplatsen", "lat": 59.15739400000000, "lon": 18.00594000000000, "team_id": 1, "available_slots": 4, "bs": 0, "bc": 0, "rs": 0, "rc": 0, "ys": 0, "yc": 0},{"id": "c577500ba8e4465d80ff1c6c65e641a3.16", "url": "https://lh3.googleusercontent.com/O3muC0JlQ2KTVBr4cB3YcU6Qz6LB3SbUr8U_4oly4SF_WL-rsDLoXXJGFBzHNLEQ7z5-mknsUQ50YtDt486cyueyz5c", "name": "Korpberget Information", "lat": 59.26681900000000, "lon": 17.87327200000000, "team_id": 1, "available_slots": 4, "bs": 44, "bc": 25, "rs": 92, "rc": 12, "ys": 209, "yc": 35},{"id": "c6689277a03e3c37b77ee565214867f3.16", "url": "https://lh3.googleusercontent.com/yJlgJ6Bd64RzrS4tr2SGZuRbdn0peLWT6K6lT_WmJ6-0KwwUAybrX53AipCsWwuCgVNJ-lnAUiW3KjeOxDSjGVNGm9A9TjdxuzsxK3ou", "name": "Vindskydd vid Orlången", "lat": 59.19672300000000, "lon": 18.02243100000000, "team_id": 1, "available_slots": 5, "bs": 322, "bc": 13, "rs": 67, "rc": 5, "ys": 220, "yc": 10},{"id": "c6813a0c7f3932e6a62d714b17347f31.16", "url": "https://lh3.googleusercontent.com/Ic3hvBHgiloaAh4n_n6EUzuDPhw6xv81ojOZRUVELHEq6M7pzOCwqlRJGzBvOZ9iCawkq7bEv4pGHl0x20Betwk7OwweYpomFrX3SMzZ", "name": "Fornstig Glömsta-Kästa-Vista Trail Marker", "lat": 59.23363400000000, "lon": 17.95448000000000, "team_id": 2, "available_slots": 4, "bs": 29, "bc": 74, "rs": 56, "rc": 65, "ys": 41, "yc": 92},{"id": "c9f29da829b4434f8913fd1a86ce69dc.16", "url": "https://lh3.googleusercontent.com/ZYzt-qxakiCv-DLswvM2ImVZ1tlkFFWY66lT8KwecRwDN-t-mVtzh7KmkY3LSifwa2RCrufI-SvPg7WEkXVlzFdxPoY", "name": "Vägskälet mitt i skogen", "lat": 59.14845200000000, "lon": 18.01816200000000, "team_id": 2, "available_slots": 3, "bs": 0, "bc": 0, "rs": 0, "rc": 0, "ys": 0, "yc": 0},{"id": "cb00ec91aa544fa0861380984be5094f.16", "url": "https://lh3.googleusercontent.com/vKB0BTBDVzUiWVHiMAAIb3hVPFmCAeYvLu538V7Mj_71aoTvMnz_OB0twZhYwRSUDEvMFGhwM5i5INcxCoj8JA14Ow", "name": "Välkommen till Paradiset", "lat": 59.17034500000000, "lon": 18.06020200000000, "team_id": 1, "available_slots": 5, "bs": 0, "bc": 0, "rs": 0, "rc": 0, "ys": 0, "yc": 0},{"id": "ceeca5ec0ebd4e63b9797ca54a5181d2.16", "url": "https://lh3.googleusercontent.com/pghDxKxvDEkYi-OJrzY8SY72pphljILJOBV0PutdWLGF8F_UiDNwT5syPIbJULu2HXsOIFb9Y7RICSHSVWGO8fM1i7o", "name": "Nygårdsvägen Stora Lekplats", "lat": 59.26492400000000, "lon": 17.87575600000000, "team_id": 1, "available_slots": 3, "bs": 74, "bc": 25, "rs": 170, "rc": 29, "ys": 70, "yc": 32},{"id": "cf0c4e2de96e49c7a42b3804dec5fa9d.16", "url": "https://lh3.googleusercontent.com/dkBg9ynSQyptKxpkGg_UjZerBVAvwUkn7oPPskoa9X9YJBmpxcTgmvzJpC3XFvhgXNVoXkuj6k5UEyxNpPOMcqltBw", "name": "Reliefs Mural", "lat": 59.21767300000000, "lon": 17.95483200000000, "team_id": 2, "available_slots": 5, "bs": 16, "bc": 156, "rs": 35, "rc": 176, "ys": 12, "yc": 74},{"id": "cf96c232d7064c9cab0661cf4fd39e71.16", "url": "https://lh3.googleusercontent.com/a0NlDopwhqsa9lxl2gg6CTd3CJmjMVtQ0YCuD5x7Xe5B82CTMWEAeQKEBE2sXzMPrMycJ6AYS3NyKlcNtQgYqBUpWJM", "name": "Lännaskogen, Naturreservat", "lat": 59.20424700000000, "lon": 18.07899600000000, "team_id": 1, "available_slots": 0, "bs": 805, "bc": 9, "rs": 165, "rc": 5, "ys": 39, "yc": 3},{"id": "d02ecc7e0dd84e38bfcca4f0957b604a.16", "url": "https://lh3.googleusercontent.com/XGGiB1Dwd3H36SfTDBL_VloQ3dGLKRDg_JDurULaP7_hpp0V3kaulB5zsxzp6FzgWB0toZvZoSDMy3KiKKrNo79MzA", "name": "Välkommen till Älvsjöskogen", "lat": 59.26138100000000, "lon": 17.99139800000000, "team_id": 3, "available_slots": 3, "bs": 36, "bc": 147, "rs": 24, "rc": 26, "ys": 25, "yc": 143},{"id": "d216c85d2aa14dc6b8bd21703f0d1692.16", "url": "https://lh3.googleusercontent.com/h7Ct19LOvImq0bUNWi0aV3hZlIYIBn08-sf2NkwrQvTNqPJkx4-dNHY70OW3fGiC6ZalR1M-dZcA_DSAr6o4cA_Sgw", "name": "Vidja Dansbana", "lat": 59.20281700000000, "lon": 18.05984600000000, "team_id": 1, "available_slots": 4, "bs": 413, "bc": 17, "rs": 82, "rc": 9, "ys": 149, "yc": 10},{"id": "d403f68b43984799bed8c7f8ec37debe.16", "url": "https://lh3.googleusercontent.com/yg1ZP7RPfvgZ2-jLXZVtb0YpljQGa1WLGHrVukIiBYeeNpi2NVTD_i_IqYSxTpNFfUmKPGoXaCdxA4gI-PhfQQCxq60", "name": "Våtmarken", "lat": 59.22514700000000, "lon": 17.96586400000000, "team_id": 3, "available_slots": 3, "bs": 32, "bc": 67, "rs": 37, "rc": 32, "ys": 81, "yc": 75},{"id": "d40d5709c3cf4a2f91f1707952fe50f1.16", "url": "https://lh3.googleusercontent.com/dEWaVVokRbr5hyfHQvbz0R_c5Sq2KgmeqL3WBD_dD_VEEhm475x6uazesOkijuq7RQZTAV0vRb1XbgzOzXbGlxq8dUEq", "name": "Lekplatsen mellan husen", "lat": 59.22542200000000, "lon": 17.97889800000000, "team_id": 3, "available_slots": 3, "bs": 17, "bc": 335, "rs": 11, "rc": 164, "ys": 10, "yc": 208},{"id": "d473d8f3db574963ace894caf64450ff.16", "url": "https://lh3.googleusercontent.com/R6n-wsgEtutbQPEyv9I4ltC9xLffZcTmfDFh_fvnSn24QGElv9PSkF-usX-fh5KU1gTvF11rgQe9CQrzDGQ_hp9HBA", "name": "Välkommen till Paradiset, Öran södra", "lat": 59.16209000000000, "lon": 18.07002100000000, "team_id": 3, "available_slots": 5, "bs": 0, "bc": 0, "rs": 0, "rc": 0, "ys": 0, "yc": 0},{"id": "d4aa55fdd6ec4db5822e044d380b3e20.16", "url": "https://lh3.googleusercontent.com/9134426yDlqxzFKmYQKkKW3OvKXTrTtEOvFXQbUw6g5l38Tz4NVK7_-dgF9mFz9ziQ2xjKUaxs5waBviEVzwREJosqY", "name": "Drejarparken", "lat": 59.26107300000000, "lon": 17.95801000000000, "team_id": 2, "available_slots": 5, "bs": 11, "bc": 394, "rs": 10, "rc": 422, "ys": 5, "yc": 192},{"id": "d4ad48fa99a344f2aefe84eb6d531a6d.16", "url": "https://lh3.googleusercontent.com/fABvGFB5aRXMjyAl8_mcaN0r49rJMQcieB6Me0ZWLxoue3Xw8H5BwDYid4rsJl4tuGWh_5ZqurPv_2qTg2VumZwBEPA", "name": "Zetas trädgårdscafé", "lat": 59.27566200000000, "lon": 17.92472500000000, "team_id": 2, "available_slots": 5, "bs": 26, "bc": 127, "rs": 23, "rc": 140, "ys": 28, "yc": 109},{"id": "d504f5ed55983d5e96b6ab6ac7ee20a5.16", "url": "https://lh3.googleusercontent.com/zCDYlJ7vaZjhgLv7zXeBjgYL83Kk0F8MEyAnw5kA-EARqereuB6xfJTwyA_ZcEC1WMoDlx1M6rbKbvPlvIZwLuizXNb7p_nYmS8q-K32", "name": "Book changing cabinet", "lat": 59.23568000000000, "lon": 17.94744900000000, "team_id": 1, "available_slots": 0, "bs": 19, "bc": 167, "rs": 15, "rc": 88, "ys": 11, "yc": 169},{"id": "d51b1d6e4758485cbb0f9b5ea237d086.16", "url": "https://lh3.googleusercontent.com/TzrrUkecHK9NdyonF6hX1V-1LkEdMxZuE_6qt9G5UBSRhmE1_xBCPbzgc_XJBq3CvYD9SMogjJzgVJFiw5kfHi3Hl74", "name": "Heart on Fire", "lat": 59.25333000000000, "lon": 17.87623600000000, "team_id": 2, "available_slots": 1, "bs": 15, "bc": 127, "rs": 34, "rc": 163, "ys": 15, "yc": 128},{"id": "d900bf48cc954750a6dc1ee7c4d6dcf0.16", "url": "https://lh3.googleusercontent.com/-S7utFTQ8G7BsJ16lqUIxmhs2ZP6erSUqjJPXdujwsKTdpFoyyLgc7L2OMIraJ9--RZjQnme5QTTT-tKhPT7s8Ghkyw", "name": "Rosendalsparken", "lat": 59.24978400000000, "lon": 17.97484900000000, "team_id": 1, "available_slots": 1, "bs": 26, "bc": 205, "rs": 17, "rc": 169, "ys": 13, "yc": 104},{"id": "d968b7f209a34d5ab0cbb7c5787c7b74.16", "url": "https://lh3.googleusercontent.com/4qAgbrGP2b-sN4QQDlb5jE2YrdTqJ4WodXsEXQYkIHTad5xhcyCrXCsf7Ldg9ADQ46kE21FnZ56XuaBB7xXnSo3CBN_Uc-ezHlYgVGfF", "name": "Knattarnas lekhörna Vallmyravägen", "lat": 59.20517100000000, "lon": 18.13588900000000, "team_id": 2, "available_slots": 5, "bs": 45, "bc": 80, "rs": 37, "rc": 59, "ys": 56, "yc": 63},{"id": "da0ad78c32af3f81af0299503547265b.16", "url": "https://lh3.googleusercontent.com/ht2QNzk9dByfv-z1gFiS_y2ZAOc4fs3YpOuttD8u0wD77brrvppraIe0fzwEzVYibCO-XM6HCAMgbqNYD8l_2hbSfg", "name": "Länna Industri Center", "lat": 59.20107600000000, "lon": 18.12719200000000, "team_id": 2, "available_slots": 2, "bs": 69, "bc": 81, "rs": 37, "rc": 70, "ys": 32, "yc": 36},{"id": "dba2fd1fed404074887ff5688e344fb2.16", "url": "https://lh3.googleusercontent.com/DoXK23xIdLzZymD8wEYDtZUxsu855mooajigIgpHnjvg1VICGxJS2PxPbPtU_DGIOnbGE8X5GErdyk0PktHTrxZVjQ", "name": "Sörmlandsleden etapp 6, Paradiset", "lat": 59.15418500000000, "lon": 18.02285500000000, "team_id": 1, "available_slots": 4, "bs": 0, "bc": 0, "rs": 0, "rc": 0, "ys": 0, "yc": 0},{"id": "dcd273340b4642b28b7bf378300cb865.16", "url": "https://lh3.googleusercontent.com/CgqwgJ6mBez2MTJ3bGYHjT6WLnSDnHl5olDMymEYZrEFn_Q7n31bk8RcFmTa8vzwKEZNS5n4YQfQGw_pHBZ4Cbmfjw", "name": "Fullersta Bio", "lat": 59.24016600000000, "lon": 17.97292300000000, "team_id": 2, "available_slots": 5, "bs": 31, "bc": 126, "rs": 33, "rc": 127, "ys": 19, "yc": 75},{"id": "dd01fd701b42402fb5ee8d16a749679e.16", "url": "https://lh3.googleusercontent.com/zcvT3yNMyaOCiOwFVpPq0jGGEAPt1gYBhPuwiodmAObGhBa86SqtUTP8wNWtEQOmpvvYl4n0Eu9kwz4uskKsKt9fGQ", "name": "Myrmarksvägens Lekplats", "lat": 59.25159500000000, "lon": 17.98094700000000, "team_id": 2, "available_slots": 2, "bs": 85, "bc": 80, "rs": 22, "rc": 39, "ys": 26, "yc": 63},{"id": "dd2e011c164e44c1826847f677097629.16", "url": "https://lh3.googleusercontent.com/kpnh3kmziKrARmIGZNrmwyc0ypad7jzERuRa7LHkgf9B4hUAp9FzbpuBUZQUv0OZKNWeCSr488d14BM_NZGYMzNpRXW2ciIdMES6aUgM", "name": "Flemingsbergskogens naturreservat, Visättra 2", "lat": 59.21460500000000, "lon": 17.95928900000000, "team_id": 1, "available_slots": 3, "bs": 25, "bc": 60, "rs": 33, "rc": 138, "ys": 26, "yc": 124},{"id": "defc8b66c0b74aacacf924a8cf3fe153.11", "url": "https://lh3.googleusercontent.com/jEf5eiXiExO39b02jh8P18toamNF9mlsmK1wTuwFfiAbqsRmI3i8T8HdqHZULZk8JI60m1ak6GWbe2xXkO9GePY96m5M", "name": "Elhus Tjäderstigen", "lat": 59.22668600000000, "lon": 18.14025000000000, "team_id": 1, "available_slots": 4, "bs": 53, "bc": 120, "rs": 20, "rc": 88, "ys": 20, "yc": 70},{"id": "e277b852e8c4490dbb70326d0edadbe3.16", "url": "https://lh3.googleusercontent.com/IdefKXpuRE5O_21jR9Nzex0acNR3wddniKyKY85szvW1GlOjf3IfxEmC8r0ddf1BUSgTw6lBy9Bpf7Ol0g3tPBUZKOE", "name": "Ågestagården", "lat": 59.22335100000000, "lon": 18.10316600000000, "team_id": 1, "available_slots": 0, "bs": 44, "bc": 94, "rs": 42, "rc": 91, "ys": 26, "yc": 56},{"id": "e979bfbc0e63492fa69709fab3fd4834.16", "url": "https://lh3.googleusercontent.com/Frk26UG-SDF2TAiHr-yQI1UNJlE9YfqMFPfqqqYy4xc7tmF88NI1Q04xo-dr-1w38_ssyJXl6AL5fpEsk-FIh4-swt7S", "name": "Drevviksparken", "lat": 59.20358500000000, "lon": 18.14489900000000, "team_id": 2, "available_slots": 5, "bs": 15, "bc": 247, "rs": 21, "rc": 244, "ys": 9, "yc": 68},{"id": "eaa20c61b44e482a9d2aa5c2c6b02858.16", "url": "https://lh3.googleusercontent.com/J8DKHPFNzIEe0QT0bb5C3U99qyqTtsozGaZsxOur8oB7Luu060AsMIDphFj1IudUr71JIR2dXRv53wWmeE0hUOajgg", "name": "Orlångens Naturreservat", "lat": 59.18655000000000, "lon": 17.99339200000000, "team_id": 1, "available_slots": 3, "bs": 0, "bc": 0, "rs": 0, "rc": 0, "ys": 0, "yc": 0},{"id": "eb37dec86b8e4e7bb455b66cf2ac2587.16", "url": "https://lh3.googleusercontent.com/pL9QiQUGrn7i9rgSwVrb36qqGB8GaF-XdRZK8dV1EDd0Cp-FJaPBiIpDfkgv4aFKnzgQxAd9cuk7UCwBxKRl2RhlxfM", "name": "Vårby Gårds Kyrka", "lat": 59.26337900000000, "lon": 17.88507900000000, "team_id": 1, "available_slots": 1, "bs": 125, "bc": 54, "rs": 42, "rc": 37, "ys": 35, "yc": 30},{"id": "eb9b139b293540e9a0982c05d7e1dfde.16", "url": "https://lh3.googleusercontent.com/2ZzL6NNAzJBSJn1S-LIfjLI9Xel5wZtGprVtIMfysHaVCqZzdZoWD6fZ3LtBYB9SuxHa1fTS6mr7yFJjQuDTAdfgDRyx", "name": "Stortorpshallen", "lat": 59.23500900000000, "lon": 18.13193600000000, "team_id": 3, "available_slots": 0, "bs": 24, "bc": 112, "rs": 27, "rc": 91, "ys": 33, "yc": 130},{"id": "ebe177ff0b6a460f825910ee151ef94a.16", "url": "https://lh3.googleusercontent.com/c3j_GfhQXNCzn7duVxEqwRUyti4vrg3Qzmw-dOO3zJ2PIoZVNXbQQexSBZJv2MRHz1TAx_3FtuiJWamzPJtigEt1_z4", "name": "Fotbollsplanen Myrängen", "lat": 59.24403600000000, "lon": 18.02355100000000, "team_id": 3, "available_slots": 0, "bs": 35, "bc": 55, "rs": 34, "rc": 82, "ys": 48, "yc": 100},{"id": "ebf60b6db3e345c9b5b29fc9d6c5606d.16", "url": "https://lh3.googleusercontent.com/1X0fs9cknsgHhb79IH8y4HlaXHaHe2JKdmiPWaWNcj3w2FzKhXJfFZWS5L84sHHHAleB2Y9criz9eAJv91uJDfpPUKE", "name": "Huddinge MCK", "lat": 59.17360400000000, "lon": 18.06163300000000, "team_id": 3, "available_slots": 5, "bs": 0, "bc": 0, "rs": 0, "rc": 0, "ys": 0, "yc": 0},{"id": "ec248b1c9fad4f3bb96931a4a5b0d65f.16", "url": "https://lh3.googleusercontent.com/klo8h_fXgMfXK-9gr8HAH4WMPcjF5YK06ThaenFT76675UarCzJDmnf8wZuPxt6bzKyr3c0v5lwzJ2gLME7KuNM3Mg", "name": "Hälsans stig musikalvägen", "lat": 59.22058600000000, "lon": 18.15956000000000, "team_id": 3, "available_slots": 5, "bs": 12, "bc": 88, "rs": 6, "rc": 41, "ys": 66, "yc": 125},{"id": "ed6979028fe849848d46ff0a1c9558a8.16", "url": "https://lh3.googleusercontent.com/zcrMqNkUy2kgsgZN7_iwCCb5XvzMeXn5DZa6SCxlV2Bsc8NedkIkmYM6nzQW9A1V9kHsLhreoDRjhICRo7WR8JviHM4s", "name": "Rikets Sal, Balingsnäs", "lat": 59.22133800000000, "lon": 18.00850100000000, "team_id": 1, "available_slots": 2, "bs": 56, "bc": 113, "rs": 16, "rc": 52, "ys": 29, "yc": 78},{"id": "eee9cd6ef16544e783483971fc1b3576.16", "url": "https://lh3.googleusercontent.com/d4P3UXCrL8y0J5l2Y_OEVf2bx8TbUUemCY3RFcakZGRgi2OavgAZKu1agNGMH5Nsi3FVnU6131eFX6hSiGU", "name": "Sport Planet", "lat": 59.26396800000000, "lon": 17.88826100000000, "team_id": 1, "available_slots": 0, "bs": 82, "bc": 72, "rs": 43, "rc": 64, "ys": 23, "yc": 35},{"id": "ef0fb73b114b4147bae2731211c359b4.16", "url": "https://lh3.googleusercontent.com/0IjY6PIyAzm65ZuaB93Ya4Bi2Z3aV6UuHT7RXq8rO-ol10NobgrBw7FJA06LTeMdyNA2woeUp-XuG0KUQJ7APCaQYZc", "name": "Välkommen till Paradiset", "lat": 59.15439100000000, "lon": 18.02141400000000, "team_id": 2, "available_slots": 3, "bs": 0, "bc": 0, "rs": 0, "rc": 0, "ys": 0, "yc": 0},{"id": "ef889ab7433b4d19b87e16278a83de95.16", "url": "https://lh3.googleusercontent.com/7qfPqiOMR20UeJfJL0bhK4L2wm3NAaBiOKPUDV1BWrRE_N_-oaDpAhaurs5wcsxVruGIgPNCJA7vild9OJGMB7avxQY", "name": "Lissmadalen, fågelskådartorn", "lat": 59.17669000000000, "lon": 18.07260400000000, "team_id": 2, "available_slots": 0, "bs": 0, "bc": 0, "rs": 0, "rc": 0, "ys": 0, "yc": 0},{"id": "ef8bf60e3739391a95bbe45e82f68976.16", "url": "https://lh3.googleusercontent.com/Ti43B20RsfrAVRDyPzUlm2qwbIYIvHVa_0DMDPFpezsYobRIDMPp4szRknL0IY0gyY1ePZrii7vZ5ymIpqlOjh59fkCM2fmM9qvVQP4", "name": "Påle med cykelbackar", "lat": 59.22710900000000, "lon": 17.88327900000000, "team_id": 3, "available_slots": 4, "bs": 596, "bc": 7, "rs": 458, "rc": 7, "ys": 372, "yc": 5},{"id": "f081f29280c04aa39c561f6919d39650.16", "url": "https://lh3.googleusercontent.com/xn8HfuZeJczXYsseIh2MUlPdVHxnk9EgeYjHFmsA01IRKLD27_8Ve2OT2YNt_I3E7IiZ4OBkSfb_cN_cdlJmEoCm8VMZeHluzHkRNPVSoA", "name": "S:t Mikaels Församling Informationstavla", "lat": 59.26342200000000, "lon": 17.88567800000000, "team_id": 1, "available_slots": 5, "bs": 42, "bc": 151, "rs": 16, "rc": 148, "ys": 24, "yc": 31},{"id": "f0db1d6cc73f33999697b19b80a7c032.16", "url": "https://lh3.googleusercontent.com/qc621skZqZsZenrx8Y9KLl1ukyyLhbdpEEn-k7Jch8rb0IkDdXo4lR5dzAiBVIHHVtY-yZB5Vedgqt5S9_X94zu0hrFpP-EObAS1ZO0tMA", "name": "Huddingeleden", "lat": 59.21788000000000, "lon": 17.97827500000000, "team_id": 1, "available_slots": 0, "bs": 348, "bc": 6, "rs": 27, "rc": 4, "ys": 21, "yc": 3},{"id": "f2b89dcc5e0f4ce79b96fad8c48dee42.16", "url": "https://lh3.googleusercontent.com/gLNGdI7LDMZzxsCXWg_EXC3B1WvXR0AB1XSDBa5sWKhySKXXb8SkgaMnHonFIH2DH3kjDNOc3Wa2bqSWgusPztNZ4CcBnrxFqj5GQw90", "name": "Rosendalsparkens utegym", "lat": 59.24980000000000, "lon": 17.97676200000000, "team_id": 2, "available_slots": 5, "bs": 26, "bc": 211, "rs": 16, "rc": 153, "ys": 14, "yc": 116},{"id": "f37b32b5ed44432ea382ada49c2fc392.16", "url": "https://lh3.googleusercontent.com/L3dZ9F72hAbprmJeFpT_xN3XigSNlT7QAUHRUp8QgyO9nIv-nllnoAO-2j25np0oZnm3ri1pTcblQTOfyBLgiX1L8cCQ", "name": "Elefantsafari i Skogås", "lat": 59.21693600000000, "lon": 18.14920000000000, "team_id": 3, "available_slots": 0, "bs": 27, "bc": 53, "rs": 21, "rc": 54, "ys": 77, "yc": 88},{"id": "f4c8c42929514a99bdf9c13d9e6634e5.16", "url": "https://lh3.googleusercontent.com/52yET_WVx5uzDlBymtT_QuP91eYsCZmdQZ607ZIT9_uxRyFg7_da1mf4rqNXiJK4lPTtK4yJrZrIvqaLvpiY11YAbBU", "name": "Flemingsberg Vattentorn", "lat": 59.21368200000000, "lon": 17.94202700000000, "team_id": 2, "available_slots": 5, "bs": 35, "bc": 62, "rs": 51, "rc": 73, "ys": 54, "yc": 67},{"id": "f51f4f575f71473a9e84165871998add.16", "url": "https://lh3.googleusercontent.com/iui0oiKPrkGE2vnHR249DlejD49XwFndjqiwqPglBwDBuTyOwVOct5vLQ01jZZUaZN86ld9ZX76rGODyLwdvOQSJ4rk", "name": "Flottsbro Camping", "lat": 59.23071500000000, "lon": 17.88837600000000, "team_id": 1, "available_slots": 3, "bs": 258, "bc": 26, "rs": 50, "rc": 18, "ys": 108, "yc": 15},{"id": "f61f6a675566486ca0621b19d6e7b8f6.16", "url": "https://lh3.googleusercontent.com/2i0vvo8FPuFp5bcEKahxFHjPcEXncRckr2FLKITKpvPl9PQ_jAIfGLJ4yD8VQZhZuyRmjS0i_yaE0Ujz9y57nKEf5L8", "name": "Köpmansparken", "lat": 59.25370000000000, "lon": 17.98003700000000, "team_id": 2, "available_slots": 0, "bs": 41, "bc": 159, "rs": 17, "rc": 140, "ys": 10, "yc": 63},{"id": "f6d1fb17c8314a75befc3d5b5034b788.16", "url": "https://lh3.googleusercontent.com/YDGetXJT4OQohGXb3uUrVNOJ2M4poGpu30934Qh9JPab4jyYey8SpP2wI3USBs4G7yrNGy5iNwq6J0eXHDgWiuuNOcbq", "name": "Stuvsta Station - Västra ingången", "lat": 59.25333300000000, "lon": 17.99555500000000, "team_id": 1, "available_slots": 0, "bs": 24, "bc": 201, "rs": 16, "rc": 127, "ys": 19, "yc": 141},{"id": "f78f9fc2afd0407cab2cd2d139ff4e7c.16", "url": "https://lh3.googleusercontent.com/TSYGIbPthJ960jSkUhyIudzPRshoqHN6EuG982aQYREcu9U8nkvVRx46RKQBmptve1Ho8JV-yIcxOVMKjBOMnazsyQ", "name": "Orlångens naturreservat, Balingsnäs", "lat": 59.22388800000000, "lon": 18.02130100000000, "team_id": 2, "available_slots": 5, "bs": 29, "bc": 24, "rs": 161, "rc": 42, "ys": 45, "yc": 35},{"id": "f7bfdcdabcf2496fad648847c5ec8c77.16", "url": "https://lh3.googleusercontent.com/pHqGuI2vAx9TsVfaePKYo6BbN6xaM_ISP1NxFYI3YXIoez4Fr5n7oVnz_47c08puGwaQBjC6tbnf3eWSGqYwgl338tE", "name": "Rådsparkens Utegym", "lat": 59.23991700000000, "lon": 17.98730900000000, "team_id": 3, "available_slots": 2, "bs": 46, "bc": 88, "rs": 38, "rc": 73, "ys": 33, "yc": 81},{"id": "f82f3d7d27d1483fbbb2735b07801fe1.16", "url": "https://lh3.googleusercontent.com/spDd0eFUPwN86S0DxpZTYUSZy3yHGGjapcfVw2AHRvn8ru12lCpMbkHtGMvVZK6ceP5G8KrFO2k5ReQfSqb6AfFEKw", "name": "Huddinges natur - Sjöviksvägen", "lat": 59.20336800000000, "lon": 18.15381000000000, "team_id": 3, "available_slots": 4, "bs": 87, "bc": 43, "rs": 63, "rc": 44, "ys": 101, "yc": 30},{"id": "f85f28bc975632d99dc765906eb637fb.16", "url": "https://lh3.googleusercontent.com/-vw9TN4TttEMgSo-lahM_xLrKdgMV2Gyhndj5HH8iljtWL2PC0kkJ76aNmzks6IpbeqyziysxLug5MU7uwInwgP23gk3lEE9nCM35PKH", "name": "Vista Padelhall", "lat": 59.23064400000000, "lon": 17.95613600000000, "team_id": 1, "available_slots": 4, "bs": 26, "bc": 121, "rs": 30, "rc": 111, "ys": 26, "yc": 116},{"id": "f8d649faf1ba3268a23e8077bbb584b7.16", "url": "https://lh3.googleusercontent.com/bSMN2LftJiw0zL4hi2MDdgAtgRaUXEV7yOZHa6O91PrtGkZZHma9Chbg2HqXfzV1OPepgKdXqCaEQnwquHmtJeQcuE5oJ-eDik2yOFC9", "name": "Informationstavla Naturreservat", "lat": 59.19698600000000, "lon": 18.00244000000000, "team_id": 2, "available_slots": 4, "bs": 0, "bc": 0, "rs": 0, "rc": 0, "ys": 0, "yc": 0},{"id": "f95ddd64fa1f4e709c0bfaa004d7a4d4.16", "url": "https://lh3.googleusercontent.com/wjT-xQHzA21zu8EEDx4HxjSh0GfECdPAGUxkaoRrG7NCgG0P9tDPslOukxpltIkPva1PEfQg3BgOjvojxL0IDigNrg", "name": "Kräpplaparken Lekplats", "lat": 59.25750600000000, "lon": 17.99929300000000, "team_id": 1, "available_slots": 4, "bs": 21, "bc": 198, "rs": 21, "rc": 137, "ys": 18, "yc": 136},{"id": "fbd934ffcdc34355a03e765c74db7a1c.16", "url": "https://lh3.googleusercontent.com/zH1SUb-jnKLsHNaJlWNOY4m-IUR8mMI0xFdWl7Q_RjemFyy8K-sHYjk2yWslOjhmnn6inu4q6q8l5LC2hSjzXPo3orM", "name": "Trälekplatsen", "lat": 59.25593800000000, "lon": 17.99636000000000, "team_id": 1, "available_slots": 4, "bs": 51, "bc": 134, "rs": 18, "rc": 102, "ys": 16, "yc": 59},{"id": "fcba62e95a074358b5af5f745c66709c.16", "url": "https://lh3.googleusercontent.com/Navu-u_c2ZcBUIxvQX-CnfgwazLVroemHJ9qc6LLGgEsZIlCYTCpo45jVdYB19ucj4lMO9BnRFZtGYKgHoupcD83CBY", "name": "Fontänen", "lat": 59.22788200000000, "lon": 18.13238700000000, "team_id": 1, "available_slots": 1, "bs": 12, "bc": 354, "rs": 3, "rc": 48, "ys": 15, "yc": 343}]
