[{"id": "03daa62df677412586ca7c905b4bfefb.16", "url": "https://lh3.googleusercontent.com/yZK68HsWZk9cSJY1eUwRi-iPwrvJ0DG-p_3QNBQTFLTJRE4o0BPZ2CBlgb1YjfmI6i6J1mwZIXHSfgQazOBoDsW0Mbo", "name": "Svampar", "lat": 59.36309000000000, "lon": 17.85665800000000, "team_id": 1, "available_slots": 5, "bs": 50, "bc": 113, "rs": 24, "rc": 97, "ys": 27, "yc": 53},{"id": "050ad01aa20c43d28191a63026e1aac2.16", "url": "https://lh3.googleusercontent.com/2PK3rMNuZJh76r7gtzjfN1Rbj51P6CxCdCH_Q_cRC0FnO73K_StHbI30ePiT_OT4IRrfJSWUXkSEeX50ZXLRy6fUQN8", "name": "Kvinna", "lat": 59.36049100000000, "lon": 17.86257400000000, "team_id": 1, "available_slots": 4, "bs": 45, "bc": 64, "rs": 29, "rc": 65, "ys": 59, "yc": 78},{"id": "068fe907497943a2b3a3c5c5ad4933f1.16", "url": "https://lh3.googleusercontent.com/WWeU476ArEjxkVVREVVJydu5yWYBnzELSm4kO6i8618fSEy8WVD_FKyIfh2Fj-WrlKs2si5Kx7DKcLKox6eC1UJUMKY", "name": "Hässelby Slott", "lat": 59.36562900000000, "lon": 17.85487800000000, "team_id": 1, "available_slots": 0, "bs": 51, "bc": 64, "rs": 59, "rc": 69, "ys": 43, "yc": 46},{"id": "0741b10f2c2a45cd8f368d6fd181634b.16", "url": "https://lh3.googleusercontent.com/LI-QK6B14CexDLSUSh5zXxlsk0GUtE0JENkg3WU_xp-P9pz_fb_F6Uh-zx-tdLlFrPY3zZyM7GmIUSF7ARAH57SVNxS0", "name": "Kyrkhamn", "lat": 59.38842000000000, "lon": 17.78093900000000, "team_id": 3, "available_slots": 1, "bs": 68, "bc": 59, "rs": 37, "rc": 41, "ys": 60, "yc": 60},{"id": "0d87e541118b4523b45cab92d32e3ff1.11", "url": "https://lh3.googleusercontent.com/JxjgTGvAx32yjXKInvgKLimnhpRM_fTm4z2eioxD_vPEUctjyGKz0U-lOJf3GMKi4IutyrsKLXE-URcjgb6HVDm-PVQ", "name": "Sleepy Johan Runestone", "lat": 59.38802500000000, "lon": 17.80576800000000, "team_id": 1, "available_slots": 4, "bs": 20, "bc": 122, "rs": 18, "rc": 80, "ys": 40, "yc": 137},{"id": "0db1e6a61c504d8a8a57e61d77df2f39.16", "url": "https://lh3.googleusercontent.com/vQ_gnb4icfPPhMEPF3otXGVmVhNoqjFJwnyjOYHlmIDCU7QD8qje5V90Jxl92XRa21SUqmF_uSYBslfbhltqrOUPrCw", "name": "Råcksta T", "lat": 59.35461200000000, "lon": 17.88189000000000, "team_id": 2, "available_slots": 3, "bs": 30, "bc": 176, "rs": 18, "rc": 138, "ys": 15, "yc": 117},{"id": "0efb8f282d8e4dff9c23445828520bf5.16", "url": "https://lh3.googleusercontent.com/8FhsDREJBnL6Y4GCD88Eo4sUMVrkTmfA-bT6-oNdDzOVbk970BIsVWbR9vvVRs6jQ3puGAT6bTFS-w2UDM4bOqei2cU", "name": "Stegrande Häst", "lat": 59.38181200000000, "lon": 17.81071600000000, "team_id": 3, "available_slots": 5, "bs": 15, "bc": 153, "rs": 16, "rc": 133, "ys": 25, "yc": 193},{"id": "0fb99c98ebf340598965452726b19247.16", "url": "https://lh3.googleusercontent.com/K3_SzyM2zvvIQKafwwzudhCSSrzZyje8NGWGbae8zFEg6GVi5Q0ECJuK55KlzfJ_iCkoaXhFGHpyj20DvVeTeEdv580", "name": "Lekplats Rädisvägen", "lat": 59.37999000000000, "lon": 17.83564300000000, "team_id": 2, "available_slots": 5, "bs": 25, "bc": 138, "rs": 21, "rc": 88, "ys": 29, "yc": 138},{"id": "1209c4e4d19741b3b25d685726e8733e.16", "url": "https://lh3.googleusercontent.com/B2zN8wVNaCYFqbeCCHZ4UIMOKtRT-4YhbHEhv5gnGj2USPhHXFfZAdOaWx9MhenQicWlP2N0PuWOLSsgxwfJ68j1_g", "name": "Klätterställning Stora Bas", "lat": 59.38571700000000, "lon": 17.86166900000000, "team_id": 1, "available_slots": 0, "bs": 19, "bc": 120, "rs": 33, "rc": 171, "ys": 15, "yc": 94},{"id": "1239d921b1e347f0a1b1682856d60324.16", "url": "https://lh3.googleusercontent.com/WEBegf32KbQ3cB6B4u0oSfc_M5IBc6Z0lKYYGaAUoViH-0E-p5j3It12UxeXGYPwiFkQVWGFrD5nxg8puP_p2o-3b3rJkdh4cnzzufI", "name": "Inhägnad fotbollsplan", "lat": 59.36719600000000, "lon": 17.87096800000000, "team_id": 1, "available_slots": 1, "bs": 41, "bc": 36, "rs": 20, "rc": 31, "ys": 17, "yc": 10},{"id": "12f635a6feea428ea2565b2376b30999.16", "url": "https://lh3.googleusercontent.com/L0KZuZFyGs-MPCcCWdAYD8nVguTudk0vCyOGMNZ_kAzYLYfq0MV69wpCB_rG-hLNkN232NYcx5dZmD4-CEIafOcvA40", "name": "Grimsta Boat Association", "lat": 59.35473100000000, "lon": 17.84505600000000, "team_id": 1, "available_slots": 4, "bs": 60, "bc": 50, "rs": 45, "rc": 50, "ys": 74, "yc": 55},{"id": "144017a7aa9a394584d35f55df407f8e.16", "url": "https://lh3.googleusercontent.com/NsSMAnaQkTHp-i8Zm797kHnQ7uVddOTZKiAQYz6ooOcb30xCP_iaxTXneiJdc7oyuU4zuWLaUDkVZs2asoVrXd3LADxrmZ_sQDPEsAny", "name": "Pollineringsträdgård Kyrkhamn", "lat": 59.39166500000000, "lon": 17.77335700000000, "team_id": 1, "available_slots": 0, "bs": 178, "bc": 27, "rs": 97, "rc": 28, "ys": 78, "yc": 20},{"id": "185d1b507464446899acfbcc71eaf747.16", "url": "https://lh3.googleusercontent.com/RT32suq3D3uLLMz15bwrE3nPpwJb_0KqMkqWK0uQRXwfToZrYN031h_gF0VFJxgP597v-Rh_n3yleQv2bCQVe7Gq41M", "name": "Stockholmsfundament", "lat": 59.38221800000000, "lon": 17.80160500000000, "team_id": 2, "available_slots": 2, "bs": 63, "bc": 38, "rs": 69, "rc": 30, "ys": 115, "yc": 42},{"id": "19c73d02858f45b48be42f6ce090948c.16", "url": "https://lh3.googleusercontent.com/0e2M9u9MwRko2t-a_9icshAK4DIOv8CjpTRLbvcxCXI-5BFUeFj729mfFHjyjMvLyPo4q4WB58Y136QSdRFIdBth2Ew", "name": "Fort Lingon", "lat": 59.38708100000000, "lon": 17.80175000000000, "team_id": 1, "available_slots": 5, "bs": 115, "bc": 73, "rs": 10, "rc": 26, "ys": 15, "yc": 51},{"id": "1f413b03a0354027934aca11a9ac6a76.16", "url": "https://lh3.googleusercontent.com/qd84wgOieQZXSpeQrSBEarQgSgvG4WFhyubqud1JWw86Y0Md5E6kbf_ZyW7yUZ9QOq2wso4X5sTtT3_aZfNblxUnoI2U", "name": "Celldelning I Mosaik", "lat": 59.36736600000000, "lon": 17.87269500000000, "team_id": 1, "available_slots": 0, "bs": 48, "bc": 160, "rs": 9, "rc": 115, "ys": 10, "yc": 59},{"id": "20dd201ab9124d07aad62fd55c69c3e2.16", "url": "https://lh3.googleusercontent.com/75-1WOcOzQx7pZEQEv3PXUq6LReHGsAwVH2ZTZ0a6q6tMG18fb3DgnMlyV3ZPAr2EZm012p5QSAWHdmIEbYahxm0keE", "name": "Maltesholmsbadet", "lat": 59.35694200000000, "lon": 17.84133400000000, "team_id": 3, "available_slots": 5, "bs": 33, "bc": 59, "rs": 26, "rc": 59, "ys": 73, "yc": 82},{"id": "24283bede27840b4b723b6fceabe76fa.16", "url": "https://lh3.googleusercontent.com/P19y0stdgHqUNU82gHYhpYayBSEFzyj_h_JGlOyYbRhEc7Q45JOIjuYK22TpDcUJLxlrhM5Kui1GbsvInYGiZpHLtvE", "name": "Råcksta Begravningsplats", "lat": 59.35456300000000, "lon": 17.87526900000000, "team_id": 3, "available_slots": 4, "bs": 19, "bc": 110, "rs": 39, "rc": 157, "ys": 13, "yc": 87},{"id": "277c745fc69938c4a36ab2467966bf1c.16", "url": "https://lh3.googleusercontent.com/BPC5nsM60trJzvtJzNh-yGcbODj-On06UUtAEwDWP8gPKeUHd7RIM4MVft_eW5NtWYdo_1kQU9O34P_UJVFOprznr2k", "name": "Boulebana Rödklövervägen", "lat": 59.37673400000000, "lon": 17.83404800000000, "team_id": 1, "available_slots": 5, "bs": 47, "bc": 67, "rs": 38, "rc": 65, "ys": 50, "yc": 76},{"id": "2d0f394120a14f99a7d19da8f7778c97.16", "url": "https://lh3.googleusercontent.com/CQy-RRp4zJr-lmBoRlm367zAbsYQA7RhOCiwqCYB9jA4IeDWN_4N3ki62Rq8B45RMgoWYGICjqF11bnovuRi4i6h9Oc", "name": "Gammalt utegym i Grimstaskogen", "lat": 59.35522800000000, "lon": 17.85506800000000, "team_id": 1, "available_slots": 2, "bs": 106, "bc": 22, "rs": 170, "rc": 23, "ys": 127, "yc": 23},{"id": "2fa3d0f9bf7a46c8918eac862f1d19f5.16", "url": "https://lh3.googleusercontent.com/CjNF39Z5BGjPssoKohFSZIhrPd-VVYZ15_2urM1C2cYrvJXo4ObXvtqjFCVPXp6JMFxvu_MAmjYERn1Y3y31falqm9vJ", "name": "Golden Rooster", "lat": 59.35869400000000, "lon": 17.86823700000000, "team_id": 2, "available_slots": 1, "bs": 35, "bc": 67, "rs": 38, "rc": 93, "ys": 41, "yc": 83},{"id": "30b99f26e3c543df87fd60f9aa3a7477.16", "url": "https://lh3.googleusercontent.com/I3SNyWhg8RCUqbKgASm_HbVscjssAOQaaAnj3lFscMCo5vy2vOlA7ii0m2CgubHqnLsZteoEENRl7H2eywmA5a35Dq0", "name": "Lekplats kärleksörten", "lat": 59.37531900000000, "lon": 17.81585600000000, "team_id": 3, "available_slots": 0, "bs": 53, "bc": 109, "rs": 28, "rc": 30, "ys": 27, "yc": 99},{"id": "30d7cf2052474b098ef9364547124d9c.16", "url": "https://lh3.googleusercontent.com/4f_UMwQQoU0Px6bJA6AnEUtnzmubtBg5pAv42IHz7RS7kFSwSuipE375yho6ksGKuPJkPMj1XwtGhlxyQuCy5sCJXsQ", "name": "Lövsta Kolonitradgardar", "lat": 59.38995100000000, "lon": 17.79286700000000, "team_id": 1, "available_slots": 5, "bs": 75, "bc": 32, "rs": 55, "rc": 33, "ys": 52, "yc": 39},{"id": "326487d450574ed9beebea3fbdf85b3c.16", "url": "https://lh3.googleusercontent.com/m9XFOEdCdcw_WfaFuFg3kjngFiMNYd-UIfuHOcy2S7r34yLiZV2WfNxYkgVJAaJUHZE3BnyQMxQQ3r2s9OjxBA7jVQ", "name": "Lekplats Söderberga Gårdsväg", "lat": 59.36265900000000, "lon": 17.89792100000000, "team_id": 1, "available_slots": 4, "bs": 19, "bc": 135, "rs": 17, "rc": 203, "ys": 17, "yc": 197},{"id": "35cead9dd73d4336b79f0b0aa89497f9.16", "url": "https://lh3.googleusercontent.com/0i-nW2mIIdVdW_HHCR8stuSvyakugnH9a_K8fCNuCd_hBM35HBPERA8ABq8ZOOjg3BQaXMnotDY_aFFT81uVMzyrufo", "name": "Kälvesta bollplan", "lat": 59.38660500000000, "lon": 17.86660000000000, "team_id": 2, "available_slots": 2, "bs": 52, "bc": 19, "rs": 68, "rc": 25, "ys": 14, "yc": 11},{"id": "37a18045bc9d4ad499ce0a4d1e9b2f8d.16", "url": "https://lh3.googleusercontent.com/FfotGK1DnWgdk8Ewgw_UVoLlTITArSj_TU5MdOKDCDirmvzFgCym2U_q4LdRkeiSktgbwW8NjMzoGPCSdtIX0BzhOHc", "name": "Klätterpåle", "lat": 59.36222500000000, "lon": 17.89656400000000, "team_id": 3, "available_slots": 3, "bs": 54, "bc": 121, "rs": 14, "rc": 73, "ys": 20, "yc": 87},{"id": "3829c4e53eb3438993a59796e93da20f.16", "url": "https://lh3.googleusercontent.com/aArXMEPVewXEs-EL3M6Rte77gHRVGWh3o6BtwBfhGctJn4C4Dd_ASKd1Rb4CDQLTCMYfKxY-EByfDje6KG6AIkSiEw", "name": "Ångermannagatans Lekplats", "lat": 59.36190900000000, "lon": 17.87811600000000, "team_id": 2, "available_slots": 5, "bs": 23, "bc": 42, "rs": 25, "rc": 44, "ys": 14, "yc": 24},{"id": "3a2ba80f9eff43a6b9bc02aa30a33a5d.16", "url": "https://lh3.googleusercontent.com/-Z915f18goN2jEh712zOn7tBgNOMygCUG23F4k5t3CwCvTuwA4mAi_II1DvaiLFqWHRDhr2EMK39EObC0EN9a7VgaB4F", "name": "Gröna bilen", "lat": 59.39011800000000, "lon": 17.79969000000000, "team_id": 3, "available_slots": 0, "bs": 51, "bc": 76, "rs": 30, "rc": 75, "ys": 33, "yc": 94},{"id": "3a6f607ca03a48728d2c2cef7146d067.16", "url": "https://lh3.googleusercontent.com/47Kmy9gpgwd5YWhpxFz8Sp--lLaX8imPIvS0Up4sCpiSKgCsCoMly0j2bW1TXiXxezPFIgWN68vk5F_9ZPGIYmU1xQ", "name": "Spring Mounted Rabbit", "lat": 59.36966400000000, "lon": 17.83838200000000, "team_id": 3, "available_slots": 5, "bs": 44, "bc": 107, "rs": 31, "rc": 96, "ys": 22, "yc": 70},{"id": "3df8b4646df8449da8487270c517e11b.16", "url": "https://lh3.googleusercontent.com/Qhpo6VGhnRFchTZuImMzmMp1WfZ9B2y4VGoo1cZxoOgaLkypOtvbrncRyPgqVubuDicQr8H1pbDvLTDXija6KzGTXz4", "name": "Fotbollsbur", "lat": 59.37495800000000, "lon": 17.84500900000000, "team_id": 1, "available_slots": 4, "bs": 22, "bc": 152, "rs": 23, "rc": 161, "ys": 19, "yc": 115},{"id": "3ed3321d50ea42f2970affe1fc8e2d9a.11", "url": "https://lh3.googleusercontent.com/phXihzXPpOS8vBxvpp2HryLNm8wLD_5Qu_LfH8noaUF1xFXycWHLn5MVjvk43zAH5TAEkslC81L__71gbUBeRf_pPcg", "name": "Sunbathing in Kälvesta", "lat": 59.38320400000000, "lon": 17.86216700000000, "team_id": 1, "available_slots": 3, "bs": 15, "bc": 297, "rs": 15, "rc": 297, "ys": 11, "yc": 45},{"id": "4d4613ec6a01469ca19e9046df56519c.16", "url": "https://lh3.googleusercontent.com/BQloytZKZOWhHrRKzfui45HPIl8hHfJULXwjigUMjKXJfmMohcJmTbgO1OV9_ElhF6_B5BvFLvi3tICmV7JApXQ5M1E", "name": "Lekplats Grimstagatan 106", "lat": 59.35610000000000, "lon": 17.87386300000000, "team_id": 1, "available_slots": 1, "bs": 5, "bc": 239, "rs": 23, "rc": 339, "ys": 2, "yc": 45},{"id": "4dba6037cd174472b1c8850405f2717c.16", "url": "https://lh3.googleusercontent.com/RWd_6siA8VZ8RUlexX49ayl2szvKdRlWAl-c0uNZj4NErnODYQcuO-L-C4pREczKSBxqLHV_eN-u-GJXQKdTJV0MdysL", "name": "Hesselby Idrottsplats", "lat": 59.37135100000000, "lon": 17.82861300000000, "team_id": 1, "available_slots": 2, "bs": 34, "bc": 106, "rs": 33, "rc": 97, "ys": 25, "yc": 100},{"id": "5185a454c7554d64bb9e5fc479001f3f.16", "url": "https://lh3.googleusercontent.com/7UOI63ZFCC6moNIeCBbvbvSDsY0UfaOjRBPax2v6S3eTlWpYfs9Bm8zqAnIlnMwVFgrZkunp56ms6I_KILEEborZYE0", "name": "Jättelokor", "lat": 59.34737600000000, "lon": 17.86546100000000, "team_id": 3, "available_slots": 5, "bs": 42, "bc": 58, "rs": 55, "rc": 75, "ys": 42, "yc": 65},{"id": "54f80ef9d3134c1c8ff24d86d83eee5d.16", "url": "https://lh3.googleusercontent.com/-eZSKPcDeIWwi_6B7uRZ3V_CbcnR3Ox-b8X-27n0zlak2u7htIsY9n_FaUKP-9NyWytA3boZpKpRBcUF-ag5Yvl48lM", "name": "Grupp Och Individ", "lat": 59.36136600000000, "lon": 17.82458500000000, "team_id": 1, "available_slots": 2, "bs": 38, "bc": 118, "rs": 18, "rc": 50, "ys": 34, "yc": 118},{"id": "5a25731c71ce41f08321e0bcf9295e39.16", "url": "https://lh3.googleusercontent.com/5NYX5yLJIZKlTok5J_RNrJICUwct8Di13kVfGWYy5ToyyVtgn4Yco19H_-3joTRxHFBGmHXvFv-cJoHrdYEUDxZO4961", "name": "Vällingby BP", "lat": 59.36437900000000, "lon": 17.88352700000000, "team_id": 3, "available_slots": 4, "bs": 18, "bc": 114, "rs": 32, "rc": 178, "ys": 13, "yc": 128},{"id": "5c7ff67a12b94415ace134aaf9930423.16", "url": "https://lh3.googleusercontent.com/jPuBXlMGHFSq3E8VNm2ioMkFvyWJy-kXunZ_FvmbfW6nx6d-v55PkEV4ihghd4jfymS8dltEEA4W0Fe7oOtVtiFSpoXW-386FueKXV8", "name": "Utegym Hässelby IP", "lat": 59.37224100000000, "lon": 17.82684000000000, "team_id": 1, "available_slots": 3, "bs": 27, "bc": 129, "rs": 26, "rc": 72, "ys": 33, "yc": 121},{"id": "5fcf657e43854d128d0720ffdd3628f8.16", "url": "https://lh3.googleusercontent.com/oHWEXeqJvX8wkmInqCbjAG0_byk0Ua4EtgC2-fRQZ4wNGP2Ekr12vRFlZBZiMZ65UNTfwY5vEyY2hqDMNM3MzhbS1389", "name": "Upplysta Grodan", "lat": 59.36757900000000, "lon": 17.87601200000000, "team_id": 2, "available_slots": 3, "bs": 41, "bc": 129, "rs": 21, "rc": 90, "ys": 20, "yc": 112},{"id": "60ebd84494384b0cbac7db214560d6bb.16", "url": "https://lh3.googleusercontent.com/sIyBcKDxZUMG19QPG2NnrquS6CjVpXebSgyoblV1iMpmu7GCopQYhl84OkcU2MjDN_exjkY_K_Tbv8gZ2g3OHQ2LUg", "name": "Motionsspår i Grimstas Naturreservat", "lat": 59.36143500000000, "lon": 17.84716700000000, "team_id": 3, "available_slots": 5, "bs": 37, "bc": 99, "rs": 23, "rc": 64, "ys": 39, "yc": 105},{"id": "63fdf348ba2a45e98b4a544e87cc9838.16", "url": "https://lh3.googleusercontent.com/Eb4XmBm_3es3GSZyq3xcRX2WiU3LOoy10mR6NDf7wNYL2cxGWwAPwyj1hnkxhm3paaOYcZpxooTtwUg05u0kRWIz0Q", "name": "Missionskyrkan", "lat": 59.37733400000000, "lon": 17.82100400000000, "team_id": 1, "available_slots": 3, "bs": 79, "bc": 98, "rs": 13, "rc": 42, "ys": 17, "yc": 66},{"id": "641c14b30c764ef4ab8374f8a70833b3.16", "url": "https://lh3.googleusercontent.com/2Wr0x-DP_fgzO9MnTosiJm9HZ5aNL4jk7eAE6pc-6tjO3gibVtlujwEkIUkbf4V9M56YtLRdXeGCvO1jwUQtN4UweQ", "name": "Konst i T-Banan 2", "lat": 59.36408000000000, "lon": 17.87085000000000, "team_id": 1, "available_slots": 0, "bs": 15, "bc": 288, "rs": 7, "rc": 162, "ys": 14, "yc": 284},{"id": "6506f7102f1138b1a6a885742266b74e.16", "url": "https://lh3.googleusercontent.com/SrCTonMEqU_wiwU50UH8bP00uonthEMKmwhlX-6AXqlyLDEWcHu3kTmSu11qHEWBPVGFZnIleQW7yGQesKajrpDeB3o", "name": "Gungor och sandlåda", "lat": 59.37803700000000, "lon": 17.86713000000000, "team_id": 2, "available_slots": 2, "bs": 100, "bc": 80, "rs": 19, "rc": 45, "ys": 12, "yc": 45},{"id": "684f5bcff09d4417a8e61da41ed822b4.16", "url": "https://lh3.googleusercontent.com/87BkBF7J-G0zRQ4vSLMM1BoLUhVQbgRCc98paGgZaOfRdl5NrQhDwP0y_t8qTbA4l9M-x5_rgPcsp8c2tj_wr2k0ow", "name": "Katten", "lat": 59.36309400000000, "lon": 17.89394700000000, "team_id": 1, "available_slots": 5, "bs": 25, "bc": 103, "rs": 33, "rc": 153, "ys": 18, "yc": 99},{"id": "6bd9cd441fa54a4ba8e9e3a267cfe45a.16", "url": "https://lh3.googleusercontent.com/f0h8fQqKtpDh4Zr5jSP9mrKx-RitNLepAKRYWm2PGetcmZ5rVF-9JRAcG0vSvWnPFjFxwG9yOSST6_vX_MbuidaYSQ", "name": "Stencirkel", "lat": 59.37879500000000, "lon": 17.84219400000000, "team_id": 2, "available_slots": 0, "bs": 14, "bc": 132, "rs": 21, "rc": 186, "ys": 20, "yc": 178},{"id": "6d7d2b48ae7148e38e82cf0add1b93bb.16", "url": "https://lh3.googleusercontent.com/3Qlw2-6xfUii00JnEm9mrqEljJ29-R08z3z-N6W1zFb4Cvr5EXKdqeew7_OcXf23wzficqHCwsoEFC5nm66s0xqOMQ", "name": "Lekplats Fagerstrand", "lat": 59.37620800000000, "lon": 17.79836800000000, "team_id": 3, "available_slots": 5, "bs": 30, "bc": 82, "rs": 45, "rc": 100, "ys": 31, "yc": 75},{"id": "6f930508b4d242e294a32be62cf2c0c3.16", "url": "https://lh3.googleusercontent.com/oQMefHNs97IdFdvSkK-Da3RQnM-YScKKv_X0c3OXD_qeYWySZMHa4lk8IHIr4mBEeNv6SJXVkJlPV8dH4QbzfkLx3ZA", "name": "Lekplats Kv. Lapptåget", "lat": 59.38972400000000, "lon": 17.82003700000000, "team_id": 3, "available_slots": 3, "bs": 92, "bc": 48, "rs": 51, "rc": 34, "ys": 96, "yc": 33},{"id": "70edd6e0e82b469baba56c9a2796372b.16", "url": "https://lh3.googleusercontent.com/rED52Vabi_WaLXMqZX-NFEOlSy8epzk0LPGbirP_bftc83FgxqcYGiiIEZrMVJLKxBESxaxIVU4gQxib1W4gwczWKEju", "name": "Kanaanbadets hopptorn.", "lat": 59.34908600000000, "lon": 17.85477100000000, "team_id": 1, "available_slots": 3, "bs": 46, "bc": 58, "rs": 46, "rc": 52, "ys": 58, "yc": 73},{"id": "71495cee53a647f1a08952a3375d3ca9.16", "url": "https://lh3.googleusercontent.com/2JvzpsP81d67R3BpPYvENNe0Q1jh67dpWFo3JuvT-3yF_Fq_HNiTL3ECWmiT1V2QxuO99M9M_oMbGTAroJCWaaZ4R5U", "name": "Playground Gulddragargränd", "lat": 59.36338400000000, "lon": 17.86033300000000, "team_id": 1, "available_slots": 3, "bs": 31, "bc": 179, "rs": 15, "rc": 154, "ys": 20, "yc": 67},{"id": "72fb987d293e42f9a318325798b88cc0.16", "url": "https://lh3.googleusercontent.com/XZI9kS_oldp1w0SnUDjF21dx-7xi3a6ZxENWMEoYILIxC1SOBb2611y1zYlJEnyWzUB8RCHHsgrf5AlvTSjdNTzg7dI", "name": "Villastads Bibliotek", "lat": 59.37984000000000, "lon": 17.81795300000000, "team_id": 1, "available_slots": 5, "bs": 15, "bc": 200, "rs": 14, "rc": 192, "ys": 16, "yc": 220},{"id": "74fb517148a14d80a8f7ee25e90d6eb6.16", "url": "https://lh3.googleusercontent.com/8lSXgdtHPBgWLgGeuQQp1Y9YtDJuYCFJaT9ItL_Ohgt-J_ZB0RzBOjaONefeX10eWbVkhLw-IE9sbMilwzAqROZN6A", "name": "Höstens Löv I Rostigt Järn", "lat": 59.36601300000000, "lon": 17.85470000000000, "team_id": 1, "available_slots": 0, "bs": 52, "bc": 69, "rs": 54, "rc": 67, "ys": 47, "yc": 44},{"id": "760a697107173e4c8de198bd3ea9b4bf.16", "url": "https://lh3.googleusercontent.com/3LXq46PVdJlqb0DPDWZDqGRdpjU68eJ5a1Tr7YjIPO87gW9-StB_wgt789fi5EV69_UB9tQd55BsIrpzs-2_1VfLTTlf", "name": "De ensamma gungorna", "lat": 59.39475800000000, "lon": 17.82026700000000, "team_id": 2, "available_slots": 1, "bs": 157, "bc": 6, "rs": 69, "rc": 8, "ys": 46, "yc": 4},{"id": "76a4373cd5ec4317b3b0ac054151bb49.16", "url": "https://lh3.googleusercontent.com/V62V2-O7Hp4BxSwUlh8qCF2GBTxHof09Du2fQ96lqqis5_zs-n3bGtAtiJcLrQOY1B12wy5c3vEKIZFnblUx2j_JDgljcIvvEl2j4Gl3", "name": "Lekplatsen Blåelden", "lat": 59.38085900000000, "lon": 17.83603400000000, "team_id": 2, "available_slots": 5, "bs": 31, "bc": 149, "rs": 17, "rc": 97, "ys": 22, "yc": 136},{"id": "789db356a9ba4949b406e0631777e5ca.16", "url": "https://lh3.googleusercontent.com/R4x-gS4U-k3gRuyF-mNIOGQXa1wD-XZq63c1VI-pgcG57vhogd9NJgtqo2lpqDF3WPKC1qoTZ_UNE0P8XbmW-4GzFtM", "name": "Gungor och klättertorn", "lat": 59.37795000000000, "lon": 17.86850200000000, "team_id": 1, "available_slots": 0, "bs": 85, "bc": 93, "rs": 12, "rc": 50, "ys": 18, "yc": 47},{"id": "7b6e4b9509d3445f86322c8528b8dbeb.16", "url": "https://lh3.googleusercontent.com/p-Hkm2ROX4oivDiqkhnGzXlfaRINhq67ubnvJHsZNnkXaeMEsX3Fm8vzTkIYkcHccG_50a40ULWPbWmTvWj9hR03qU4n", "name": "Red slide down the hill", "lat": 59.38297800000000, "lon": 17.85057400000000, "team_id": 1, "available_slots": 3, "bs": 42, "bc": 104, "rs": 35, "rc": 105, "ys": 26, "yc": 50},{"id": "7c0ffc700a934456be702062f8970b77.16", "url": "https://lh3.googleusercontent.com/penylYyMjhiHkNFaaA9lXw8yucU1JJHYb9KjAWYtJHKEv1AO6Y9CHgKLVtawkpIqdsygPsZrCUkWq5o-8VQ0-FK_ob9t", "name": "Råcksta Gård", "lat": 59.35388900000000, "lon": 17.88488600000000, "team_id": 2, "available_slots": 3, "bs": 26, "bc": 217, "rs": 13, "rc": 159, "ys": 11, "yc": 161},{"id": "85f8e5057e32499eb5f0cc19500dc307.16", "url": "https://lh3.googleusercontent.com/x-DbN4E4c_P2h3NT3WCR-2h7zzgBYH7Oqub9qLZNvuSiJD8DDFmRD7itSFge1S9tJ5ayVxMOpepYBVUMp526wMsKaQ", "name": "Kissing Streetlights", "lat": 59.37357000000000, "lon": 17.84537800000000, "team_id": 3, "available_slots": 5, "bs": 13, "bc": 144, "rs": 33, "rc": 159, "ys": 16, "yc": 146},{"id": "87e19face7694d64975f99eec318fa04.16", "url": "https://lh3.googleusercontent.com/ivaR40j60SDycp_CuRviCLjqIaIUaxUzFn_hsB5KNemicnVPSmwvrWeAUCTwIlhmMvd_jSjSkVPV0L5ZIrCY-gWOn_E", "name": "Lekplats Backlöksvägen", "lat": 59.39326800000000, "lon": 17.80912000000000, "team_id": 2, "available_slots": 5, "bs": 32, "bc": 181, "rs": 17, "rc": 143, "ys": 20, "yc": 60},{"id": "8a504465255a49f691a5b21d54b01e2f.16", "url": "https://lh3.googleusercontent.com/4943UoZvFDbDEA9wXJ_G9FUdsqBm8qywQNEFvxQBg8iNW2cN8ogMac7LuoHJjEvNfxL_uohYaRdFrU5ifrJvPrvNYuU", "name": "Loket Tuuut Tuuut", "lat": 59.38050600000000, "lon": 17.81827700000000, "team_id": 3, "available_slots": 0, "bs": 0, "bc": 0, "rs": 0, "rc": 0, "ys": 0, "yc": 0},{"id": "8b473b9d18d747b9acfac03b4be69548.16", "url": "https://lh3.googleusercontent.com/6zpZc-egfAme7tFHQTlvUOtagRINLg124Z2xt13udcOygfqjywBGPywa8KsDY3pCXvImltZlSZpME3NFVw5FQS4BkKU", "name": "Gatuliv 1", "lat": 59.37288400000000, "lon": 17.84706500000000, "team_id": 2, "available_slots": 5, "bs": 28, "bc": 203, "rs": 14, "rc": 168, "ys": 15, "yc": 94},{"id": "8d6656808d5349ff94efcb66b743dfcc.16", "url": "http://lh3.googleusercontent.com/L0DvLgeJfunnKlhraBK9fVxnzYppv1i0Z_wDQHzCDocCZB5MB2EezRJ-0fGsTSlFOiEmLm5UmyBxrVxfkKE3L-TA2Q", "name": "Gungande Elefant", "lat": 59.37690900000000, "lon": 17.84943700000000, "team_id": 1, "available_slots": 0, "bs": 48, "bc": 131, "rs": 19, "rc": 80, "ys": 19, "yc": 84},{"id": "92183b100da444758c4841fd6ea731c7.16", "url": "https://lh3.googleusercontent.com/zHcs0xriCcbCYvefszftfBjXJeWoyL1mwEgn9GAw02wAWIjMLv_hyALRjEwaTYFeVwAuCp1NiKbx3LwrFyk7yL9Q_w", "name": "Bondeklockan", "lat": 59.36535100000000, "lon": 17.82663400000000, "team_id": 1, "available_slots": 5, "bs": 41, "bc": 81, "rs": 35, "rc": 62, "ys": 47, "yc": 83},{"id": "98c41fb444a84d70853f68114a770d84.16", "url": "https://lh3.googleusercontent.com/B-2fqZIUcH8vRjde4R0UqEmrKQLBitZSoOQgxKiI5zLndweRsBRBcaKViMlvbr7vhPmbdZfCL-CpayTDDPmDYKIqjbwx", "name": "Handavtryck", "lat": 59.36331100000000, "lon": 17.83868100000000, "team_id": 3, "available_slots": 4, "bs": 22, "bc": 145, "rs": 22, "rc": 138, "ys": 25, "yc": 130},{"id": "9911de1b2be84c129589b25db1ff0b15.16", "url": "https://lh3.googleusercontent.com/DqI0hotLHBwiY2LuhtBM4TToAzZA5Bw-hftUBtfrrj0vhbCI6GnIS7r_BysPuh7eRtPafQPvvQEPjP8RAG6oFMv1qjM", "name": "Råcksta Träsk", "lat": 59.35385700000000, "lon": 17.87555200000000, "team_id": 3, "available_slots": 5, "bs": 20, "bc": 96, "rs": 49, "rc": 127, "ys": 16, "yc": 76},{"id": "99c024685a484bc695cc86b27c6d1d22.16", "url": "https://lh3.googleusercontent.com/j4zI55nNMj7hSstzEG4ApDUP6lqffn-0EU8UnQR3YcyUDf14U_Cv0X1x7xLoGv1oSbJlQuUv-rm_mzJOoEED77ZV6rI", "name": "Yppig Vällingbykvinna", "lat": 59.35957600000000, "lon": 17.87274400000000, "team_id": 3, "available_slots": 5, "bs": 29, "bc": 101, "rs": 30, "rc": 47, "ys": 51, "yc": 99},{"id": "9a1c60bdde3246718c813506f0ea7336.16", "url": "https://lh3.googleusercontent.com/0knFmQXjEKdS1RooQAbS_y3Ph_N9beFL1qQoJXQDFHBxVk_CWUhkTzFNSu6-DTPG7q6AGrVdDTgycqgWxEeQ5cUH1puV", "name": "Lövsta Bytomt", "lat": 59.38902500000000, "lon": 17.78532800000000, "team_id": 1, "available_slots": 4, "bs": 76, "bc": 52, "rs": 50, "rc": 49, "ys": 59, "yc": 50},{"id": "9b6387ef0e7146598fda1018f22036b8.16", "url": "https://lh3.googleusercontent.com/voPg5YnrmLt1fFYVaPCR-3A67CYgjoUysPmHmVl9UCh8BlESvV90bGTYVAoQd0RnfxLuRZdX67einoDY2FbO3GPk-6c", "name": "Spindelparken", "lat": 59.37973400000000, "lon": 17.85974100000000, "team_id": 3, "available_slots": 4, "bs": 52, "bc": 118, "rs": 21, "rc": 83, "ys": 20, "yc": 73},{"id": "9db1214fd4b5428db4a8ca3446a56bab.16", "url": "https://lh3.googleusercontent.com/rGgNJ-t6rl1M6MKFFgPd4Jq6Zv-nKy6R2lnzM_e9CX1Qxqu3d_Jl1ayR5TzK2eZYGXRkpKzyztTzNkcJW_VGC12tSQ", "name": "Vinsta Portal", "lat": 59.36948000000000, "lon": 17.85337200000000, "team_id": 1, "available_slots": 2, "bs": 38, "bc": 86, "rs": 46, "rc": 75, "ys": 37, "yc": 71},{"id": "a2b3e5e7a8794eb1a9a0ec0929cfd36e.16", "url": "https://lh3.googleusercontent.com/PCrQ1WNwq-JqNUo9S7CTIRrMJO7kGF7E6UmJuzZ9omo9B8v3JZ1ctk14gF-MP0403AALYgcUPm_xWjg7TAf-2kkL_WM", "name": "Lekplatsen Höstfibblan", "lat": 59.39419900000000, "lon": 17.81629700000000, "team_id": 1, "available_slots": 0, "bs": 64, "bc": 109, "rs": 12, "rc": 72, "ys": 22, "yc": 60},{"id": "a4124d43fe8a40e095f25620e187a447.16", "url": "https://lh3.googleusercontent.com/T235zdVHP04goLyQzggiMfhGyyOl9_VxTERRKbkDr81we7cSvHtEI_sx1n4_wPsY6ysK21rBQixVODjll7ZVRpCPvg", "name": "Grötfatsfontänen", "lat": 59.36695500000000, "lon": 17.86960200000000, "team_id": 1, "available_slots": 4, "bs": 47, "bc": 165, "rs": 10, "rc": 104, "ys": 7, "yc": 82},{"id": "a4597780a0ff45b9a9094c711f10b7c5.16", "url": "https://lh3.googleusercontent.com/uMYo9N-bjlBxupEj-Bz_szSThhVlqoHn5hGUxqsSb7RyMKM-oAYDd1zgOZAeIia9DRwTTsrL0HDkow1Gy3ZyatKvUQ", "name": "Naturreservat Maltesholmsbadet", "lat": 59.35804400000000, "lon": 17.84049200000000, "team_id": 3, "available_slots": 5, "bs": 27, "bc": 80, "rs": 27, "rc": 95, "ys": 41, "yc": 111},{"id": "a6bf8fc8a0ad4b169a7c3ee9786b7c10.16", "url": "https://lh3.googleusercontent.com/vzCdpjN7bRQu80viOwSLcLnsLPp0dJJ8j4dPTSuji-otebQC_MC_a3dFmmhhNJd57n3h7y6OlLVLlD_qRzXZ1dGgLg", "name": "Grimsta Ip", "lat": 59.36217100000000, "lon": 17.85356400000000, "team_id": 3, "available_slots": 5, "bs": 53, "bc": 66, "rs": 46, "rc": 57, "ys": 52, "yc": 62},{"id": "a99e2654e37344ddb9cae3d039b40a9d.16", "url": "https://lh3.googleusercontent.com/3njItsCMgFJM5d7ubc8uimT3q7GMoJlnzcd9p0hjp4qKRiJMEURhxSDE4DzNb85vkgxpw4V819qe-lXSWHpTV6vUR5A", "name": "Parkleken Oxtungan", "lat": 59.37049400000000, "lon": 17.81851400000000, "team_id": 2, "available_slots": 4, "bs": 24, "bc": 99, "rs": 20, "rc": 89, "ys": 36, "yc": 144},{"id": "a9c1ff1895bb4f46992cc45b5e4f6b75.16", "url": "https://lh3.googleusercontent.com/Ux2DvdPBsOlqz05xeyXQsYMAWTnJeh20eQiMHP1jQF9ExXtxTUb0GV6xDXKxwExvHX53iHdUX4x6pooQxlhL8UWGvA", "name": "White Pony", "lat": 59.36490400000000, "lon": 17.83375500000000, "team_id": 1, "available_slots": 2, "bs": 16, "bc": 79, "rs": 28, "rc": 155, "ys": 26, "yc": 148},{"id": "aeb7d09328864e27a1ad247a2f6586ab.16", "url": "https://lh3.googleusercontent.com/AC281oaOnTJAHAcKtFi03i-g892blScnpmqnnKTCLFpSs68GAtSdiCEi0bLpnrbfMDYM1xb33Unh_zEF5zh96_zolw", "name": "Lekplats Carl Bondes väg 70-84", "lat": 59.38085100000000, "lon": 17.82253400000000, "team_id": 1, "available_slots": 4, "bs": 75, "bc": 76, "rs": 30, "rc": 50, "ys": 29, "yc": 75},{"id": "b4e39f65530042f59278dab941e48358.16", "url": "https://lh3.googleusercontent.com/74UKyaUu069cRXGuCUTZxVoPtaye6-By7DDtvD4BuPs6TTdOmjn9NmLQbyUbgOqgMw51mnIpbTFHiuDTTH1BOIJrGMc", "name": "Lekplats Brudgummen", "lat": 59.37649100000000, "lon": 17.87890600000000, "team_id": 0, "available_slots": 6, "bs": 26, "bc": 135, "rs": 18, "rc": 84, "ys": 27, "yc": 151},{"id": "b7324da7f4b23ec880a76ba6c37e716c.16", "url": "https://lh3.googleusercontent.com/TRi-bSM_n6I222WTtS2ohfE7IcZUcRANGSv0rXVZM1_hhYo1wdk7ve07F_lOn1spIao67sw-V8mZn34N9RURelyDcvkfPy7QsDplNHHh", "name": "Klotkastarbanan", "lat": 59.37555400000000, "lon": 17.87053100000000, "team_id": 3, "available_slots": 4, "bs": 44, "bc": 75, "rs": 24, "rc": 40, "ys": 58, "yc": 89},{"id": "b82c02c637e149d18b92ec5df4733dc3.16", "url": "https://lh3.googleusercontent.com/wNPPSqmUlFpi-hnsWTlnctFnWysfITdkinaZIfivvailed1WYizehnYIDYPMoX7ekBetpKaB063807U3y1TxF7DKqGE", "name": "Gungorna på Björnskogsgränd", "lat": 59.38350400000000, "lon": 17.85139200000000, "team_id": 1, "available_slots": 0, "bs": 47, "bc": 107, "rs": 35, "rc": 93, "ys": 22, "yc": 51},{"id": "be663b11d44849eea26e6835f1b1f30f.16", "url": "https://lh3.googleusercontent.com/ztpwlTNeJxA7sjWAVsgf5fHQW4cvxgCgnt-vJwxbL6J3pKs74c3CG5BEIt4ubzA-jaXlrQCCOJBk6K1dYNh3PxIVnBc", "name": "Hässelby Gårds Bibliotek", "lat": 59.36819100000000, "lon": 17.84322000000000, "team_id": 2, "available_slots": 0, "bs": 9, "bc": 160, "rs": 19, "rc": 214, "ys": 17, "yc": 228},{"id": "c42b4ee7576f441995592cdf68cd0097.16", "url": "https://lh3.googleusercontent.com/H-wR7H1wk9-qu5d1rEE4XoHhAvi4afsM0HNMDcMETj0TkUlHNXnJRRbCX0sZPG1RGwyrIirJziggBF_-YqafsN_GIEI", "name": "Volleybollplan Lövstabadet", "lat": 59.38818300000000, "lon": 17.77957300000000, "team_id": 3, "available_slots": 5, "bs": 90, "bc": 50, "rs": 68, "rc": 42, "ys": 48, "yc": 41},{"id": "c901d9fa30a9411d93fb1746fe12a4f7.16", "url": "https://lh3.googleusercontent.com/fR_Hpov48NUGGrPSIhkOJc8MVyJ9MHvdeb2GHf1sgr4JFoTEbliN5xfqafpkI9CS6OklzW3WeeTMHGOSV-QUMI0nB3E", "name": "Hässelby Strand T-bana", "lat": 59.36107600000000, "lon": 17.83217900000000, "team_id": 1, "available_slots": 0, "bs": 11, "bc": 225, "rs": 13, "rc": 269, "ys": 11, "yc": 302},{"id": "ca5b7b738f514f8dbf2be3a9d5dc6130.16", "url": "https://lh3.googleusercontent.com/Fu2kJxkrD0sFj5sQ9hmC2UabT4eSFVc2b538CCqWKHOp-4U8mnRDupy1kQSbSuEouH43szDh64FrLpAvXEzsX4yelnE", "name": "Puss Och Kram", "lat": 59.36984100000000, "lon": 17.88784900000000, "team_id": 3, "available_slots": 4, "bs": 32, "bc": 113, "rs": 30, "rc": 98, "ys": 29, "yc": 97},{"id": "cdcbdf2817664e7c9eb890ca640fdb52.16", "url": "https://lh3.googleusercontent.com/JqLyF0ZV2QnV-kFZobvZUOl7FhiN3FfvXwoWtdk3lpE_lYzc_uTedZp5wP1VrezzvLuDba_JjOUEErgjQKiz-kJxAbA", "name": "Melon Arts", "lat": 59.36721100000000, "lon": 17.84279300000000, "team_id": 2, "available_slots": 3, "bs": 13, "bc": 183, "rs": 23, "rc": 197, "ys": 14, "yc": 177},{"id": "cf00054c5958431d87e4ab745e41e74e.16", "url": "https://lh3.googleusercontent.com/5pzjCxsMVpSij38XLxWCzuUEhSPGyUkLWmRfZzJZguEl3IryzyHmhVhiFUsNltxvp009qQSI9uZKVZkytqE2s46H_A", "name": "Ormängsgatan 10", "lat": 59.36425900000000, "lon": 17.84042500000000, "team_id": 3, "available_slots": 2, "bs": 19, "bc": 113, "rs": 18, "rc": 91, "ys": 36, "yc": 151},{"id": "d00fa8d40db14162ba0f26d093f305d0.16", "url": "https://lh3.googleusercontent.com/v2mddBzg2J_TLv0aVNW133Tb58097--2qmsqceMaCr79QTPrIO6JWbE_yRLnj6wNZ9SsI3BHTR4JZ0hCNSy0iUfZw-R7xY_wD0TU7LU", "name": "Hässelby Folkets Hus", "lat": 59.37927900000000, "lon": 17.80371800000000, "team_id": 2, "available_slots": 4, "bs": 17, "bc": 88, "rs": 14, "rc": 118, "ys": 36, "yc": 171},{"id": "d603b022dd0940b791c7c329f26f34e7.16", "url": "https://lh3.googleusercontent.com/bmjjIbpBGLnPc-SJtxiM73eyTN_RTSAye9LWsh56-FBpjKQfj3DLx2J2yx66rvtRUAgL7N1OPsTQsjuiaIKkCm7crg", "name": "Hästar Och en Zebra", "lat": 59.37932800000000, "lon": 17.84086800000000, "team_id": 1, "available_slots": 3, "bs": 26, "bc": 136, "rs": 28, "rc": 128, "ys": 21, "yc": 105},{"id": "d6103c94b0cb45eabce068edc1f630f9.16", "url": "https://lh3.googleusercontent.com/Zfp30vzBlMUS5bQnKWAiCltgPAILe7bF-7yj66xdb1HJ2cNzrE1IUQS9x0bHzXKy-8dE540d8NMU3eOVocxhGcisQJ0", "name": "Lövsta träbro", "lat": 59.38313500000000, "lon": 17.79019000000000, "team_id": 1, "available_slots": 2, "bs": 87, "bc": 42, "rs": 61, "rc": 29, "ys": 88, "yc": 44},{"id": "d82764cc2bfa4c3e835a4be605ad775d.16", "url": "https://lh3.googleusercontent.com/VcvY9Y0oE50IFxurZsEXeZHEVw--DAQzDE3ibY6728aqWGSv5ENM5IMTUiK0Ygw__0Yns_pqfrj4_rAoQ2Ak8qb6lDw", "name": "Cirkusmanege", "lat": 59.36922100000000, "lon": 17.84045400000000, "team_id": 1, "available_slots": 3, "bs": 44, "bc": 119, "rs": 26, "rc": 91, "ys": 22, "yc": 76},{"id": "d85dded1247b3fbd9e48cc2d8cb0fcbc.16", "url": "https://lh3.googleusercontent.com/O7q709Kbuy1WdEUP_IFT-Qx_aNdGbQzpKnJFkwQbWMjzaltFL0Vx9F9zBDyFKtdAibcPDS7DD_iG23KAxO5tU9n9pdg", "name": "Lekplats Hästparken", "lat": 59.38146700000000, "lon": 17.81104900000000, "team_id": 1, "available_slots": 1, "bs": 21, "bc": 152, "rs": 15, "rc": 116, "ys": 26, "yc": 174},{"id": "dac99ef2562341e391bcd1126a17f00c.16", "url": "https://lh3.googleusercontent.com/J7h0Gq6seXkxZfHmbRB1Ch24qK-z9tKgiMVADz0rJcRULnTybJOA4U6tnl9kt3mmKv2XBH15GGFiYpHg3vKptqfzvJ8", "name": "Tre Fat Fontänen", "lat": 59.35811200000000, "lon": 17.87145400000000, "team_id": 3, "available_slots": 1, "bs": 17, "bc": 117, "rs": 41, "rc": 155, "ys": 10, "yc": 97},{"id": "de5be29a3bf344869a3139fed8c5c13c.11", "url": "https://lh3.googleusercontent.com/gzzcWQX74drbARFm_-kWUyon_e0z6aI8vYwssARZJKGi-BLCdhj0V2VSgIKyEawLErXEPxbjGAfBRf1o9VDdviY4uVw", "name": "Vinsta Gård", "lat": 59.37203800000000, "lon": 17.86513700000000, "team_id": 1, "available_slots": 2, "bs": 43, "bc": 93, "rs": 31, "rc": 62, "ys": 41, "yc": 81},{"id": "e43d0ac0a85b4b0a88fc1c1bbc5b976d.16", "url": "https://lh3.googleusercontent.com/eCa64Mtd1D1b-JVX_OWAPypVAMzdKP_z_C7hMdRjwgrrXd5qzj7trsUedWu_mlndj4Gc0Qxq5HaamzroccWvf1Kf0g", "name": "Björnskogsgränds södra lekplats.", "lat": 59.38312800000000, "lon": 17.85399200000000, "team_id": 2, "available_slots": 5, "bs": 50, "bc": 92, "rs": 28, "rc": 74, "ys": 45, "yc": 60},{"id": "e8265f1ee5e94237831b7b4c18eb49ee.16", "url": "https://lh3.googleusercontent.com/04zQ9396F3R6TlRRxZiDFv_kSDzSkSZHNyIGl-KvbH_J-hYBUXW49tjylld3wg9K1BcHrOYnEP08zu-z27cI2BsVzog", "name": "Spegling", "lat": 59.35790100000000, "lon": 17.83203600000000, "team_id": 3, "available_slots": 4, "bs": 29, "bc": 111, "rs": 23, "rc": 56, "ys": 37, "yc": 132},{"id": "e98afa4208e54aa991ceb794e9fcdaf1.16", "url": "https://lh3.googleusercontent.com/8cL67W0tj9zPN3oMqLtPL7SV9JQ-0E97_XpQuaHlIvhbpVUhB-Jody2KYEZVEWomo_sHQQVjKD1iFhGPsoGXMZ05wGo", "name": "Björnskosgränds lekplats", "lat": 59.38229200000000, "lon": 17.85388900000000, "team_id": 2, "available_slots": 2, "bs": 21, "bc": 94, "rs": 51, "rc": 132, "ys": 11, "yc": 57},{"id": "e9d3330f7c0c4335b80655085c1ec661.16", "url": "https://lh3.googleusercontent.com/z9bcz5jWOPRi7OHzC7IJgiNWiQgkHwzOAGav7QTQVD7A4NjXLgpkrbWWdq68r9cX4p-6TnLmjbF8Z6Xk_WI1xTtMyK8", "name": "Den Blå Älgen", "lat": 59.37135000000000, "lon": 17.83975400000000, "team_id": 1, "available_slots": 0, "bs": 126, "bc": 69, "rs": 5, "rc": 46, "ys": 8, "yc": 18},{"id": "ea24f5f6771a4aebb3202d1bfef83815.16", "url": "https://lh3.googleusercontent.com/3X40juHpENdtE3TYn5aZHTz1MjxAYtsBOa4_IH9_-nj9zfNaQ1RnvSAqf10IMcropJaT_Dpodagn9F-R4ykq4FDlNwDP", "name": "Colorful Playground", "lat": 59.37178600000000, "lon": 17.88326800000000, "team_id": 2, "available_slots": 1, "bs": 63, "bc": 57, "rs": 66, "rc": 39, "ys": 68, "yc": 48},{"id": "ebf49143c3b347f8ad3d9ba56c070b08.11", "url": "https://lh3.googleusercontent.com/G7P_co1_X70hL0R7EuD-evhdmDyCm8_ONaOBddPN2Z6GkWoFDCqgsFQPhVzlMRZQD3mduejGWhmmsGQV-m20eE2V4zA", "name": "Venus Och Nerthus Bidande Sin Tid", "lat": 59.36925700000000, "lon": 17.88419500000000, "team_id": 2, "available_slots": 0, "bs": 32, "bc": 107, "rs": 25, "rc": 83, "ys": 42, "yc": 93},{"id": "ec27423da32a47b68804184cae38131b.16", "url": "https://lh3.googleusercontent.com/rcje1RWMAefSHJgcBEoxiiLsHsSFvM-vbrIsqPFwQFh6rPIz88bXJfjdgzvxV225Vi_67q3kn1UQ5VGl_bIUvK-M3pU", "name": "Stålkonstruktion", "lat": 59.36529500000000, "lon": 17.86576400000000, "team_id": 3, "available_slots": 1, "bs": 25, "bc": 155, "rs": 17, "rc": 107, "ys": 31, "yc": 116},{"id": "ec4d2020474841cfa1272c5131e03fc4.16", "url": "https://lh3.googleusercontent.com/zKVFkOEKjBHX8x6AT0n9tk73IWS-RKtme0azHVyQ6terZYcBl8TUSbDSEBEWl1eqjPslvMhW3ZTjyeQug3kAbgECCeg", "name": "Parkleken Gulsippan", "lat": 59.38931700000000, "lon": 17.81766600000000, "team_id": 3, "available_slots": 0, "bs": 42, "bc": 94, "rs": 24, "rc": 92, "ys": 33, "yc": 96},{"id": "ecc2882fe70f465ca8b6fc583e9874d0.16", "url": "https://lh3.googleusercontent.com/G1_0_KEtoClUMKKv0vBEA3DPhHleReVxb02c23EEW1NvpbZcG03GWiPB6_TdJpQOPH7jjXvf1gOE2XjwjJ-vDPOmGztYZ7HzaC7J6z0e_Q", "name": "Lekplats oxelbärsgränd", "lat": 59.37943700000000, "lon": 17.80750900000000, "team_id": 3, "available_slots": 2, "bs": 19, "bc": 36, "rs": 16, "rc": 39, "ys": 36, "yc": 44},{"id": "ecd91a656d5045a39a80b6d91ed0696a.16", "url": "https://lh3.googleusercontent.com/xRepCWE7FajOErLCdm4dH4LfZSDc2AyVrrp2dvNZQK2tLPfdvE6WUw3l7dNvpexm32nIPxdEHF7DbkoRUuCeP2rzofp1", "name": "Lekplats Blåvidegränd", "lat": 59.37712600000000, "lon": 17.84136900000000, "team_id": 1, "available_slots": 3, "bs": 42, "bc": 105, "rs": 21, "rc": 114, "ys": 28, "yc": 91},{"id": "ed4adc18b5dd491fa8563d3872c28d7a.16", "url": "https://lh3.googleusercontent.com/-pq8Tqmb3PYhm9LPKbl4b6VjOKyEz604k-tmF2FvDFyOU1pqplJcis4G6wcq3WL3m0nqjwvc8uj8jodFI-QU9FEgayo", "name": "HSB", "lat": 59.37209100000000, "lon": 17.88476600000000, "team_id": 1, "available_slots": 4, "bs": 56, "bc": 70, "rs": 36, "rc": 42, "ys": 59, "yc": 66},{"id": "eea38f658c674c8fb3df6158f89aae6b.16", "url": "https://lh3.googleusercontent.com/sTBARiDzSQwxAM57FbvQlxssLPk3Ppgpp3vK-NIoUTcIon4OIVpJm1C4fD_WuPIiyZsdykpXtROeu1ljuGDTuRjZvA", "name": "Brunn", "lat": 59.37854800000000, "lon": 17.81269500000000, "team_id": 3, "available_slots": 4, "bs": 19, "bc": 174, "rs": 9, "rc": 84, "ys": 26, "yc": 205},{"id": "f0b347ed1e9f4293a06916230269507e.16", "url": "https://lh3.googleusercontent.com/MavXFM5Zw8w1tXjRv0dqT8gSGJtL8sCf9X46_iEeZUW2RrEL8XQtllsZtzHPG1juQcHFdAYrOCkUlNrjDTP-pqQ5", "name": "Hässelby Gårds T-Bana", "lat": 59.36692300000000, "lon": 17.84363700000000, "team_id": 1, "available_slots": 0, "bs": 7, "bc": 209, "rs": 25, "rc": 262, "ys": 8, "yc": 161},{"id": "f0e051275b323734889e475122fa25ad.16", "url": "https://lh3.googleusercontent.com/uf5myNkSerfQc_kaGDsG1u9zkwexV0WDja6ZGtlwdDmu6TxeNz6-xr3OYz_vG9AnXP_7bxiLl_PZm7BnqGU0G-mfqZS4w5gnmt0BdQGt", "name": "Fotbollsplan", "lat": 59.38684800000000, "lon": 17.81123500000000, "team_id": 3, "available_slots": 3, "bs": 12, "bc": 119, "rs": 11, "rc": 146, "ys": 24, "yc": 231},{"id": "f118e38e7def4bac857ad854da51c983.16", "url": "https://lh3.googleusercontent.com/Dih6VhReabgtQbPe86D2zk_y2nkTWF96ikQOhmUQaUK7LDuU01oon1KPdvtexzgHSarL5Z1a7ebX_R66TTNKSRifybh9", "name": "Riddersvik", "lat": 59.37901900000000, "lon": 17.79605200000000, "team_id": 3, "available_slots": 5, "bs": 57, "bc": 67, "rs": 42, "rc": 55, "ys": 61, "yc": 51},{"id": "f2347e689d8e4478a7f6d9bfd5895c9d.16", "url": "https://lh3.googleusercontent.com/u3MRct_dXKUc2PPbI0XtU93--aV4WDyFDBI5nkJweB1qMyr2k-z1Zluj8SxsQUo-Y5WUvUi6F7rkA9_NBumngEfUvjw", "name": "Parkleken Ådalens välkomstskylt", "lat": 59.36166700000000, "lon": 17.88144500000000, "team_id": 1, "available_slots": 0, "bs": 22, "bc": 193, "rs": 18, "rc": 156, "ys": 16, "yc": 143},{"id": "f2a174805a2333aaa6045f0c7aef2a67.16", "url": "https://lh3.googleusercontent.com/unX01AtQ-yfIdlsd6dVVe5lkzZDprs_1uKpax409HsaQdruVRRx8smHSwg3xUOu-HlvYVDnmEIfvABc6FeJYpgtVd5CIyOnUhbjGfveTvg", "name": "Vällingby friidrott", "lat": 59.36516300000000, "lon": 17.88344300000000, "team_id": 3, "available_slots": 3, "bs": 25, "bc": 33, "rs": 39, "rc": 26, "ys": 24, "yc": 19},{"id": "f2e4000846fc430f8697f560a05afc73.16", "url": "https://lh3.googleusercontent.com/I5d6kYwhx51pUnaVjf4CvCHSZ_U9Fv81wcI61f-zfAyvtyCCbkv_KxxJkHxxCViNwOZulcGWZcUZTW_lAipv_mEscTo", "name": "Fasadlöv #2", "lat": 59.35292900000000, "lon": 17.87987600000000, "team_id": 3, "available_slots": 5, "bs": 14, "bc": 191, "rs": 32, "rc": 196, "ys": 8, "yc": 35},{"id": "f33c5b1ecd0f33ac80db47bbd613cfe4.16", "url": "https://lh3.googleusercontent.com/PJxcpd1_q0umzUuKDvtTHmDnULLtDfR2em7fOvNBrrIw8nRCsDyzwjuv4oLXQtHB3LfrBwt9rlSi621UYXyngeyJrmmc", "name": "Lambarö lastbrygga", "lat": 59.36597700000000, "lon": 17.81311200000000, "team_id": 2, "available_slots": 5, "bs": 192, "bc": 36, "rs": 68, "rc": 12, "ys": 56, "yc": 28},{"id": "f97e2f0ac7694e7e86d324335ab253bd.16", "url": "https://lh3.googleusercontent.com/nyntvcus5WpyhWeHpEhSJl64x0XM5MLLcW8RT9H6i8C4ErMOl77ZuHw9ZKahsuxKVV9dJQ0zU8cMANrmZn6EZixT7-sH", "name": "Reliefer", "lat": 59.36382400000000, "lon": 17.87325900000000, "team_id": 1, "available_slots": 3, "bs": 20, "bc": 296, "rs": 7, "rc": 168, "ys": 9, "yc": 239},{"id": "fae876d63a77461791a63bb79ee34254.16", "url": "https://lh3.googleusercontent.com/JwqBlbhBZGJ0Eb9g8la5M9mVNX2ImOsfUv6nBc3dTcQ1279qwlLeHkiMhMrFkyPzzGVqHAxgh2yeICSisKMDmWJtVLE", "name": "Älvkvarnstenar", "lat": 59.36158200000000, "lon": 17.87379000000000, "team_id": 1, "available_slots": 0, "bs": 11, "bc": 309, "rs": 8, "rc": 182, "ys": 14, "yc": 311},{"id": "fc4e23c15b2448cfb861d14c2e1b39ff.11", "url": "https://lh3.googleusercontent.com/epRFrK2GMKYXaRgxrQRU3ZD5UEGtle0p8XxMvAMjCAXVPJPk9Clw5OYA42LSVxoDtOH423fHGF3ji22jEvBLzjroMRA", "name": "Starboparken", "lat": 59.37442700000000, "lon": 17.88758600000000, "team_id": 0, "available_slots": 6, "bs": 52, "bc": 106, "rs": 25, "rc": 61, "ys": 27, "yc": 86},{"id": "fe6edd020fcd4eecb546e5d4c79ac2f2.16", "url": "https://lh3.googleusercontent.com/tsbfgghwHKAp92jIUYE7SzPqyQndNinIL4dQM0BjvloN25ai6f5ryiJEAAB6z7OUPZdcuaOOP0_GDQuA1VMw_dRAqYhx", "name": "The Pirates", "lat": 59.38717600000000, "lon": 17.80039000000000, "team_id": 3, "available_slots": 0, "bs": 28, "bc": 75, "rs": 13, "rc": 9, "ys": 84, "yc": 82}]
