[{"id": "05f3427a619f4fdbbe2cedb6e1686c17.16", "url": "https://lh3.googleusercontent.com/Ck4iQuKSgIVfY5yUG2Rtpdc0hc5CrKF6Nifi5TowA--FDVXBrQiQ6HbwyYqb-43ti7UrD09dLD05he98Ns_4nxDqoQ", "name": "Krägga herrgård", "lat": 59.60323000000000, "lon": 17.39770900000000, "team_id": 3, "available_slots": 5, "bs": 0, "bc": 0, "rs": 0, "rc": 0, "ys": 0, "yc": 0},{"id": "0ade05386d47432ba19fccf70e460f33.16", "url": "https://lh3.googleusercontent.com/iZwtesUziRH2Z63j3cs0RFm1CcYjXgb0BzYYG9W9dCHoRganneJevRkdcFZevJ_EIQjUdq6Zk8UMbTXV21EyyFIbvg", "name": "Wrangels Slott", "lat": 59.70312700000000, "lon": 17.62212100000000, "team_id": 3, "available_slots": 2, "bs": 0, "bc": 0, "rs": 0, "rc": 0, "ys": 0, "yc": 0},{"id": "0af72e5afcec4165b4b05430e41a37f1.16", "url": "https://lh3.googleusercontent.com/miykc-wtND8KIdwM1Zb-uqYNif5x13BI7H6EeJQuG4FvDkxFLyHDwa1pwJBk6Ay2cp3wEryaVCTa1KKoxEbQJQAkb1Q", "name": "Liten Bandybana", "lat": 59.56359900000000, "lon": 17.50543200000000, "team_id": 2, "available_slots": 5, "bs": 0, "bc": 0, "rs": 0, "rc": 0, "ys": 0, "yc": 0},{"id": "0b3a0ff5f746460bb3af5fe698304cf7.16", "url": "https://lh3.googleusercontent.com/Zqn-_o5xS7H5kZUNy3TD33HFatjUIxrBNCIkuTeF542KLSVQh4q7SSNDrlQLs9kPwro7XJC3tsBbXPltmwk1k4rVsQ", "name": "Varggropen Vid Draget", "lat": 59.57021800000000, "lon": 17.55357500000000, "team_id": 3, "available_slots": 3, "bs": 0, "bc": 0, "rs": 0, "rc": 0, "ys": 0, "yc": 0},{"id": "0bb9dd38e7603d9db65a58990cd44f61.16", "url": "https://lh3.googleusercontent.com/EZ-BUm0OBSQs3D3ywy8v23S46-6hVPQjrggnV865eHxYR_2I97eQLoxF2R6NY0kl21MsokTeqfOFD1H2ksxFk3IBpNn9jkXVHMzUbbIa", "name": "Playground at Vallmovägen", "lat": 59.54986000000000, "lon": 17.48729500000000, "team_id": 1, "available_slots": 5, "bs": 0, "bc": 0, "rs": 0, "rc": 0, "ys": 0, "yc": 0},{"id": "127e34b51ae1477b9be2b4fd7616ac6e.16", "url": "http://lh3.googleusercontent.com/FjxsJgQrYnD2lRc8aSwtowieqEmk5t-OINPVf1XpatPTaanidnAtVcgR_bS5JUd6KLOB4ZvCrPWWH7u6KEeRrE-0HA", "name": "Slottsskogens Tennisplaner", "lat": 59.69323400000000, "lon": 17.60803400000000, "team_id": 3, "available_slots": 3, "bs": 0, "bc": 0, "rs": 0, "rc": 0, "ys": 0, "yc": 0},{"id": "148b93ec648f4936a1e7951bcd054900.16", "url": "https://lh3.googleusercontent.com/zOkJOwBoYAa7deM5txhzvpCILpCF9PEd4soD5faAGTFclDJWxofkKCT4JT-shTdhNp44SDhzaCuBabMufzd1bElCOE4", "name": "Håbo Public Library", "lat": 59.56658400000000, "lon": 17.52818800000000, "team_id": 1, "available_slots": 0, "bs": 0, "bc": 0, "rs": 0, "rc": 0, "ys": 0, "yc": 0},{"id": "15be2a6d09b94dc9962b23803b3a42ea.16", "url": "http://lh3.googleusercontent.com/UcJ_bh_It4Ttw8ybQYAlY38ekjPavPUdhIOaAXgkQHcsskGNkeZTi8qkt6EFULmktBvh-b-rOMGOvVKwKiH_yCX8SbQ", "name": "Lekparken i Gillmarksbyn", "lat": 59.56847800000000, "lon": 17.49862900000000, "team_id": 1, "available_slots": 5, "bs": 0, "bc": 0, "rs": 0, "rc": 0, "ys": 0, "yc": 0},{"id": "1e98a1629377458392bb3e0b807a26ec.16", "url": "http://lh3.googleusercontent.com/2qRuP07J5cBJZ7QlJRtVQ5PvH4rVYkZaMNQh2OrccgSjyCgIu_FDCJHLwHgfG2-ZQeQCD9dDZ_GFAMdNSgV9HQqRsA8", "name": "Bålsta Vattentorn", "lat": 59.57741200000000, "lon": 17.52735500000000, "team_id": 1, "available_slots": 4, "bs": 0, "bc": 0, "rs": 0, "rc": 0, "ys": 0, "yc": 0},{"id": "1efeab9113873852b3d56ca334157434.16", "url": "https://lh3.googleusercontent.com/vhPQOEsQq0Tuq8xn_CcEza6HFHl55FBkD-jJEwelEb8PyB0KKYgoPLEvkxMOLnPimqKDndgTvcTmn6ST3UTgtxpdoT6YhrTCuIj9wY5rYg", "name": "Utsikt mot forntiden", "lat": 59.55569800000000, "lon": 17.56037700000000, "team_id": 0, "available_slots": 6, "bs": 0, "bc": 0, "rs": 0, "rc": 0, "ys": 0, "yc": 0},{"id": "23299be8cbb935b0988ffe6b168ef0b5.16", "url": "https://lh3.googleusercontent.com/4UesBOlUZdBNqeyx9VC8UKVpPkr7ue3aXkBRU_679GN41W6ZXQhz7E6zq9Y4Z4MjnRHup33QnhzxbxAxxnOAKKMKW003LRBwHsXeOy25", "name": "Lekområde vid Furuhällsvägen", "lat": 59.54601700000000, "lon": 17.51269500000000, "team_id": 3, "available_slots": 5, "bs": 0, "bc": 0, "rs": 0, "rc": 0, "ys": 0, "yc": 0},{"id": "246d85da7684304b81e257431094e59e.16", "url": "https://lh3.googleusercontent.com/w3euJ6RMXFV7VApLyN90a3vmlt7CX9ictuNp7jeNAr85N-IYJQgk8H9OTMIKrbiEahfYTndxGbCRAafqJ8mhtZCopWwJU9gzSzIUtgQ", "name": "Sågarbackens utegym", "lat": 59.58361200000000, "lon": 17.51461600000000, "team_id": 1, "available_slots": 5, "bs": 0, "bc": 0, "rs": 0, "rc": 0, "ys": 0, "yc": 0},{"id": "2839ff63ae0942a79f367fdf93986c2a.16", "url": "https://lh3.googleusercontent.com/cSMYx98bB_IsWcdyzsp_4WAEujpU29p6gKC7x_bFhBaI7WGwlPx9nxciPPOMISFQGIBe6brvMHdLFpeWvvo0jdpqCtwr", "name": "Häggeby pinboard", "lat": 59.65811700000000, "lon": 17.54673600000000, "team_id": 3, "available_slots": 4, "bs": 0, "bc": 0, "rs": 0, "rc": 0, "ys": 0, "yc": 0},{"id": "285208bcb041404f9b683b5e13ee5b0d.16", "url": "https://lh3.googleusercontent.com/-dz8NkpylmIMluuYxEhKz9zWJInDbcTCeJhS-tcj0CMOjIOanlVKKADC4eZRjYRwfJOGDW9DVbCxmoUjGuXf39A262k_", "name": "Fågelskydd I Mälaren", "lat": 59.55328400000000, "lon": 17.53538000000000, "team_id": 2, "available_slots": 5, "bs": 0, "bc": 0, "rs": 0, "rc": 0, "ys": 0, "yc": 0},{"id": "29c9e7343cb548769ece4e1fce6fc6ea.16", "url": "https://lh3.googleusercontent.com/EF0jqhGZsALTuMSEl1sjaJdI_w8foYpp19REoSDYL10bH3YDLPWPC2NkUCVF5XUVoHikOwfrTB5kTG4NIU-MGfkA1CQw", "name": "Åbergs Museum", "lat": 59.55817300000000, "lon": 17.52014100000000, "team_id": 3, "available_slots": 0, "bs": 0, "bc": 0, "rs": 0, "rc": 0, "ys": 0, "yc": 0},{"id": "2bc772660b0535468ce00609b3a6cffe.16", "url": "http://lh3.googleusercontent.com/yv_KQ4I_pY5u-ydz0VBikHrtF8ZDHZ9gb8q5f5R_LJVQmzgSVY9IuP_whpafQl-84FQH8fdaAYdk6fKu70fgjB-Cqo1FZUGAlGE5ybY", "name": "Abbotvägens lekplats", "lat": 59.68322300000000, "lon": 17.60459600000000, "team_id": 2, "available_slots": 5, "bs": 0, "bc": 0, "rs": 0, "rc": 0, "ys": 0, "yc": 0},{"id": "2c5edb704b0a324bb0283c51227ffe5d.16", "url": "https://lh3.googleusercontent.com/-NTknSckaHE3dFXRQdj5UQSNExCTLO52k_Gw7xuHNbFpfjXUokNgctkpmgBPSZcw-uHvGtl845wFhaQflxb4kmfqKEVsWVPZzumYoB0M", "name": "Vandringsled runt Lillsjön", "lat": 59.56019800000000, "lon": 17.55275900000000, "team_id": 3, "available_slots": 2, "bs": 0, "bc": 0, "rs": 0, "rc": 0, "ys": 0, "yc": 0},{"id": "314f8ea44d814fc09e62c08dca9e42bf.16", "url": "https://lh3.googleusercontent.com/fuaj_9e1LfrMGS0eN4bTpkxR4dn_peGiJFIJkqpZdmts9MJjaZEWQwUKg_oYbS0gyd32Xo1DGHhPVzInhn33sUtbxA", "name": "Kalmarsand Sign", "lat": 59.55128900000000, "lon": 17.55673200000000, "team_id": 3, "available_slots": 1, "bs": 0, "bc": 0, "rs": 0, "rc": 0, "ys": 0, "yc": 0},{"id": "3236ba7f1e904da7b086811f284cdcdd.16", "url": "https://lh3.googleusercontent.com/2o4-D119mDYEAJepqPDtK35QHW49wm5Nq6RXRddSHhEluDpoPFM2jGpdXA-HkYws8UlHSJRbVDy9oFhauV8sPWATJ0Y6", "name": "U654 Varpsundsstenen", "lat": 59.62942500000000, "lon": 17.50029200000000, "team_id": 1, "available_slots": 0, "bs": 0, "bc": 0, "rs": 0, "rc": 0, "ys": 0, "yc": 0},{"id": "35a94ef02c8b4d979a079054584e5592.16", "url": "https://lh3.googleusercontent.com/ktjG2j8ew7dj-y6As-sQ7zfLJiGfy9Bz41J5JI1o7EbZcL817DIDgPohJNzBPssn_j7kVEzj7P6bEmraZpp8oH2IBwsI", "name": "Hällmarksbeståndet", "lat": 59.54444500000000, "lon": 17.48317600000000, "team_id": 1, "available_slots": 1, "bs": 0, "bc": 0, "rs": 0, "rc": 0, "ys": 0, "yc": 0},{"id": "395790d4b498497f8ba8c34f9f23f318.16", "url": "https://lh3.googleusercontent.com/6XhNKjIdWJFF5vlEosU2a-BgntpTmVsIO5F4oAoFFUyHkojik1n7YOH9-Bb5PueYzYcSY5SxT_yVNA23QU__Tz8_YFI", "name": "Skogen", "lat": 59.66841600000000, "lon": 17.50110200000000, "team_id": 3, "available_slots": 5, "bs": 0, "bc": 0, "rs": 0, "rc": 0, "ys": 0, "yc": 0},{"id": "3982117eeecf4f26949c48cbb86aa845.16", "url": "https://lh3.googleusercontent.com/6XLjaR1ubKuO9dmrURzIfzPsWmMLSs4K9Sr2THqjzEPDePgttUmyleTkVVx3ZGT4zu5kU_FqEupsSCIdn86v8h7Ybrt8", "name": "Välkommen till Biskops-Arnö", "lat": 59.66302800000000, "lon": 17.48553100000000, "team_id": 1, "available_slots": 5, "bs": 0, "bc": 0, "rs": 0, "rc": 0, "ys": 0, "yc": 0},{"id": "3c671bcd4edc4c1f9508248c16007180.16", "url": "https://lh3.googleusercontent.com/KdWC0mgXR9G_MOIu8jcPUg-RCIAwAnC4QSsLxC1vCtBZbaZQtvzYBimFSRa1ylnDoEq_v0xNmcc2wRue3iq5qWLH9Q", "name": "Yttergrans Kyrka", "lat": 59.60154500000000, "lon": 17.50619600000000, "team_id": 3, "available_slots": 2, "bs": 0, "bc": 0, "rs": 0, "rc": 0, "ys": 0, "yc": 0},{"id": "3e5cc9d35bff450fa5e106e274178ea6.16", "url": "https://lh3.googleusercontent.com/Z35stwn7FVv7fpnywj9aRdnKr5ganl6fIbbbh8aYQbnLUJzpPJJAS0tHXNKcEO0zVGxjL4_q9i1Qj0Ibg2b5BWEykZV2", "name": "Övergrans Church", "lat": 59.63057000000000, "lon": 17.48562200000000, "team_id": 2, "available_slots": 4, "bs": 0, "bc": 0, "rs": 0, "rc": 0, "ys": 0, "yc": 0},{"id": "3ea76b1d2893464d88a66206456f452a.16", "url": "https://lh3.googleusercontent.com/tFXBjM4Lb1Ymgg_BmcJROjVnCgCuW40HKKngD7CbUW8Rl-W04X5vTy5SpsYj6C7Yn2haXVA0muqdjgk3dZ-DRr66c1VW", "name": "Ekillaåsen", "lat": 59.60479900000000, "lon": 17.50813400000000, "team_id": 3, "available_slots": 0, "bs": 0, "bc": 0, "rs": 0, "rc": 0, "ys": 0, "yc": 0},{"id": "3ee72d8c9f5b470fa19aa1a73ee2f3dd.16", "url": "https://lh3.googleusercontent.com/n0EZncodlHMCbMITGxT3RUYlhwMVgYr-bd6sBkwYfBJunQVCfnxjWUQTgXBO2izazJDnMrFlWD21QY488U5Vrgdxow", "name": "Järpvägens Lekplats", "lat": 59.57021400000000, "lon": 17.50755100000000, "team_id": 3, "available_slots": 3, "bs": 0, "bc": 0, "rs": 0, "rc": 0, "ys": 0, "yc": 0},{"id": "3fc7dbaa91964f1aa288b545a1197456.16", "url": "http://lh3.googleusercontent.com/dbZa_bNgzq2qavfOTppCA5xi1LmZ6SAjjMI7jS9F6pyUo59YZx6Mj56yi1NJSXKRl-2RD2hwRytzGV5FlWwb4kJ2C5RQ", "name": "Stationen Scen Och Konst", "lat": 59.57753200000000, "lon": 17.51322100000000, "team_id": 1, "available_slots": 0, "bs": 0, "bc": 0, "rs": 0, "rc": 0, "ys": 0, "yc": 0},{"id": "420a14d0397a4675af9460d47ab634a4.16", "url": "https://lh3.googleusercontent.com/nrp9hL9Po8HBDKxoZ941YMgWIX05KY19OXhfWAd-fX-EJdo_7fkmIr9AIt1F4eXszdnJ-QTZLeqtskpJlTV1D9Y_xGs", "name": "Panorama över Hjälstaviken", "lat": 59.66121200000000, "lon": 17.39466400000000, "team_id": 1, "available_slots": 3, "bs": 0, "bc": 0, "rs": 0, "rc": 0, "ys": 0, "yc": 0},{"id": "4465aa06f4764a87ae63135de44d5867.16", "url": "https://lh3.googleusercontent.com/XxEI4a3vkSDFEHMrBZff-hvXPYiZRnLcjy9bzzn-2yKg2eH2-gxurPgwq3KiT0irLLZwy0FU0RVB0uHWrOxhcbUfzFEV", "name": "Bålsta Gästgivaregård", "lat": 59.57600400000000, "lon": 17.50671200000000, "team_id": 3, "available_slots": 4, "bs": 0, "bc": 0, "rs": 0, "rc": 0, "ys": 0, "yc": 0},{"id": "44a8b6d404f6430d97c4a3338afd8b84.16", "url": "https://lh3.googleusercontent.com/cg41WJKXqgiDaXfErij4e_7kr-zUZdiceR4pbVHtRhmJZnqKFjNxzWkGyXTdadQ5oVwEfMmaQBAnfh8O1LU9LGOqH34o", "name": "Jordbruket", "lat": 59.66277100000000, "lon": 17.48616600000000, "team_id": 3, "available_slots": 5, "bs": 0, "bc": 0, "rs": 0, "rc": 0, "ys": 0, "yc": 0},{"id": "478ee6543578448a98b6c9ec95fa49b9.16", "url": "https://lh3.googleusercontent.com/XzRvQ5EHAqivU8En49Uypbqqh_o1nIvY19WLYHtXj3nWLneJZmB2CPiCVkWfvSJwPx7AOe7x7hecKZFBmERu9xADeRO-", "name": "Parkleken Vid Dalvägen", "lat": 59.57077800000000, "lon": 17.51669900000000, "team_id": 1, "available_slots": 0, "bs": 0, "bc": 0, "rs": 0, "rc": 0, "ys": 0, "yc": 0},{"id": "487f259270974512b4b8bc122d961c5c.16", "url": "https://lh3.googleusercontent.com/hXG7S1UHbV5-EA9duqdBXDS0v9hnNCG6sx4C7K5HkMessY0Vww30GUUsvbDhaRq_pWxxW0w25JLNTr_twwzCTfOKnNg", "name": "Transformatortorn", "lat": 59.55257000000000, "lon": 17.50801000000000, "team_id": 3, "available_slots": 4, "bs": 0, "bc": 0, "rs": 0, "rc": 0, "ys": 0, "yc": 0},{"id": "4a2bcd5296a54cbdb2a9c98466ce2fd2.16", "url": "https://lh3.googleusercontent.com/1bVWXVSHQkcrzRNTWlRSVQOLaVaAra7O58O64WQDis65feAZWBVBcqQTXYmxeROwNWAfZR0XnnSrVLIcawRCtJ9Agw", "name": "Kalmar Kyrka", "lat": 59.54057500000000, "lon": 17.52207400000000, "team_id": 1, "available_slots": 4, "bs": 0, "bc": 0, "rs": 0, "rc": 0, "ys": 0, "yc": 0},{"id": "4b73cde182274648b0cfa36a889e2aa5.16", "url": "http://lh3.googleusercontent.com/6dZ5bU6cBkoY3pLrxzKlO0o_xOD9I9YnsVVeiPU1fKyuh4l7RseEa0DousJ8iWb3e8u7TOSE50GnaNuQUrQw4RW0lPw", "name": "Bålsta Tennishall", "lat": 59.57790700000000, "lon": 17.51456100000000, "team_id": 1, "available_slots": 4, "bs": 0, "bc": 0, "rs": 0, "rc": 0, "ys": 0, "yc": 0},{"id": "4bd9a99f5ac541bd8d4f9bd3f7f5ca89.16", "url": "https://lh3.googleusercontent.com/B4ZU3QllpLm0XT4Wp252mtrOuFKvdQY4QuQP9q3BXSEDQHOIAL-_WJUbzBNafZE8LoFGip6SdB4FoxlKkzcbCeD7rdti", "name": "Dansbanan På Knarrbacken", "lat": 59.54993200000000, "lon": 17.51820500000000, "team_id": 3, "available_slots": 2, "bs": 0, "bc": 0, "rs": 0, "rc": 0, "ys": 0, "yc": 0},{"id": "4c011e82904946c9b10f379446cef743.16", "url": "https://lh3.googleusercontent.com/nkMd5ofr7WJpljgMtgOJFDsfpAIhHE-GhIYlxqju4aAY0R8az7Rbr2b7k0v9Fym8vqGTxEKeEfmysPneSNvB_OV_8NI", "name": "Bålsta Pendeltågsstation", "lat": 59.56831400000000, "lon": 17.53382900000000, "team_id": 3, "available_slots": 3, "bs": 0, "bc": 0, "rs": 0, "rc": 0, "ys": 0, "yc": 0},{"id": "4ca0df69c40a3286be0e78d8359cf8be.16", "url": "https://lh3.googleusercontent.com/ucp9ypxidUzvNEH-59Kg6pW7mtLJF4gQFtvweagbDbnwl0pK6FMVjHOpc5Ll66_VKLulbkfKl4AfP3MorKBVrv_w0X71g6qIO0-gaBPn", "name": "Värdefulla sandmiljöer", "lat": 59.56716600000000, "lon": 17.55431000000000, "team_id": 1, "available_slots": 0, "bs": 0, "bc": 0, "rs": 0, "rc": 0, "ys": 0, "yc": 0},{"id": "58d7cada65bd376997c8771559702bd1.16", "url": "https://lh3.googleusercontent.com/Q8Ewix011BPs9mRWAIci9sJwTD0_-k98RVXTCAu7lDVHK0aVdQ-7VZshBbEZGuqygtHDATTLq7DIJn4rWF3JSZ1t3VyTxMwjZTxkbVM", "name": "Håbo Atletklubb", "lat": 59.54670900000000, "lon": 17.52454700000000, "team_id": 1, "available_slots": 0, "bs": 0, "bc": 0, "rs": 0, "rc": 0, "ys": 0, "yc": 0},{"id": "5a51c5231d504e7fa965e8801c1eac39.16", "url": "https://lh3.googleusercontent.com/MtGw08fnnMVvdzGBb1ZL3QXSx7D0iMrbCX0n6vnyg_6mEDRgE5hVPlpwwKuhECnNCRMpXtRy9PDCdUbNhQGz3CTRgPo", "name": "Kvarnhjulsbordet", "lat": 59.66204000000000, "lon": 17.48869800000000, "team_id": 1, "available_slots": 5, "bs": 0, "bc": 0, "rs": 0, "rc": 0, "ys": 0, "yc": 0},{"id": "62486e12a18e376ca91b8261bc711a56.16", "url": "https://lh3.googleusercontent.com/Ku-EXqq6Zqc5T4axwrhyMrmhMpuR-pm4kWnQmmbKldlUmFXQDJ-Fr09zSLZwc-Ka6DUAEHCToVUaMdjbkXa_kLalCk8Ocot9PL34OSGo", "name": "grillen", "lat": 59.57427400000000, "lon": 17.48761800000000, "team_id": 3, "available_slots": 5, "bs": 0, "bc": 0, "rs": 0, "rc": 0, "ys": 0, "yc": 0},{"id": "6322bf26ce544aaf87d25b4b85f50647.16", "url": "https://lh3.googleusercontent.com/z7F9DohjQDvMSlbxulip9texIUIo_YLLeslLejHoBALJVkJC9GgxOmO7IWzJkPWzmOTqYcwRfrbMoI0BsYt0yv9tUxA", "name": "Dansande Damen", "lat": 59.55337600000000, "lon": 17.53203800000000, "team_id": 3, "available_slots": 5, "bs": 0, "bc": 0, "rs": 0, "rc": 0, "ys": 0, "yc": 0},{"id": "638cf876ea0d4feb891e68e2680ac577.16", "url": "https://lh3.googleusercontent.com/kWAj35YyQmgIvYE1cwvX_8Rv8oSInY_Gb11lyp9k_9eOKxvspE4joPu5QCLCU4RI7JeppeTx3I8rjCAu4LyVAu709w", "name": "Välkommen Till Skohalvön", "lat": 59.70576000000000, "lon": 17.62246900000000, "team_id": 3, "available_slots": 4, "bs": 0, "bc": 0, "rs": 0, "rc": 0, "ys": 0, "yc": 0},{"id": "656e81affad049fba284708bdfa1f062.16", "url": "https://lh3.googleusercontent.com/bb1TkS7wrYgWoQTCWlteJK86TQIuOsgD6CEC6VtlsehRk4hrJNfmYIu4rG-LPluBCSOvDT0Nxl84hnO9QqV3uQcNiwak", "name": "Runstenen Vid Vägskälet", "lat": 59.55369400000000, "lon": 17.49325900000000, "team_id": 1, "available_slots": 2, "bs": 0, "bc": 0, "rs": 0, "rc": 0, "ys": 0, "yc": 0},{"id": "65ed945f3ea74e4abcfce5b61e5da2f0.16", "url": "https://lh3.googleusercontent.com/VYIS6X0kaGLRv6xDb4NoZcrYbtUoMLeNfcbgo_5iIpQ7UtCoGrhxfupTtMAAoFwazSYRDwqxb-i55Z3G9JWM4kRlvOc", "name": "Sandviksåsens Naturreservat", "lat": 59.66371900000000, "lon": 17.52249600000000, "team_id": 2, "available_slots": 3, "bs": 0, "bc": 0, "rs": 0, "rc": 0, "ys": 0, "yc": 0},{"id": "68795b73ffbd4360a64bbcfcf585973b.16", "url": "https://lh3.googleusercontent.com/9MZR8zr1NFJ-UXAfr4xEQaVjlXJVGnG5c3_UdJiT3Gn93RiyXcuj5wVA7-d1DQztwD3bC2O2H79UnxTmyQ5mfEel6Q", "name": "Vindflöjelmusen", "lat": 59.55809700000000, "lon": 17.52008700000000, "team_id": 2, "available_slots": 4, "bs": 0, "bc": 0, "rs": 0, "rc": 0, "ys": 0, "yc": 0},{"id": "6a0762461ed039fb8136e596e325f1ac.16", "url": "https://lh3.googleusercontent.com/YPJKYKX4BPh1GpMRS8JOdnSNHUZniVK4W2DDT31zlASbbaVgJFqALQK5h5KXyi-HdV7G0heR-Q0NTC7z-A6zl7IhZJiKD9oLdVsp-XM", "name": "Vilobänk längs Upplandsleden", "lat": 59.69958100000000, "lon": 17.60790600000000, "team_id": 2, "available_slots": 4, "bs": 0, "bc": 0, "rs": 0, "rc": 0, "ys": 0, "yc": 0},{"id": "6a937a3ecd253efa8651d6668e4aac28.16", "url": "https://lh3.googleusercontent.com/oB7UFpEREZ82-GR8wgC32KZyDQOuS0LsonH9SWzJgw18Acec6bdmqHW4e6arLt9XbLq5t_E-iMjI0OKxzs1nwMW6fXMfFPgwNKSvOXp3gw", "name": "Med fötterna i backen.", "lat": 59.55754800000000, "lon": 17.49335100000000, "team_id": 2, "available_slots": 3, "bs": 0, "bc": 0, "rs": 0, "rc": 0, "ys": 0, "yc": 0},{"id": "6c19e0e9f8924a87bbb609600bbfd02a.16", "url": "https://lh3.googleusercontent.com/cy2vRfFHJp-SCI4rLjKkPcWJ5Lp_AY1WkTTcTBBeCzwXidfn9Lqm05C-MDVxFZflgiXmLb_iK8viqp9I3IHuRjYWrA", "name": "Äppeltanten Sign", "lat": 59.56971300000000, "lon": 17.52856200000000, "team_id": 1, "available_slots": 0, "bs": 0, "bc": 0, "rs": 0, "rc": 0, "ys": 0, "yc": 0},{"id": "6c3ba9c1bd704150a27e2fa6666ea035.16", "url": "https://lh3.googleusercontent.com/KKzHXTF4-PZAdDEOyHkfa_DIgeQrkaj7ZbEcWiH1sOjqHiA9cll16d4-YByDPpPMSSJFOx7sS3HjsUxheGMslzi3og", "name": "Flasta Och Sko", "lat": 59.70831600000000, "lon": 17.60790800000000, "team_id": 1, "available_slots": 0, "bs": 0, "bc": 0, "rs": 0, "rc": 0, "ys": 0, "yc": 0},{"id": "6cdaf2c51ca7428db9eaefc265ac100f.16", "url": "https://lh3.googleusercontent.com/J0mzWX_8bK-mco-7YLnloUTexjRWanpoiyrh5MLBO7G3Jku5ApXgwCkCY278pRxw22o2wDOXvLUN1vqM8r6I-tOcSgGu", "name": "Idealbyn/slottsskogen", "lat": 59.68559400000000, "lon": 17.60428100000000, "team_id": 1, "available_slots": 0, "bs": 0, "bc": 0, "rs": 0, "rc": 0, "ys": 0, "yc": 0},{"id": "6cdbe41365b44763be8899c53a499919.16", "url": "https://lh3.googleusercontent.com/UhmEUxdu4wJdVluZ_1db9oeQa8Ef-3JVNZMiJqM93aS150mbbyH3jB8NygsYMKGQ6SQboMhthjVcS1BJzpKCNFtE7rY", "name": "Royal Mounted Guard Assembly Point", "lat": 59.57992900000000, "lon": 17.50943400000000, "team_id": 1, "available_slots": 0, "bs": 0, "bc": 0, "rs": 0, "rc": 0, "ys": 0, "yc": 0},{"id": "6fd2c7b68ac0463c93153c76b5c70409.16", "url": "http://lh3.googleusercontent.com/lgI2FBrkQWUbskzbMOBBcYBaizxNWoMhlnUDnB3Xqgxtyg9zhCxzYYOLccPUnBtEFwRInNZWmn0REzHXBu0IQ5M_JynC", "name": "Bålsta Konstgräsplan", "lat": 59.56326700000000, "lon": 17.52312500000000, "team_id": 3, "available_slots": 5, "bs": 0, "bc": 0, "rs": 0, "rc": 0, "ys": 0, "yc": 0},{"id": "74baa306dff947bb9e153963ff7e0cd4.16", "url": "https://lh3.googleusercontent.com/KpFVC-9i36dXAqsLCvp0Zn_XucZWUlEXG77KYTOqYMLa6hlm7T889yDWwYaXH17LA32X7dea_68e4sG9_78UZoL8iVQ", "name": "Skulpturer", "lat": 59.56511100000000, "lon": 17.53140400000000, "team_id": 2, "available_slots": 4, "bs": 0, "bc": 0, "rs": 0, "rc": 0, "ys": 0, "yc": 0},{"id": "76edb454f2eb33f18e412b915e506c1b.16", "url": "https://lh3.googleusercontent.com/t69tN-OfWbzfnrNrtEpFzlgJum8s7s6jZwzwpiRLXtS64vCozOZdhVHAlWljDp7ciwqB77BixqzGONH3WXAp3J6AGoFHbNPUPRW6IfHwTg", "name": "Välkommen till Dragets företagsområde", "lat": 59.56237000000000, "lon": 17.55465800000000, "team_id": 1, "available_slots": 0, "bs": 0, "bc": 0, "rs": 0, "rc": 0, "ys": 0, "yc": 0},{"id": "7d4985ee7431458386925c020f2b9c36.16", "url": "https://lh3.googleusercontent.com/j4I0atRkYpmCUBMLq7J6aRFLUf9OxGx8_V1PRkEKPNQiVucjYGR2zbT9b6LokWR-XMoNbDbDnKsJurTLtoTa2UQeasuJK63BlhjnaLbH", "name": "Fönsterhjärta", "lat": 59.68274900000000, "lon": 17.61195000000000, "team_id": 3, "available_slots": 4, "bs": 0, "bc": 0, "rs": 0, "rc": 0, "ys": 0, "yc": 0},{"id": "80c16e5a37fc47a48c005cdcd39844a8.16", "url": "http://lh3.googleusercontent.com/xZQ87EMJ9Dq166-USpzhEb33vByCQT2AVKBmhMiZT2w8HkZuxBkyU-ejzXf-JShRWrprkeE1RnuANwDst8vus0g_L8M", "name": "Björkvallen Idrottsplats", "lat": 59.57500800000000, "lon": 17.51251400000000, "team_id": 3, "available_slots": 5, "bs": 0, "bc": 0, "rs": 0, "rc": 0, "ys": 0, "yc": 0},{"id": "80e8f660ca2b495fa2f91c9e8356a8d2.16", "url": "https://lh3.googleusercontent.com/topoCqGkdtbO7vJUZGZLc9qhVLPm-UyK8YZIMmKAjRQv__yktD8bayQjU7r2rMa_XetzkcIeD5hc5b1Vo-nB5yKDay55", "name": "Granåsen Naturreservat", "lat": 59.59433100000000, "lon": 17.51405500000000, "team_id": 2, "available_slots": 4, "bs": 0, "bc": 0, "rs": 0, "rc": 0, "ys": 0, "yc": 0},{"id": "89b8133310e947e7bdb911dba3c1b480.16", "url": "http://lh3.googleusercontent.com/fLN_iWnjOPOgGlrkkG4a2CGCmHx7ZlsaQK6MP0Kdzikx6TXXrrVFG8YPW4ulddBdwBW9iQGm6PVQdFwEuhzukZnKxx4", "name": "Åsen Boule Och Tennispark", "lat": 59.57544500000000, "lon": 17.53229100000000, "team_id": 3, "available_slots": 1, "bs": 0, "bc": 0, "rs": 0, "rc": 0, "ys": 0, "yc": 0},{"id": "8ef1cd0adb054f06b5b266460b01c4e8.16", "url": "http://lh3.googleusercontent.com/EAJXj2YEzFN3TYfVfTXuleTBOen8jTeD6eIqRK7KlYo3hsJji5b9Dr-L4Db1E9NnzPBjIUHezyxiGgIDABcJAyq-9d4", "name": "Liten lekplats vid Ordets väg", "lat": 59.55744300000000, "lon": 17.50660500000000, "team_id": 2, "available_slots": 5, "bs": 0, "bc": 0, "rs": 0, "rc": 0, "ys": 0, "yc": 0},{"id": "900e7b3c1c074ddf8d526a63aba6e075.16", "url": "https://lh3.googleusercontent.com/iadAJxF0ut21rKfAdMaP26uuwVsN9TQEdXzrH21_ds-lHjqwYFZ-j5C_H_aWO71gopOsGV5qu9BUkCPESWD64v3JHA", "name": "The Windmill", "lat": 59.56088800000000, "lon": 17.54801800000000, "team_id": 3, "available_slots": 0, "bs": 0, "bc": 0, "rs": 0, "rc": 0, "ys": 0, "yc": 0},{"id": "9059732f25ce468296f360a25eef5dc1.16", "url": "https://lh3.googleusercontent.com/XcGZX82JRvaDRmxSaKnsz81LCTB_vWS4DPmC2EMI0lK7j3PRX7eJTM_WZNTdbEY0KeJ9BmW1fQ-2On2RBIOfr-ztmtc", "name": "Vanligare bergarterna", "lat": 59.59506500000000, "lon": 17.51730800000000, "team_id": 1, "available_slots": 1, "bs": 0, "bc": 0, "rs": 0, "rc": 0, "ys": 0, "yc": 0},{"id": "9125cfc2b9254c2bae0954e5ab64cf37.16", "url": "http://lh3.googleusercontent.com/VuKOWh_fZuY5a_am4mOw3CSdwHZpPL-LdQLx74rSKsD9YiJJaKHg9eYD6vPF7xlNlTeTygcFWzW_Gn-abquVq-s5kQo", "name": "Lekplats vid vattnet", "lat": 59.67651200000000, "lon": 17.60649500000000, "team_id": 3, "available_slots": 5, "bs": 0, "bc": 0, "rs": 0, "rc": 0, "ys": 0, "yc": 0},{"id": "91e036002c5b4c7498910ec44882ff7d.16", "url": "https://lh3.googleusercontent.com/3Fm_SIyLyBJzGhrx2MyKkoz_zzYXgFF9GKzbMRr0BR8YUghcDEsBhswbSl7ThG4fVkaqQaO5mfFo2z_3hg4DytEKnto", "name": "Hjälstavikens Naturreservat", "lat": 59.65518500000000, "lon": 17.40504100000000, "team_id": 1, "available_slots": 5, "bs": 0, "bc": 0, "rs": 0, "rc": 0, "ys": 0, "yc": 0},{"id": "925ee78634374e85a5ea3933a9c4a44f.16", "url": "https://lh3.googleusercontent.com/6Bu9ShwGejvg4MiYKmUNssL1-WaQHkG_bUYY_IQZXDjWad_df55_hH_ykqM46l92waSrHe9u6K-Ekg6jzksg2q4F35Y", "name": "Stig-Helmer Statue", "lat": 59.56683800000000, "lon": 17.53037200000000, "team_id": 1, "available_slots": 0, "bs": 0, "bc": 0, "rs": 0, "rc": 0, "ys": 0, "yc": 0},{"id": "94ca0348b0724daa829871bca808b703.16", "url": "https://lh3.googleusercontent.com/3ZZlc0Q7qB744EDdD5AB3rGASUtfClPc3Jaby3rcJ3iCtTzhv9YRC6Qn4HWViOcehE0i3rGMI6MiZhnj5N782G1bFQ", "name": "Finlands Självständighet", "lat": 59.56764300000000, "lon": 17.52177900000000, "team_id": 3, "available_slots": 0, "bs": 0, "bc": 0, "rs": 0, "rc": 0, "ys": 0, "yc": 0},{"id": "976da7053f254fe89f41134d4762cb60.16", "url": "https://lh3.googleusercontent.com/cUh-wMK0h2YS2zm80HOtVcWM2qnS5WWAhI8iRuifc_aAmbYcwyTUC23bgAfBNjMFH-4WqoEFJd4MirgRJk2RCokcyg", "name": "Viksjö Häggeby Socken Runinskrift", "lat": 59.66962400000000, "lon": 17.54542900000000, "team_id": 1, "available_slots": 1, "bs": 0, "bc": 0, "rs": 0, "rc": 0, "ys": 0, "yc": 0},{"id": "9a27844d3925428ca2fdf20057df2f76.16", "url": "https://lh3.googleusercontent.com/3EEI3s8Md8LGdc6Iy51aV4oqS-Apajy2btCu_Wibr9W_o94h3WKFQZjaP9e_jDF3k4hnUZWD3vOzFkR8Dllh6VcDLm9A", "name": "Välkommen till Skoklosters Slott", "lat": 59.70535700000000, "lon": 17.62254800000000, "team_id": 3, "available_slots": 3, "bs": 0, "bc": 0, "rs": 0, "rc": 0, "ys": 0, "yc": 0},{"id": "9c24c5b81948432cb577e79f638f8541.16", "url": "https://lh3.googleusercontent.com/nKRT4k0RCspBO31agxUhoNdCuYAFL8UyR6E4Wl3bN4WQQkx-z0_H7YnwhZuGBl6Ft3IaroS_w3VJ8Bd7YjMpMbbGAYI", "name": "Minnessten Magnus Brahe", "lat": 59.70397700000000, "lon": 17.61782900000000, "team_id": 1, "available_slots": 4, "bs": 0, "bc": 0, "rs": 0, "rc": 0, "ys": 0, "yc": 0},{"id": "9d7ee2449b70499c80e5c64687cfcbaa.16", "url": "http://lh3.googleusercontent.com/Juxqeun9iz0zA-sh05n2ia6r3daq7I8hUgi8foIMPq5LnGLspPhw_Rd4-4JUngy-dw4aktt9pq3ucqDSjkEmBCfcKg", "name": "Frösundaviks Aktivitetspark", "lat": 59.54053800000000, "lon": 17.52659200000000, "team_id": 0, "available_slots": 6, "bs": 0, "bc": 0, "rs": 0, "rc": 0, "ys": 0, "yc": 0},{"id": "9f52af2946864e09a07eafcf7712bd65.16", "url": "https://lh3.googleusercontent.com/LESSTG9CALwiDgXBdFB7wvlF0Kfx4Hxc1VI1WN1rWPerNcCoqPVDFz_ifHHJYF-vnlyE7kTH88eS18nu1Idn-3wekIg", "name": "Välkommen Till Ekolskrog", "lat": 59.62130500000000, "lon": 17.38999600000000, "team_id": 1, "available_slots": 1, "bs": 0, "bc": 0, "rs": 0, "rc": 0, "ys": 0, "yc": 0},{"id": "a0b42f7b6fe5495aa42ab40c5a8b13eb.16", "url": "http://lh3.googleusercontent.com/KfSleOdqLHu9iL0MCsJmUqJ0VmhjpEuETxPptD12V21r2vyup6MIQ-xoaT4zEV4jzMhqAZ7BAmxGvTDYexvg0z795JM7", "name": "Skeppsparkens Fotbollsplan", "lat": 59.56202400000000, "lon": 17.53498400000000, "team_id": 1, "available_slots": 5, "bs": 0, "bc": 0, "rs": 0, "rc": 0, "ys": 0, "yc": 0},{"id": "a1ebc0d354a148449723f7844a7874cf.16", "url": "https://lh3.googleusercontent.com/Z8fjVHxm4AMzm9LIa1VLuZySBrTsMb8dYDXTcXT7NSJ6VVyzf1lKsgishT-HiT5oJfmUugp-4Tjce7ykxwqvgpeIX3-b", "name": "Åbergs Fontän", "lat": 59.55827900000000, "lon": 17.52033700000000, "team_id": 1, "available_slots": 0, "bs": 0, "bc": 0, "rs": 0, "rc": 0, "ys": 0, "yc": 0},{"id": "a22f3844c0e140b9bbe8d1455666d68b.16", "url": "https://lh3.googleusercontent.com/q2QxPBLRtItMy-RPPk-RZ6LdFuJaVCNRnynf7h43SWISBNNEfYwWUo8gtDLe8GCTqOCLIcpyIXBsZQRgJYTa99RmWXgT", "name": "Skogsbranden På Granåsen", "lat": 59.59281300000000, "lon": 17.51709400000000, "team_id": 0, "available_slots": 6, "bs": 0, "bc": 0, "rs": 0, "rc": 0, "ys": 0, "yc": 0},{"id": "a8fc54f2db384ab48c00229e410c3112.16", "url": "http://lh3.googleusercontent.com/UXqVsIQjGW55ClgbiXOksa7Fbtt9fMdPpt22H_K6flNJJwI7Tcbq3FUdqLuMOocNm4WP042B444kVdekF1zFpL4g9QY", "name": "Mörtvägens Parklek", "lat": 59.53686100000000, "lon": 17.49776600000000, "team_id": 1, "available_slots": 5, "bs": 0, "bc": 0, "rs": 0, "rc": 0, "ys": 0, "yc": 0},{"id": "aa56c878bccd4c4c8031b7c6828131d0.16", "url": "https://lh3.googleusercontent.com/jkbQDk6AJMFdSguPGeJOUecNPaMEGg9vw0jekG5z84WbPdZ0nj4pP4gSxl0rECF-pOPyvhUrWwU71qlUOkLwOIzlPk0", "name": "Lasse-Maja Church Door", "lat": 59.60198800000000, "lon": 17.50668400000000, "team_id": 3, "available_slots": 5, "bs": 0, "bc": 0, "rs": 0, "rc": 0, "ys": 0, "yc": 0},{"id": "ab611e8e08e0452e8b46798ecb51bbd7.16", "url": "https://lh3.googleusercontent.com/Fmysio3CHDIAfxVwbDrISEo-ERqCRBQtrwQ5yLgujnJoBN4CPrv-bXQgmNextgUirT4PMyQhZaW4ac2Hit5DFVdW2Q", "name": "Gravfältet I Eneby", "lat": 59.56394800000000, "lon": 17.50015200000000, "team_id": 3, "available_slots": 3, "bs": 0, "bc": 0, "rs": 0, "rc": 0, "ys": 0, "yc": 0},{"id": "b0061b834bb0442baa8b78b52173105e.16", "url": "https://lh3.googleusercontent.com/oHqb2hp3dGoBfd80pviG2mlJcqXlA4X06IukASaroPqlnScjEAzNygzIdcv8KK9eV6_W_YaJht1_NuoVzUC7YHtF_74", "name": "Åkerbergs Kvarn Sign", "lat": 59.57599900000000, "lon": 17.51503900000000, "team_id": 3, "available_slots": 0, "bs": 0, "bc": 0, "rs": 0, "rc": 0, "ys": 0, "yc": 0},{"id": "b22a06e48b474c078585b815cd2ec427.16", "url": "https://lh3.googleusercontent.com/HPBXnIGS_BGPe1yo3HBan6ktbX9yR_z8h6F4GsdsmQPAHVipFr_AT-T_TfdXlwBiJO4s9bvfgNO_gFzGY8-ZyRjCuA", "name": "Gamla Häktet", "lat": 59.58043600000000, "lon": 17.51014100000000, "team_id": 3, "available_slots": 0, "bs": 0, "bc": 0, "rs": 0, "rc": 0, "ys": 0, "yc": 0},{"id": "b371a5368f11494cbaad9d3e25683013.16", "url": "https://lh3.googleusercontent.com/p9lJ6pHF_HRx1Lbd5lp5q1XpOHXN3VxQyy9yoi0a3dUvaL4wd9pqGxcWpS4zYvWLRQhfnxp0hQ2pSsjAG8NizimJ9xo", "name": "Eklöv på fasad", "lat": 59.55969600000000, "lon": 17.54966300000000, "team_id": 2, "available_slots": 0, "bs": 0, "bc": 0, "rs": 0, "rc": 0, "ys": 0, "yc": 0},{"id": "b584e176f1224226bd996ef167ba2d77.16", "url": "https://lh3.googleusercontent.com/y4JWgn7q51fUF8TF6vYLV7cqG2tGTG5Km0kGvvu6ja-v0qsYncl9zAQIOGXCOIYd54SEJR98l1BSxNUsyZX0lBUoEU0", "name": "Brinnande Väktare", "lat": 59.58091300000000, "lon": 17.49143200000000, "team_id": 1, "available_slots": 1, "bs": 0, "bc": 0, "rs": 0, "rc": 0, "ys": 0, "yc": 0},{"id": "b6e6629323014c28a49eb04d141b4680.16", "url": "http://lh3.googleusercontent.com/1IWLMaMiYePr1Mqu6uwfRgSnXirBnw21rPBQ0CR3j7ruX-8KymYY4LPx6h4h5PKtJ1vQEz7M5eQo_7suL4PUZxv8BTA", "name": "Aktivitetspark I Västerängen", "lat": 59.56936700000000, "lon": 17.51520700000000, "team_id": 1, "available_slots": 5, "bs": 0, "bc": 0, "rs": 0, "rc": 0, "ys": 0, "yc": 0},{"id": "b7d70c85ce5c4506ab02b0f4e7474f0e.16", "url": "https://lh3.googleusercontent.com/ooVxRG7viCltA4XFW2P7r8Coars3sS_VtqQUbluFlk4-ple8br2VB8Wz5aCLtIUbKgSL9R-wFZxeJrXC5-696zVytOFO", "name": "Vägmärke Skegarn 1130", "lat": 59.67341700000000, "lon": 17.49436900000000, "team_id": 1, "available_slots": 5, "bs": 0, "bc": 0, "rs": 0, "rc": 0, "ys": 0, "yc": 0},{"id": "bb1e90636add4892a0283cbfbf6dbf2c.16", "url": "https://lh3.googleusercontent.com/-dU3HY68iAbuqOeSql6UkunZWkFJiNlwW72gC3SnYUxwRk2mf_JNZkbaAPuI6OgwA_lAoL6Cg9g4uOR0FudQc3YW075m", "name": "Sånkan Rune Stone", "lat": 59.70674800000000, "lon": 17.53807300000000, "team_id": 1, "available_slots": 2, "bs": 0, "bc": 0, "rs": 0, "rc": 0, "ys": 0, "yc": 0},{"id": "c2eb2653f0b14566a2729f9c0182a291.16", "url": "https://lh3.googleusercontent.com/7502u4BYeXonzVzkgu-AH5ZaId8wU8VN1V2EDaUIKPegfZ_alXjyFoNmjSE0DHduhZ8XiZIBPgneA6C-2OmsdP7SJw", "name": "Runsten", "lat": 59.70479200000000, "lon": 17.62400000000000, "team_id": 2, "available_slots": 3, "bs": 0, "bc": 0, "rs": 0, "rc": 0, "ys": 0, "yc": 0},{"id": "d0286d580c9b4fca95381c56eadbe64c.16", "url": "https://lh3.googleusercontent.com/U5az3ED4X_LX_ml6X6a_K4ECQzfw89zYw1GpJnb9FuoUmFBVWz2YcKo8jPuetOKAPY__WAytAkftheuQ5N-ssFbjGPws", "name": "Pizzaparken", "lat": 59.56080900000000, "lon": 17.54047700000000, "team_id": 2, "available_slots": 2, "bs": 0, "bc": 0, "rs": 0, "rc": 0, "ys": 0, "yc": 0},{"id": "d0d65652818046d8856333b8a2f85e9f.16", "url": "https://lh3.googleusercontent.com/me-U4XRtZJGLLvKys97Yu60gFfkfMeZz9C_LPYbRP3Y5BzD5i9LL_ZPz4zZj16Naf6bSHeLUgxpIbbdsTFfYgD-20w", "name": "Tornet i Söderskogen", "lat": 59.67673100000000, "lon": 17.58759400000000, "team_id": 2, "available_slots": 4, "bs": 0, "bc": 0, "rs": 0, "rc": 0, "ys": 0, "yc": 0},{"id": "d1538f56e86f436da868095a7cd72af6.16", "url": "https://lh3.googleusercontent.com/yt69WjErIM8dKNTiwJnW5BtWXkSEA_UnVansIz0IYHAMcC2RfxC4N69ZNqUUql5QQtBmujhWvkfOP7MguGny5ZdpfA", "name": "Torpvägens Parklek", "lat": 59.53903800000000, "lon": 17.50504600000000, "team_id": 2, "available_slots": 5, "bs": 0, "bc": 0, "rs": 0, "rc": 0, "ys": 0, "yc": 0},{"id": "d1665fb85b85440687299a1013548ea9.16", "url": "https://lh3.googleusercontent.com/mW80ai7sNRsMbAZpFs_TrukW_Ckw2prOIXcegrPPGSZoyZe89pdWzT-87x3Xc1RC0vIks36OE5I7eERvSvKwZwPQEA", "name": "Parkleken Vid Abborrvägen", "lat": 59.54039900000000, "lon": 17.50034800000000, "team_id": 3, "available_slots": 4, "bs": 0, "bc": 0, "rs": 0, "rc": 0, "ys": 0, "yc": 0},{"id": "d2315fb2a8c741ee89ba7a9618b4d231.16", "url": "https://lh3.googleusercontent.com/2P1EULjOFVnGtIlVxn3rXof92UPULEJNZuhxRHHBBXhQE6zcr1g4B_yzwX_26fOEQsc4h4VPxUgOy1q0HEkxtLRr_w", "name": "Övergran Runestone U648", "lat": 59.63025600000000, "lon": 17.48561200000000, "team_id": 1, "available_slots": 0, "bs": 0, "bc": 0, "rs": 0, "rc": 0, "ys": 0, "yc": 0},{"id": "d2516d83bbfe41bb9e104365d5201ea0.16", "url": "https://lh3.googleusercontent.com/LybLyImdSzYWj08GPYFFUyb3zbFZSb_wMM_uWUEABZxXJk7FxLPI_wCRGLNocmOOqYwHyGKQMfjOfMItdqFqzPIEAxs", "name": "Hjälstavikens jätteek", "lat": 59.66227800000000, "lon": 17.39347600000000, "team_id": 3, "available_slots": 4, "bs": 0, "bc": 0, "rs": 0, "rc": 0, "ys": 0, "yc": 0},{"id": "d27982f85d033c69b8ac8aff89dcf44b.16", "url": "https://lh3.googleusercontent.com/Dk4I5Zw0sszcitrE-SklBfy5bVGlTqXcJPZyCVmVn9ksAzX-mnhxTscTbsVy-XInBRyoo29Kb-meLu1UAF54oEpMbJ5ym_d2kIUavnyU", "name": "Slottsbadets Grillplats", "lat": 59.68832400000000, "lon": 17.62186500000000, "team_id": 0, "available_slots": 6, "bs": 0, "bc": 0, "rs": 0, "rc": 0, "ys": 0, "yc": 0},{"id": "d7c3f4dae2a0414996efbe1e902f54d6.16", "url": "http://lh3.googleusercontent.com/AG-57q3IUWsNQrJd8eoqWNNE9XUikiC7CZAYV56XnJ05hNpd8Ht1fHgsOgWuurwapvP07IBzZPKy0CJF7Ztz4WWgSPQ", "name": "Snäppvägens parklek", "lat": 59.57136400000000, "lon": 17.51812000000000, "team_id": 2, "available_slots": 1, "bs": 0, "bc": 0, "rs": 0, "rc": 0, "ys": 0, "yc": 0},{"id": "da22913bde50488d9539413d3a6a48b4.16", "url": "https://lh3.googleusercontent.com/HAJLXeAv41lmc8_xpzfe_T3SdubB6KGj_O-MULIuGt93VMVFj4SlXfT5BbD7RwyqrMl0ZBz7f61z3diejfjXez6jAQ", "name": "Håbo Kommun Board", "lat": 59.58518100000000, "lon": 17.50494100000000, "team_id": 1, "available_slots": 5, "bs": 0, "bc": 0, "rs": 0, "rc": 0, "ys": 0, "yc": 0},{"id": "db519f2413b34f81a5417513dc0e0a15.16", "url": "https://lh3.googleusercontent.com/fHqEQrmpIeTL8No1WyZgylbMx83vLehBjgGReR8WZofsnOY-2Q6GjbaNHCR2U03YN5Gy_Rz5Gd1c4yv8jxq4GF2o9g", "name": "3000 meter", "lat": 59.66609000000000, "lon": 17.50334400000000, "team_id": 3, "available_slots": 5, "bs": 0, "bc": 0, "rs": 0, "rc": 0, "ys": 0, "yc": 0},{"id": "db801bb34fde40fabe4194ce4bdd1972.16", "url": "https://lh3.googleusercontent.com/PJ2u-k1PwXGjDGYLbXjyuCXDqhLT6-AaMC2O-n7z-bzy2kLvXb0xzMoN4lcpS5Fk8wVTtbwAlzGtzjkt_usCJ3M_kA", "name": "Parkleken Vid Åkerby", "lat": 59.56605000000000, "lon": 17.49209900000000, "team_id": 2, "available_slots": 5, "bs": 0, "bc": 0, "rs": 0, "rc": 0, "ys": 0, "yc": 0},{"id": "dda995125f0a4131be6a92adf318d877.16", "url": "https://lh3.googleusercontent.com/9UzPqIgfUH0HU8-u0BE5Cd83NmSLzJiibEnZGqYCKomUp1p7Ddhje6gazMAqjAEj1KSo9JDsExIyveym7XVwsej2Vkua", "name": "Kvarnkojan", "lat": 59.59517800000000, "lon": 17.51698000000000, "team_id": 1, "available_slots": 0, "bs": 0, "bc": 0, "rs": 0, "rc": 0, "ys": 0, "yc": 0},{"id": "de96a6bb73364252a17b84cd067fb2ad.16", "url": "http://lh3.googleusercontent.com/aJAJkmscWaKP2Y8KR0WCVkZdZYJmHZTWcN5r3sDY1rydOZFcVro4xTmoKgAZdjqG0-aj6-z2uVJtWvOVlcF4YH6zCQ", "name": "U672 Rölunda", "lat": 59.64574800000000, "lon": 17.53334000000000, "team_id": 3, "available_slots": 4, "bs": 0, "bc": 0, "rs": 0, "rc": 0, "ys": 0, "yc": 0},{"id": "df160d14140338f3bea7ea4276eba70c.16", "url": "https://lh3.googleusercontent.com/XFQ-5GCNSHkmQkCP0YlxIl3N3MM1m7qT6ZC2MXUdKHSpfnWKAmZ4IFig8LSBwbLYdtPM7ZufC8fEQMD-r7fwGazpEMwII1uH3GWswGBJ", "name": "Strandfotbollsplan", "lat": 59.55268700000000, "lon": 17.55297400000000, "team_id": 1, "available_slots": 5, "bs": 0, "bc": 0, "rs": 0, "rc": 0, "ys": 0, "yc": 0},{"id": "e0e386afc58443e6be636d9f5bd031cc.16", "url": "https://lh3.googleusercontent.com/uVke5BPibKGcf8ssMZ65frzlBlmgZNNTaMBeJvi25wZjxtOfIeko0NjqXdPIgMboN_qZ8aQ-X1UDe2Gwovd2o_Km0g", "name": "Välkommen Till Kalmarnäs", "lat": 59.55686600000000, "lon": 17.43853400000000, "team_id": 1, "available_slots": 5, "bs": 0, "bc": 0, "rs": 0, "rc": 0, "ys": 0, "yc": 0},{"id": "e3977d30226a442e92296168a7563fe3.16", "url": "https://lh3.googleusercontent.com/dpX6H4fQdiQAPxqY6aXizgMbTc0El-cLuxr34hTufcWeJGuxdxs5kPxWyR7Wa0Q-vHIobgZFxJgBj95vpw5nyX_Ih4m6", "name": "Välkommen till Bålsta", "lat": 59.56870200000000, "lon": 17.53240800000000, "team_id": 3, "available_slots": 5, "bs": 0, "bc": 0, "rs": 0, "rc": 0, "ys": 0, "yc": 0},{"id": "f021de93163d3503ab1dd6c745fa3b5a.16", "url": "https://lh3.googleusercontent.com/MEPchWfwr90koEsxPmNxs2-_U6vtdT3d_VbhaWPC0E5sF2u40JeLiAh3HFOcPsNrhLmrwVvu9lD41bZQClizF-VRTQ9fOd-Qq607G1v3pQ", "name": "vattunödsleden", "lat": 59.56603200000000, "lon": 17.48528600000000, "team_id": 2, "available_slots": 5, "bs": 0, "bc": 0, "rs": 0, "rc": 0, "ys": 0, "yc": 0},{"id": "f48e747247304941971b3330e5722ec2.16", "url": "https://lh3.googleusercontent.com/8rnZcgCDYOZ8A_X32RmO5TNiGU1KA1DPGnXEClgVol4M4uk-McelvCGfyJwywkG2bYGEKd8AusDK22fy3Jw0YQ4paA", "name": "Wasa II Statue", "lat": 59.55625900000000, "lon": 17.53488200000000, "team_id": 3, "available_slots": 0, "bs": 0, "bc": 0, "rs": 0, "rc": 0, "ys": 0, "yc": 0},{"id": "f4d4a5aa1835462e8e1048610de1fac0.16", "url": "https://lh3.googleusercontent.com/GvW_lB2-hUs09vn6EjWYub0ajuFvgLzjTbBXDqi9cTipxQLlXqGx8yRLfSGPpxo6vVoT_jr9HMPn60j2mRmpczMLsakL", "name": "Klostergården", "lat": 59.69022500000000, "lon": 17.61004100000000, "team_id": 2, "available_slots": 5, "bs": 0, "bc": 0, "rs": 0, "rc": 0, "ys": 0, "yc": 0},{"id": "f864099e1a374b67b15fb7c7212b0a37.16", "url": "https://lh3.googleusercontent.com/EVCxOMkcqnRyoos86nEvNwpDID3m8SfRkhz_nO-YF911RIicxfZ_vzRmr6V05-U-O1fsLSp0UrcnGErbT8QAopLZdcQR", "name": "Inre Mälarens Skärgård", "lat": 59.55924900000000, "lon": 17.44173600000000, "team_id": 3, "available_slots": 5, "bs": 0, "bc": 0, "rs": 0, "rc": 0, "ys": 0, "yc": 0},{"id": "f8cd99c0ff21427792534bb2fd742272.16", "url": "https://lh3.googleusercontent.com/o_auVZTgT412MWSiyZp0WJD2q70YjApPq1DWNqCQO7OH297MX0paD9Wjg0ltmwZ920BtIxlCd1pIEbpRoO9TEUfFp8A", "name": "Watersign", "lat": 59.56736100000000, "lon": 17.52827100000000, "team_id": 1, "available_slots": 0, "bs": 0, "bc": 0, "rs": 0, "rc": 0, "ys": 0, "yc": 0},{"id": "f94f62534e6a465c8f38263309456267.16", "url": "https://lh3.googleusercontent.com/PIVEPlUEg2qOUL8ozTwC6z-Hh7DNBqHCYyFaSiiCJv4Q-IzoEi6rk8luXFZ-XFUjRBHY89Jkyckv2YojoxHWkaoMjOY", "name": "Bålsta Bangolf", "lat": 59.56225300000000, "lon": 17.51110400000000, "team_id": 3, "available_slots": 1, "bs": 0, "bc": 0, "rs": 0, "rc": 0, "ys": 0, "yc": 0},{"id": "f9fea8b97f3b44169c91978729f36035.16", "url": "https://lh3.googleusercontent.com/Y6i8pJaHFY1Gxuul-4I6n86DY8lOqNmBeltIrHerUPV18JR4dpIIhqpVDkrd_50C3KCMEWmH8bLghfyphy5NyW_kYiA", "name": "Runstenen", "lat": 59.55572200000000, "lon": 17.49955400000000, "team_id": 3, "available_slots": 3, "bs": 0, "bc": 0, "rs": 0, "rc": 0, "ys": 0, "yc": 0},{"id": "fd7d7cc457f93be1bb1f4b7092bb53a1.16", "url": "https://lh3.googleusercontent.com/9jQDL1_lujlJVovxAHi9P3F6gZrg3fzshabRIE3H6Kn4qgNYUuOuD_DvGL5Dd0YPBxsSIW_Fg5BPGzt3VyV-3GQ5TwKFBpUwZUV0xe27", "name": "Krägga båtklubb", "lat": 59.60579100000000, "lon": 17.39300300000000, "team_id": 3, "available_slots": 4, "bs": 0, "bc": 0, "rs": 0, "rc": 0, "ys": 0, "yc": 0},{"id": "fe54201512f942479a32b89747615526.16", "url": "http://lh3.googleusercontent.com/CuEAh0cjN4NurN1v-tsrmm7tF2_w_n63Xaekl0KcT-wuWf7yyjem_qNdm1P_2dUfMrSnzzzjBUX2Hzvus3NA3KVD_Q4", "name": "Antoniuskors", "lat": 59.70442100000000, "lon": 17.62402400000000, "team_id": 3, "available_slots": 4, "bs": 0, "bc": 0, "rs": 0, "rc": 0, "ys": 0, "yc": 0},{"id": "ffd998d758ae47819991866ee51a9f16.16", "url": "http://lh3.googleusercontent.com/sOYOa2o7H-LTq2C8_erZRVnN0_noaiEFUCupjxTHfLnm1QvtMQIN3Wp0Ppq5Wmv7uZP0IsgLmxmqmhoTUB73pf0cQxE", "name": "Björksäterkyrkan", "lat": 59.56388400000000, "lon": 17.53859800000000, "team_id": 2, "available_slots": 0, "bs": 0, "bc": 0, "rs": 0, "rc": 0, "ys": 0, "yc": 0}]
