[{"id": "001175aabfaa4bac97f52c9f0eba3acb.16", "url": "https://lh3.googleusercontent.com/f7QzOzQoe5F3IzlHONYu4wZBKeMlxeQxSj7Tb_OiSzj-xT_xfVVVV9M5M3JDnHZlj3RNUQD4a710YmW-P-wx9nNvl0IbFDV1Y-U5ek84Ig", "name": "Informationstavla Tegelhagens Naturreservat", "lat": 59.41090100000000, "lon": 17.97769200000000, "team_id": 3, "available_slots": 5, "bs": 105, "bc": 37, "rs": 77, "rc": 40, "ys": 88, "yc": 27},{"id": "00c7a1007e5c4a94bd6f6f059e705c2c.16", "url": "https://lh3.googleusercontent.com/ywm6JZ0_D8BcwLXXPTX6YiqWY6OaQdf-pBZHi1dnrFagg9FPRrlUUkRD4rvJ-g7Ran4KQupyw0B6nYeio5HWEPsATyW1", "name": "Rösjöskogen/Rösjökilen", "lat": 59.45219700000000, "lon": 17.98049300000000, "team_id": 3, "available_slots": 5, "bs": 74, "bc": 84, "rs": 17, "rc": 13, "ys": 37, "yc": 80},{"id": "010411b7799f4d71beb1984d7374f99f.16", "url": "https://lh3.googleusercontent.com/HMgxzIYRRoI_JPQeVDuUB3u-SnJHxIeuYZrU6o74UQfVfrHCGIpIBZ0eoNbIn-gIVYXmcNWBDNu5K7OcM-9P0qzaj-4", "name": "Porsvägens Lekplats", "lat": 59.45798300000000, "lon": 17.94285200000000, "team_id": 3, "available_slots": 5, "bs": 63, "bc": 77, "rs": 49, "rc": 64, "ys": 48, "yc": 26},{"id": "02e03301c9dd4691bec5c3f6f0161ce3.11", "url": "https://lh3.googleusercontent.com/CC61Mskdgqhiw7Li3dVzcNBq7gB98OxbnjZEAFsnrmXY1AnHGGUSBFjvcFB7xtu6wGQ6NxFcNDIrXOMhoivldATXKfUKUQnc2wzu94pc", "name": "Stonehenge of Edsberg Plaza", "lat": 59.44556200000000, "lon": 17.96537500000000, "team_id": 2, "available_slots": 5, "bs": 16, "bc": 234, "rs": 18, "rc": 239, "ys": 9, "yc": 126},{"id": "0480f45dfec641f5bf5b40c1fc382dc9.16", "url": "https://lh3.googleusercontent.com/4Qwpo7gOPOZyJSreNYXWa9onsNWK4gFay-Y7Sii6KIx0PveE7GvoPCCfAot2AybSlc0Pui9xqfSjsunrxFVNeu1RUQ", "name": "Hamlade träd", "lat": 59.44097900000000, "lon": 17.90804700000000, "team_id": 3, "available_slots": 5, "bs": 130, "bc": 44, "rs": 93, "rc": 23, "ys": 56, "yc": 28},{"id": "0482ac9c3cea4745b9a27ce6feb78668.16", "url": "https://lh3.googleusercontent.com/ddV9UVRydFrRt13sMdIvtXIdHH2B17obzeMNfS9jakzAU86YYI_Ie-QwPKBMWUWzoH4WZayq5XuqEMXjZnfTlBWb8aY", "name": "Parkleken på Tolvmansvägen", "lat": 59.45122000000000, "lon": 17.91476200000000, "team_id": 1, "available_slots": 2, "bs": 179, "bc": 44, "rs": 25, "rc": 30, "ys": 38, "yc": 15},{"id": "05315e168de54656bc215b78ce1766d1.11", "url": "https://lh3.googleusercontent.com/yIvvTygaHiH9cy97g0sHFn2G-7eBtUPKc_uzv1Vwfrau_0fvPWEEiXfjikh77s8C3Xt6E6GRj6gwqBkod0M8j_SC", "name": "SollCPlazaClock", "lat": 59.42907600000000, "lon": 17.94964300000000, "team_id": 1, "available_slots": 0, "bs": 17, "bc": 251, "rs": 10, "rc": 199, "ys": 15, "yc": 202},{"id": "0558114668a94d499915cf0c777192b4.16", "url": "https://lh3.googleusercontent.com/xP7EC4At3-ixUWlwh-YNVwqnQvRy7iB7V4uPsFc0TliGBALRUJPjcFMLq7VikGTdvnIhm7ZHLRqNa84vG8cLxzNBPjTw", "name": "Gravfält", "lat": 59.45779500000000, "lon": 17.90656500000000, "team_id": 1, "available_slots": 2, "bs": 163, "bc": 40, "rs": 50, "rc": 24, "ys": 72, "yc": 21},{"id": "0614e254a66d48d5a496e14351cfb28d.16", "url": "https://lh3.googleusercontent.com/bGLGjvyk6ykjsyRn7TIUjqLDUA0QOZIsO8FJtmkTlSEMJpAIZaZyVd3J18fsXRG70B4DuPaRrO3CAMMyI_XWpBXZ-I8", "name": "Häggviks centrum", "lat": 59.44497900000000, "lon": 17.93285400000000, "team_id": 3, "available_slots": 2, "bs": 33, "bc": 15, "rs": 15, "rc": 19, "ys": 18, "yc": 23},{"id": "07af1f1ef2e6337f9b0ab68244debe10.16", "url": "https://lh3.googleusercontent.com/LaQ5gCtlJ-VSxL-WJG8CilvB6JH8Pa3VibeRBHcWsJtlbqsmfiUs5uHT-XT6T3rcH9ACbWdziQOwib8fEOYu2u6za9kEg78qz-pae4GO", "name": "Fäboda motionsspår ledmarkörer", "lat": 59.46009000000000, "lon": 17.87660200000000, "team_id": 0, "available_slots": 6, "bs": 0, "bc": 0, "rs": 0, "rc": 0, "ys": 0, "yc": 0},{"id": "0b7011955eae48dc9f3738179429bde2.16", "url": "https://lh3.googleusercontent.com/ZdlEG8EUgsxK8Z-MIaHX-3APZa7XvC9IThrKE91fHrjVdwjKY4n3avv3MVEo1IvqF7CFpYwD0vN3noSf7Sgu_H7zsy8", "name": "Edsviken - Tennis", "lat": 59.41537800000000, "lon": 17.98592000000000, "team_id": 1, "available_slots": 3, "bs": 70, "bc": 65, "rs": 41, "rc": 39, "ys": 49, "yc": 65},{"id": "0db1ce6ef9534cacb6ed7df365b80069.16", "url": "https://lh3.googleusercontent.com/DY4Fqyrf2cLY1U3nQQ7GJsBfqdYUTNDX2QuOSTvK6VanOX6fUa7qSIxVpGUHlMOMl9KWE5EFJagRf73R-9fWJnxMdklmmjnOGXrzUwas", "name": "Den hemliga trädgården", "lat": 59.45570100000000, "lon": 17.88938200000000, "team_id": 3, "available_slots": 4, "bs": 28, "bc": 79, "rs": 17, "rc": 96, "ys": 39, "yc": 145},{"id": "0e8fac375c714a0f9318c3d48f7f0727.16", "url": "https://lh3.googleusercontent.com/HXH1NcDsf48qL94gcW2Fg6sjDpWA_D7qU22bKTsw0xvdRdSy0VwFGF4Aqc5cwCOxFR783fFaRb0VcktQh8eY9E0lIw", "name": "Trohetsgränds lekplats", "lat": 59.48239500000000, "lon": 17.93016200000000, "team_id": 1, "available_slots": 3, "bs": 39, "bc": 144, "rs": 17, "rc": 71, "ys": 23, "yc": 120},{"id": "0ef42663abc14f20b3f6fc0412bace7e.16", "url": "https://lh3.googleusercontent.com/kIQjI_tmj39ypmVDwsF-IT1wbFHeX7kqxwPX9tjg4_Az2142xoUVMleI0TnbZIlSLIOZRIF22qicWvB_jRRykIgkSXDN3CGeofHtXSm_", "name": "Linbaneparken", "lat": 59.40089800000000, "lon": 17.99167800000000, "team_id": 3, "available_slots": 4, "bs": 32, "bc": 85, "rs": 17, "rc": 91, "ys": 43, "yc": 110},{"id": "0fbd515aff3844ee9bc6e89fb01a4e30.16", "url": "https://lh3.googleusercontent.com/ZIHJWrQ-HrYPMdH9jNwFpvFmm-LozdHeR4fUN24bGOvEM4Jj_VTTkB2M-eLUwfVqBydV474Oif-o-0F_d8d6jbNExI4", "name": "Missionskyrkan", "lat": 59.42703300000000, "lon": 17.95637400000000, "team_id": 3, "available_slots": 1, "bs": 52, "bc": 98, "rs": 32, "rc": 87, "ys": 24, "yc": 67},{"id": "10f87af6f8bd4ffaa02a4b5e3d89e5ef.16", "url": "https://lh3.googleusercontent.com/aa-xN71XtcoF0StATS_0fpfjYLZ1zuwnNlGReszm8g1YhgostgtRVD63pe-xV1LCGkISlE-qiStm9yY8L8Wi7JoUMuuK", "name": "Skansen", "lat": 59.42655100000000, "lon": 17.96615300000000, "team_id": 1, "available_slots": 0, "bs": 190, "bc": 20, "rs": 97, "rc": 8, "ys": 249, "yc": 16},{"id": "14da55b3e37249bfb8bba0c79b5b5020.16", "url": "https://lh3.googleusercontent.com/VzN14zk0fUb5M4bhLl2jE2bJNp-qtJ4KL9S6RixuyTVRqdxhYSG78Eo45dyN6hmw74F-uuYz48pZMZ7xeTmZeEVPqg", "name": "Sollentuna häradssten", "lat": 59.44425000000000, "lon": 17.89237900000000, "team_id": 0, "available_slots": 6, "bs": 82, "bc": 41, "rs": 100, "rc": 24, "ys": 70, "yc": 48},{"id": "1618378eee184ad3a3c4383b8b23d2e5.16", "url": "https://lh3.googleusercontent.com/C0PtRtxT_5jSm45C7xj-EvBy8u5O7djKiB4busmggIMIu11aXEJ9EL2K9qDHDoQMGOPIwaRLUk_eLYgYMX5PSu4dl-c", "name": "Circle Of Silence", "lat": 59.44474500000000, "lon": 17.94623800000000, "team_id": 3, "available_slots": 1, "bs": 25, "bc": 135, "rs": 28, "rc": 145, "ys": 28, "yc": 71},{"id": "161c3a2064dc4f13b0bf44ec68fdb98b.16", "url": "https://lh3.googleusercontent.com/NA9Uicq9-illQ2wQOacXPufrRRDwhDOVWgpTuCE2ikcdlLaOqZlD69oCEc3SRv1lOjFK7gcg0vnyaXGMfkvJahGMfQ", "name": "Sollentuna Slalomklubb", "lat": 59.45493600000000, "lon": 17.97232600000000, "team_id": 3, "available_slots": 5, "bs": 73, "bc": 56, "rs": 38, "rc": 28, "ys": 64, "yc": 61},{"id": "18d2566907c944368f559547bb044e6c.16", "url": "https://lh3.googleusercontent.com/ltKJqXQff4wnzlvHtflvB5Sssa8YoX-E5tz5-FJZhSPaSj8qLHd9uPwT0WYEuIfckJe-ltfLVsK-L0qYIsN5PkPZkQY", "name": "Djupan", "lat": 59.43069300000000, "lon": 17.88710000000000, "team_id": 2, "available_slots": 3, "bs": 191, "bc": 21, "rs": 110, "rc": 12, "ys": 198, "yc": 20},{"id": "18fbbb978f544d7c90f01140367f1807.16", "url": "https://lh3.googleusercontent.com/RLzc0Tf0NgM-PGXwZndJaEwywV5Pl7l5qEB0G_w1hDE4UlugRsKpjRkyACpMrzPsO95mowJZXykRpCfIt_xUUHMqVr1J", "name": "Törnskogens Lekplats", "lat": 59.46098400000000, "lon": 17.94153700000000, "team_id": 2, "available_slots": 4, "bs": 53, "bc": 103, "rs": 34, "rc": 103, "ys": 22, "yc": 26},{"id": "19e39892d33d46e58020916fb2d482a7.16", "url": "https://lh3.googleusercontent.com/K4Gs6l7qPXm3eVhnJ_zZPEbnOnW0uqVFDneaY9x8csxF8la0AZ_KrJLN5cCcU0nGvvOdqPofDhy9Nlf7dVnsgE8EDm0", "name": "Outdoor Gym", "lat": 59.44752900000000, "lon": 17.97949200000000, "team_id": 3, "available_slots": 4, "bs": 125, "bc": 44, "rs": 127, "rc": 5, "ys": 75, "yc": 44},{"id": "1a2e8c0990904e84b27a271896fb5d18.16", "url": "https://lh3.googleusercontent.com/9-XzzE2uC5hFExnSwTDHPTqDfUiNixqI87sKa6mCAFmuV3aiT7q1siodTQjQNILwErYdFglIzbIozIZDvu8NdBq5s-g", "name": "Timotejvägens lekplats", "lat": 59.48057500000000, "lon": 17.90719900000000, "team_id": 1, "available_slots": 1, "bs": 23, "bc": 265, "rs": 6, "rc": 40, "ys": 12, "yc": 247},{"id": "1b26f941092f45cc8142ac1932634a0e.16", "url": "https://lh3.googleusercontent.com/jtB9kCfoIWtVrrPGZ6C1f8UfMbykxMWXjoQJ5vrkmNUwcX5OWeIUtkM_ue5zJkWo61tYfdZFuY1_skQbnd05woc2DGen", "name": "Edsbergs Glada Gubbe", "lat": 59.44439500000000, "lon": 17.97389900000000, "team_id": 1, "available_slots": 5, "bs": 31, "bc": 164, "rs": 16, "rc": 67, "ys": 21, "yc": 156},{"id": "1c9e19270e894a6e826299b53eb50d63.16", "url": "https://lh3.googleusercontent.com/iAbXVTrUTpLNqULLhviHx3uMuqjczc9E3RVSkDqbt6aMoOIYb8rALFRWPVRTa1aAQimtc8_kgv98OOdiDoywY1Ay5EjZ", "name": "Lekplats Basunvägen", "lat": 59.46133500000000, "lon": 17.88682700000000, "team_id": 2, "available_slots": 0, "bs": 59, "bc": 76, "rs": 42, "rc": 69, "ys": 37, "yc": 52},{"id": "1d668e3c793b4dcfb0742abf585163e2.16", "url": "https://lh3.googleusercontent.com/WqiQoMHCDR6Ojn8zkTLsAlEEZ23gLsLF_laLJNLuvdThcb9a-ziLocKpLhvL_VKr2uc8EzkqTa5g-hatj2f3HfmuYK8", "name": "Helenelund Station", "lat": 59.40935700000000, "lon": 17.96200700000000, "team_id": 3, "available_slots": 0, "bs": 30, "bc": 171, "rs": 21, "rc": 135, "ys": 14, "yc": 109},{"id": "1e58d83b83af46c3acb4f18222d33b64.16", "url": "https://lh3.googleusercontent.com/nyJYvc7G9bMZFvz4ukWZTE9zPnqaUuiSIIblpMgt54bopqbhkS3eVW8b2tqMAEfy302aRjFdJOnDh4usbHblhcOFKvQv", "name": "Art on the Station", "lat": 59.45932300000000, "lon": 17.92429300000000, "team_id": 1, "available_slots": 0, "bs": 30, "bc": 136, "rs": 19, "rc": 115, "ys": 27, "yc": 114},{"id": "1ee172bd115841ec97ec6042ff475c7f.16", "url": "https://lh3.googleusercontent.com/1I0-BZShNtl0oW2d9MIeJox6gCioj_0x5Se-iCS4vBYrM7UckflzPqzLOzNshULGDEEeKM_hGhGfHTigscSEBxKHMI0", "name": "Viby runhäll med inskrift från 1000-talet", "lat": 59.45458500000000, "lon": 17.90142700000000, "team_id": 2, "available_slots": 5, "bs": 18, "bc": 212, "rs": 26, "rc": 213, "ys": 7, "yc": 26},{"id": "2080c06dc16a3d449e7b85879bcde80f.16", "url": "https://lh3.googleusercontent.com/sGCC_UrYiOxSTRlNqgs-EJQ9NL46F3Kd4g1UPhgsySU0wIrnCVuRJ-Wnn_F8X6QAshVvd9gpidrCDq4jKG5ilVIw5cTEqsa8v9m1hcg", "name": "Ica Maxi Häggvik", "lat": 59.43771400000000, "lon": 17.93240100000000, "team_id": 3, "available_slots": 1, "bs": 17, "bc": 110, "rs": 20, "rc": 99, "ys": 20, "yc": 106},{"id": "20dba75eb49c417b889b5d53df510622.16", "url": "https://lh3.googleusercontent.com/EFFz8B-RzpiM2dII7wz61srJsZPMYKzTiZgVCAH159w1zn-IomSMrz8G0t66CaE1lyssGXwEe7VuJ5ybhZzaZqKPfsc", "name": "Rotsundagårdsvägens lekplats", "lat": 59.48546500000000, "lon": 17.92635400000000, "team_id": 1, "available_slots": 2, "bs": 39, "bc": 144, "rs": 17, "rc": 110, "ys": 30, "yc": 67},{"id": "213a13442bde49bfadfa1e13527e4c4e.16", "url": "https://lh3.googleusercontent.com/IQxxfHPoxmDw8CsqSLjpjknurUK4l7RRq0dDBJG3Wg4lLr-Giccp-zGf1HHcbUt2jDaYjJH6yd2-xatpb6osIUNxmE0", "name": "Kruthornsvägens Lekplats", "lat": 59.44503400000000, "lon": 17.97299500000000, "team_id": 3, "available_slots": 0, "bs": 38, "bc": 126, "rs": 25, "rc": 101, "ys": 25, "yc": 82},{"id": "224b75ff5f294f0bbe121cc168735cd8.16", "url": "https://lh3.googleusercontent.com/SzRWYt57TVmTj4rJAC7eEAtfRSfA_U2D_KtF_9sAEuFmsf3ftCziVHJlP2Psb2qS0Cyc6AOC6rUOqgOg0AHioCzp8qY", "name": "Söve Traktorlekparken", "lat": 59.46310300000000, "lon": 17.92150200000000, "team_id": 1, "available_slots": 2, "bs": 65, "bc": 85, "rs": 31, "rc": 65, "ys": 31, "yc": 61},{"id": "22516427a54f4a8fa3019201ea6e25fa.16", "url": "https://lh3.googleusercontent.com/QxT5Qwsw8i-zKuXnacFsFPWV6YI2wy9_xPq7W28nXH0INnhp5OFvJPc4dvW8b5n78VaHlFpTi63V0vFX4wUdSiGpQ1c", "name": "Mulltorp", "lat": 59.46958400000000, "lon": 17.87233600000000, "team_id": 1, "available_slots": 1, "bs": 84, "bc": 29, "rs": 97, "rc": 19, "ys": 186, "yc": 26},{"id": "2303e511d8e34dddac27551ece4e07ff.16", "url": "https://lh3.googleusercontent.com/9RQAWzYK56T9tgJd4tEj-D1uZWPcKGkR2-a3IlsI4zQK55kFWBDvMEOOohMQaS5WGjv7-piZ-tPpo5oFymgU5PJFIw0", "name": "Landsnora Kvarn", "lat": 59.43588700000000, "lon": 17.97027800000000, "team_id": 2, "available_slots": 4, "bs": 25, "bc": 86, "rs": 59, "rc": 103, "ys": 22, "yc": 59},{"id": "2341ad20981e49c48d9470d68233ba1e.16", "url": "https://lh3.googleusercontent.com/sMxxoN0srQx3yzIXXiCMPCei4Tm1L2YztT2bIQx15FRBJvRWtk5THA-5bvin36FD5kf-_j1DUaymOQg6KR_hqst-MJk", "name": "Vasaparken", "lat": 59.47560000000000, "lon": 17.90673300000000, "team_id": 1, "available_slots": 0, "bs": 27, "bc": 106, "rs": 18, "rc": 47, "ys": 46, "yc": 124},{"id": "23ab3890ec7b4fc49882987c66c325a4.16", "url": "https://lh3.googleusercontent.com/o1CDW0MyApYwKcaOQW-iBlaftPk3hGKERKUlW5fFfhKcGRckpUlyPwh00p3mS_hu8-BAMjlQDYNlQiuubg1hcGa8MyrT", "name": "OS 1956 - Hinder 7", "lat": 59.47492300000000, "lon": 17.86097200000000, "team_id": 1, "available_slots": 0, "bs": 53, "bc": 3, "rs": 480, "rc": 2, "ys": 136, "yc": 5},{"id": "240f4d670cc04922bd7672ce2080de20.16", "url": "https://lh3.googleusercontent.com/e0s0mKH6-qw1nZZnGmV8bc1SidBgnrHKHzUrZavtCBk-UCMgYDlG-YaR0OmBMK9-xWyIOfNPKCqFErGxXtf0fYIcMg", "name": "Sollentuna Rackethall", "lat": 59.44470300000000, "lon": 17.95144900000000, "team_id": 3, "available_slots": 4, "bs": 28, "bc": 140, "rs": 17, "rc": 81, "ys": 34, "yc": 123},{"id": "2529a2086b234223824c21fb8bf9916a.16", "url": "https://lh3.googleusercontent.com/KAtaBOlsywcNoUB18EViWB5ZK8psvoPqDGQovsiKr9h4hJdVga9lcyPoc48pGehYBbnqNuRcNILerr4G1UK0HBniYQ", "name": "Rösjöbadens lekplats", "lat": 59.44039500000000, "lon": 18.00140700000000, "team_id": 1, "available_slots": 4, "bs": 126, "bc": 37, "rs": 71, "rc": 30, "ys": 82, "yc": 29},{"id": "257ac0111b3046cb9f0e350cdabe4537.16", "url": "https://lh3.googleusercontent.com/38-lahaBzz3VQshLozmdfwVIV9Ld4bfU8lH76RPbgFwRdjM-5MiTK8dnc4b1Ql52vBoDanbGC11eLyoH0CGmxmR4Bg", "name": "Viby-Miltärvägen Välkommen Till norra Järvafältet.", "lat": 59.44942000000000, "lon": 17.89876400000000, "team_id": 1, "available_slots": 0, "bs": 184, "bc": 38, "rs": 64, "rc": 20, "ys": 33, "yc": 25},{"id": "25fe70f24ac04d95892bb42b9072d608.16", "url": "https://lh3.googleusercontent.com/rvjW0gKulKzTTkDF_Q0f0IG1j8ezLMvmXZZANDJfwRp5Avhu8VXdaT35ZGsX7PbrcPZsxywutmbbw5pH9m_gX5gmCgg", "name": "Edsbergs Gazebo", "lat": 59.44813600000000, "lon": 17.96844200000000, "team_id": 1, "available_slots": 3, "bs": 20, "bc": 145, "rs": 19, "rc": 100, "ys": 27, "yc": 176},{"id": "260b07a5a9194cb5bed1a4004d72c866.16", "url": "https://lh3.googleusercontent.com/KePNmsZFx6uTA_5qpJS5pJUN_yuPPb-D4AH0oYC10DhwLBfNDyQAO15oVQhbSF6gHlNBjuNkwO2Ca2azNITG5wBXw4SA", "name": "Edsbergs Slott", "lat": 59.44090000000000, "lon": 17.95567700000000, "team_id": 1, "available_slots": 0, "bs": 23, "bc": 119, "rs": 35, "rc": 133, "ys": 19, "yc": 101},{"id": "27038bffbc16438fa3ec82aa8324a58a.16", "url": "https://lh3.googleusercontent.com/N-srFKZ45gZgheqw4-iY17MXA9feNhN_qVLUrsVRB3UI2dYmCdkfUojzwy5usynfQ1H5ExTYiwX3POjMWBgXDUce1g", "name": "Järvafältet Fäboda", "lat": 59.46388400000000, "lon": 17.87414300000000, "team_id": 3, "available_slots": 5, "bs": 90, "bc": 28, "rs": 95, "rc": 31, "ys": 121, "yc": 24},{"id": "286e8ef454223fe2b3c2b2b0991efcf9.16", "url": "https://lh3.googleusercontent.com/XaudqwYT4mIBiCxJJbUcohI9hyqjSkGFa__E8xoStJK06T7xcptdFHVixmYWkZFGFM2tdRzo5B9chcs0rQERVmyAdMOOhr1BYuK8fq3DUw", "name": "Järvaleden markör.", "lat": 59.46067200000000, "lon": 17.87174300000000, "team_id": 1, "available_slots": 2, "bs": 149, "bc": 5, "rs": 88, "rc": 9, "ys": 179, "yc": 13},{"id": "2b4b88532ca0494f985a7379eb120b16.16", "url": "https://lh3.googleusercontent.com/4lKSIA1Y7U2tuK_xndt7djC2AYXUeYUOJWaOzDDYTaNroSiYuJ2uG7yfGDZFTYQmKw6ClfJrIObbMKx4QtMq5eArBAU", "name": "Lekplatsen Viby Källa", "lat": 59.46037800000000, "lon": 17.88908700000000, "team_id": 2, "available_slots": 3, "bs": 30, "bc": 145, "rs": 21, "rc": 115, "ys": 18, "yc": 144},{"id": "2b8ab5b12fb53b21a15421bbe587c71c.16", "url": "https://lh3.googleusercontent.com/W__5PwkJKYpdgCiGsbj4dDt_B5NA-XLPdBQ1Sv-1yIy-GDvBeCEk2RU-c6vzR4AKnr94doxukwb8LFIKGZjB4u54rBwlHeWSwCPnW6Nb", "name": null, "lat": 59.47384600000000, "lon": 17.93079700000000, "team_id": 2, "available_slots": 5, "bs": 1170, "bc": 2, "rs": 251, "rc": 1, "ys": 0, "yc": 0},{"id": "2e0191004574406093a9e59bf4e605e9.16", "url": "https://lh3.googleusercontent.com/ufn0Y5T4ykatTyGdHun_lUrzaOfGvmri-YF2REt7-eRCzDpd1KqqyRDVUcqhdwYVTYrHblYrhj7RbGGcGz1wEJM4vQ", "name": "2mil från Stockholm", "lat": 59.48370300000000, "lon": 17.91566000000000, "team_id": 3, "available_slots": 5, "bs": 34, "bc": 70, "rs": 76, "rc": 80, "ys": 31, "yc": 31},{"id": "2ee35c74fe7d48198e1e44ecffb18c3b.16", "url": "https://lh3.googleusercontent.com/obxslaNQJAXkiAQ4xOTIDi5GouZ7RSPbZDxcZZg16f5MzNo13rKyagI-eojJ05CJu_OCclo_u3dwGgprsiZx0uuI_Q", "name": "Jarlabanke runsten (101)", "lat": 59.44870800000000, "lon": 17.98410600000000, "team_id": 1, "available_slots": 4, "bs": 678, "bc": 11, "rs": 0, "rc": 0, "ys": 101, "yc": 10},{"id": "32a6ffe0595d43b18d6aa75e3bbd34ad.16", "url": "https://lh3.googleusercontent.com/08TOjE6-o5IV1l7CJlJJMyf-FPSqkC67MYJAOZuJx5Eq0eUhOZ3qC1V8mVB3mHsZW6jPsnZX8aXHoSGQUXApDDKRjwo", "name": "Paviljongen", "lat": 59.44028500000000, "lon": 17.95634200000000, "team_id": 1, "available_slots": 0, "bs": 21, "bc": 89, "rs": 48, "rc": 122, "ys": 20, "yc": 81},{"id": "3314cf98a74447a8b54e077267dff7b3.16", "url": "https://lh3.googleusercontent.com/QWY1id8ZQubURWdza3CbjASNJRB4txPa729KA0ZCzrUKo9p8G_HNbEUJe2GfZkeMGkvsgz2Mn6rXapmihCu8jdn822U", "name": "Sångtunneln", "lat": 59.44401200000000, "lon": 17.96451800000000, "team_id": 1, "available_slots": 1, "bs": 56, "bc": 75, "rs": 23, "rc": 48, "ys": 52, "yc": 80},{"id": "34e735b3cf17491d8a438a805bd6a360.16", "url": "https://lh3.googleusercontent.com/R607C302IzCfvE5zKGUTUTp1nYGSxBh45FFCOB5YFcqGg2XaZFkatmaYW_CgYnYaUl0lF1rO1pwq2nVGPP8UgxFkNlQ", "name": "Soldiers Chapel", "lat": 59.40631100000000, "lon": 17.97098700000000, "team_id": 1, "available_slots": 3, "bs": 73, "bc": 47, "rs": 82, "rc": 45, "ys": 75, "yc": 28},{"id": "3609ed544c8c4d1298d6d2d588128ae6.16", "url": "https://lh3.googleusercontent.com/IFVhedE9HRhCA8sLRa4qvxEtrm3LmGLOQJzjZzCeNVj2d9_MdbpHQWWjo4DAz4gC9GfivGA5csCWAzGP2u3fby-s9X4", "name": "Vintage Car", "lat": 59.44282300000000, "lon": 17.92459200000000, "team_id": 3, "available_slots": 5, "bs": 48, "bc": 85, "rs": 25, "rc": 53, "ys": 49, "yc": 83},{"id": "3623d559b86b41baa4ce06201f9dbf7d.16", "url": "http://lh3.googleusercontent.com/B7hHRK1w0tH75qfW1kOt23oFtpUqm_g8NxnwDnwsucF9S4l9KZPLKvk_SzXMp5DS18x9C5O8OQWUTppFbwPZhDTJXI4", "name": "Tegelhagen, Sollentuna", "lat": 59.40703000000000, "lon": 17.98670000000000, "team_id": 2, "available_slots": 4, "bs": 21, "bc": 36, "rs": 134, "rc": 58, "ys": 27, "yc": 31},{"id": "37dbc17a3d734de899d78d7e1aecdcd8.16", "url": "https://lh3.googleusercontent.com/xWcjlqwY-6LJoQpIFWH4oWqMlSY3fGn6-PRDcDxOhTnT8y-RKyKzDozFU4l8F50G5RnjM38ofVfpkjuWQUXagS5fvWNe", "name": "Jaktvillan", "lat": 59.46525800000000, "lon": 17.84382300000000, "team_id": 3, "available_slots": 5, "bs": 110, "bc": 10, "rs": 276, "rc": 17, "ys": 205, "yc": 13},{"id": "38e96912b10646569c0deba974eb357f.16", "url": "https://lh3.googleusercontent.com/RKtCUxA7iCknT14VRLfWeCDWLtCBWNeeXADHD3d5sdbVpu5inyYA6lEmjH6exBM1Do-Oif8PWFA5mhUASyeXPRz1wAU", "name": "Viking Grave Field - Kummelbyvägen 37", "lat": 59.42011000000000, "lon": 17.96967900000000, "team_id": 2, "available_slots": 4, "bs": 110, "bc": 66, "rs": 30, "rc": 37, "ys": 29, "yc": 39},{"id": "398df1e66dd74442839a9ab8767b25e2.16", "url": "https://lh3.googleusercontent.com/06TsFhp54uEv4ez65VRDfm7At_WL3j_qEqWWxdauAefiY2nAX8WzoW2VJkztncCJALEEjqabThFTr-WcA2xQi46vYPuw", "name": "Different World Art", "lat": 59.43049100000000, "lon": 17.98205500000000, "team_id": 1, "available_slots": 5, "bs": 81, "bc": 82, "rs": 35, "rc": 48, "ys": 22, "yc": 47},{"id": "3acc9d1be6e34bc99ae5a6d1eeab698c.16", "url": "https://lh3.googleusercontent.com/V1_pItoKkoF6z-F5u0m7uK8WOK71q1GFRaN5b21txleQAzF8iX6Nvcipzeh2_Hs2NcxtudqDwKhgTnMNgrP6z5ldiYqo", "name": "Silverdalsvägens Gungor", "lat": 59.40333000000000, "lon": 17.98154600000000, "team_id": 1, "available_slots": 4, "bs": 34, "bc": 156, "rs": 17, "rc": 96, "ys": 18, "yc": 143},{"id": "3c5ac929be10336b9fc6213c1e44cd22.16", "url": "https://lh3.googleusercontent.com/LH0ULmSHNCq1vgL3gCUehVKltQgBzvIQBORjzwG2plS-Jq9A1HnlfVAvpJdEgq18lrfnktlWk4PxdNUtDJQqlEsaBBrM5XnJr5WynzE", "name": "Sydvästra Ravalens strandbrygga", "lat": 59.44542600000000, "lon": 17.90629300000000, "team_id": 1, "available_slots": 5, "bs": 401, "bc": 9, "rs": 358, "rc": 4, "ys": 420, "yc": 10},{"id": "3ca93f9c548c41f29d90bdfc5c067de7.16", "url": "https://lh3.googleusercontent.com/oyI_5rGZ0ibvYLDZFzKL6EsIphecWNygeQ1oSqrnrzTygNHyAt56Tsi1ZQoaT_ZyDtZxHu8dj9lHL5fx3YZ4sbaP1Kw", "name": "Skeppet Silverdal", "lat": 59.40600000000000, "lon": 17.97376200000000, "team_id": 1, "available_slots": 2, "bs": 37, "bc": 106, "rs": 40, "rc": 116, "ys": 27, "yc": 33},{"id": "3cc0fd7bd6ad491f89451d1b2546b0b6.16", "url": "https://lh3.googleusercontent.com/pOuqebrtYs7Jd3Xb-yk6NI0X_UJues7FpV2schbhc2G6BBriau36gV6KouqAAIVFhmy_2nRgEk4_w9wKf3bFxOUuBJM", "name": "Knista Hammare", "lat": 59.43825700000000, "lon": 17.92215100000000, "team_id": 1, "available_slots": 2, "bs": 254, "bc": 21, "rs": 99, "rc": 19, "ys": 110, "yc": 18},{"id": "3ea5b8a52d0f459b915fd6690a52bacd.16", "url": "https://lh3.googleusercontent.com/u2SUMrgMewnN4-2eR2BVhVLRSct0yvzCMxngy1FY-q060xWpju8QWp1OgzH-WedFnUSq8dmwrAND60otTg_rzVGDzMg", "name": "Rotebro Art Tunnel", "lat": 59.47078800000000, "lon": 17.90731400000000, "team_id": 1, "available_slots": 0, "bs": 133, "bc": 38, "rs": 97, "rc": 31, "ys": 70, "yc": 19},{"id": "42037110612f3c5db9246455378d3339.16", "url": "https://lh3.googleusercontent.com/MDNcHUa7zEPJcDNUMECNeeddL6pe96x6sv2Cim9lZMRbG8whFNTd8AMrT-Vgeu7CaAf8dMUfCH-EevCNj7M7DQ-bNHGbxriPLJ49Nhw", "name": "Miljöhjälte", "lat": 59.46667400000000, "lon": 17.89254700000000, "team_id": 3, "available_slots": 0, "bs": 61, "bc": 20, "rs": 67, "rc": 14, "ys": 49, "yc": 14},{"id": "42ae29f6e02c394ea6c15962f80b5b93.16", "url": "https://lh3.googleusercontent.com/7cvGXnXDw535O9RVTqEYc7R5NS_dqmPm_BehUlNIiTYEIBdYKVQO9ucpmi9_lmqwhLg2eHJqWAdbgBGf_MsI1xzI4CHW18JnVCSiVIozWg", "name": "Ledmarkör i Törnskogen", "lat": 59.47698900000000, "lon": 17.93945600000000, "team_id": 2, "available_slots": 5, "bs": 0, "bc": 0, "rs": 0, "rc": 0, "ys": 1198, "yc": 1},{"id": "43440289f4014cf28ff6c2165e6e3c19.16", "url": "https://lh3.googleusercontent.com/XJcvhlTDxC6qhcrIYgT0bYEh8DhMCo3t1WE6MH3IV3iobQ3Lmad12qbVrjuo6-Y529TaSw3J3NNUFZsbdUa25sf5T5Y", "name": "Sollentuna Golfklubb", "lat": 59.47085300000000, "lon": 17.90542700000000, "team_id": 2, "available_slots": 2, "bs": 125, "bc": 36, "rs": 72, "rc": 23, "ys": 87, "yc": 36},{"id": "443f699a6680478bbe6b3aacbfff26dc.16", "url": "https://lh3.googleusercontent.com/QXh155klxKwwkhf-HsWCliTVNP7xOqvO1n0MfHij7LyNEfovXXhhxDE03V1XYcT8TCwaq2qzzFdsKhlfDJe2Igtk3xkL", "name": "Lekplats Holmboda", "lat": 59.48566000000000, "lon": 17.89426900000000, "team_id": 1, "available_slots": 0, "bs": 90, "bc": 67, "rs": 41, "rc": 65, "ys": 25, "yc": 26},{"id": "449327e6e11b40c9896422599d07ac1a.16", "url": "https://lh3.googleusercontent.com/U46A1T9pGtaXB8xwKwI77wqPLHbE_Yv1HY2aesmkERjV3b_r69zltLGFoyyEzxq60_IvzvKL7KS4esS8TqUNoj5s8tQ", "name": "Skoldalsvägens Lekplats", "lat": 59.43937200000000, "lon": 17.96936500000000, "team_id": 1, "available_slots": 4, "bs": 51, "bc": 121, "rs": 26, "rc": 112, "ys": 14, "yc": 26},{"id": "44a9312b6b8e445e9248d5f202389392.16", "url": "https://lh3.googleusercontent.com/MICmQ-AUlpZvxNdt1u9FS1Xv63LFUYAUY6wTkijJeLYCdg6lg2NUJONfsKN8qSoaH6euoBuEWKq4USnGbGzEVWvnHg", "name": "Rösjöskogens Naturreservat Täbyentré", "lat": 59.44482600000000, "lon": 18.00246100000000, "team_id": 1, "available_slots": 4, "bs": 282, "bc": 20, "rs": 103, "rc": 9, "ys": 204, "yc": 13},{"id": "45fe770d820744358536aca1a82ead85.16", "url": "https://lh3.googleusercontent.com/ETqRHwh2-wVPk9x8XtWsiOybRPzmL6vpBPcOP2kPUjiNDJQYRHpji-HOVlM7WVQWrpU49BRP1cJ2A877nXiP2ryCLZA", "name": "Edsån Info", "lat": 59.48836600000000, "lon": 17.89457200000000, "team_id": 2, "available_slots": 5, "bs": 157, "bc": 37, "rs": 51, "rc": 25, "ys": 94, "yc": 25},{"id": "46dafd77711e4a338f909741ad63089e.16", "url": "https://lh3.googleusercontent.com/ENfzEn5-XJKDSdVfVIN73UlfeKDM3yE-OmZuU4qUQ8O-zOGac3havCfqysp0xelxEx83TQUTU6HeV3pOtQMtgh84qQ", "name": "Viby Gravfält", "lat": 59.45865700000000, "lon": 17.90583300000000, "team_id": 3, "available_slots": 3, "bs": 130, "bc": 53, "rs": 35, "rc": 29, "ys": 46, "yc": 34},{"id": "474812cf91ac480f8011f78b06c668d4.16", "url": "https://lh3.googleusercontent.com/pWdr4iM2h1WfgbCfsDXfgrZGHHWrVBHuT7C6UDkImE_cx4lgXAASQdlz9g7pMQNZGkb0zRA5ExKhwHjMobU96S7bdg", "name": "Attunda Orientering - Klubbhus", "lat": 59.47461000000000, "lon": 17.89325000000000, "team_id": 1, "available_slots": 5, "bs": 125, "bc": 53, "rs": 39, "rc": 38, "ys": 54, "yc": 25},{"id": "4833bab68d6f44498603a4f6439f142a.16", "url": "https://lh3.googleusercontent.com/Sa733JawATYNKYOn5PJoMl2Y2URHSqLIWuIdqhjL7vxHmphK0BiIpHoUAnJE42J6EvbKcy6Q-utkqpanPmsl8HgF8Q", "name": "Mjölkkannorna vid Väderholmen", "lat": 59.45012500000000, "lon": 17.93554700000000, "team_id": 1, "available_slots": 5, "bs": 26, "bc": 99, "rs": 21, "rc": 35, "ys": 56, "yc": 110},{"id": "4935d3a128f8451188ca41ea3ea79b70.16", "url": "https://lh3.googleusercontent.com/olcBxTJjvTtU3cBOOG_MRvwR__1akW5ysbYwkrKZ7kwr3-5kMGJEdGP-_UMXqp-GUD-PySHDE6qgPWn3g2WsQ19eue4", "name": "Skating Mural", "lat": 59.43563900000000, "lon": 17.95141200000000, "team_id": 1, "available_slots": 2, "bs": 44, "bc": 84, "rs": 29, "rc": 72, "ys": 46, "yc": 78},{"id": "493dcaa171314200b2dc7c182b7f5571.16", "url": "https://lh3.googleusercontent.com/E_U-LfJy97lAg171YP74_fW3ThHyWy9GhJ0KkrrYSLCsewFveeKBTGcGW-Xj6hqCZKMNbQRyJ9nJKsirmJR0eYIOGw", "name": "Rotebrokyrkan", "lat": 59.47586900000000, "lon": 17.90791500000000, "team_id": 1, "available_slots": 0, "bs": 25, "bc": 105, "rs": 17, "rc": 67, "ys": 41, "yc": 133},{"id": "4940987275dc4636a7fca114142d49ab.16", "url": "https://lh3.googleusercontent.com/q0VTvpekwTbFHybEdJj0_Lif71794Os8MUBwztdLgirgTFZGIzft73tsS1pnVxZrUli0rpcF19oMTAGiighGgp5Rjw", "name": "Båtparken", "lat": 59.48532200000000, "lon": 17.93522600000000, "team_id": 3, "available_slots": 4, "bs": 31, "bc": 126, "rs": 17, "rc": 96, "ys": 34, "yc": 117},{"id": "4d3ffdd8e4dc3acc92cc3201baaee72b.16", "url": "https://lh3.googleusercontent.com/TSRuYr_jYpTTmu0Z56ARD0O3uwkSAisJ-jrX861Y-s1r4y6g8JZdHHl_ZF6tlf7gCNgO4c__4Mi8K3FiPhQtH97yyQ1yttFF-TZ2TNB1", "name": "Markör Järvaleden", "lat": 59.45297500000000, "lon": 17.88038700000000, "team_id": 3, "available_slots": 0, "bs": 75, "bc": 7, "rs": 77, "rc": 7, "ys": 109, "yc": 11},{"id": "4fae0b3aa28b428899d1e78167a68b8a.16", "url": "https://lh3.googleusercontent.com/q662xGWkJAb1dOIN3g79IDE5m8eLIw_Ejk0qKQ05O4uQfKbxJwFdOOiN68ZdPGXwAAs5YpP4lfiy6GhL4K51dDdZcg", "name": "Lekplatsen Lillebovägen 54", "lat": 59.41861100000000, "lon": 17.94232800000000, "team_id": 3, "available_slots": 0, "bs": 35, "bc": 53, "rs": 21, "rc": 54, "ys": 98, "yc": 65},{"id": "4fd703445f5242ca889758879c376e36.16", "url": "https://lh3.googleusercontent.com/_xffdY2eHu7VSAXW8iE3l0MddbRGSy6khpSsm6fktvK2TqjptWY9moNW83PnllzKkQv7Qfm9xJA8IlwQkwJsx0b-ItQ", "name": "Vibyskylten - Revirvägen", "lat": 59.45020700000000, "lon": 17.88836900000000, "team_id": 2, "available_slots": 4, "bs": 144, "bc": 23, "rs": 117, "rc": 28, "ys": 100, "yc": 26},{"id": "53157ce0af5046f593cb42972f1d4ad0.16", "url": "https://lh3.googleusercontent.com/fnIojjxFMYlZ9GWNU5Z_xmKVDVf5mNFX1_0sU04kss95Dkr7CbiJtwctsWJHQ1g8VH3JgI9hKXw7_0sL0zH9QrSyZJA", "name": "Sollentuna Hembygdsförening 150 År", "lat": 59.42229700000000, "lon": 17.95623900000000, "team_id": 1, "available_slots": 0, "bs": 120, "bc": 57, "rs": 49, "rc": 26, "ys": 30, "yc": 42},{"id": "540ad18cfc5e4d8e904d659683d94d68.16", "url": "https://lh3.googleusercontent.com/tjo1hGUEsS54heY-ATefr_X_kc9XcmwRDDv798fTiOhSbbskoL-Pftjd9PXr90tinq30QwqPJeOaZzFGRmziOwlUdg8", "name": "Snickarbackens outdoor gym", "lat": 59.43049400000000, "lon": 17.99207100000000, "team_id": 1, "available_slots": 4, "bs": 55, "bc": 57, "rs": 38, "rc": 45, "ys": 64, "yc": 73},{"id": "55e6a3cfeb4a470faf56ee8c69ba270f.16", "url": "https://lh3.googleusercontent.com/to6fnBI1VVmk7yxnwd1c-YRGlsmCn9NhofV7DrmPRBr9QKtS9zDyi2QtwuxFHzuX66LEjftmcMIKKKYPUhWI41jzSA", "name": "Vaxmora Konstgräsplan", "lat": 59.45539100000000, "lon": 17.95030500000000, "team_id": 2, "available_slots": 3, "bs": 53, "bc": 106, "rs": 32, "rc": 81, "ys": 25, "yc": 46},{"id": "57aacc2b2d3e424d8ab7b13e6c3dd0f9.16", "url": "https://lh3.googleusercontent.com/wNipc1ymolAunZuIUy5hyEAMxzbpW_J5cYNN0BAqMY0iqxRTlinjB_QshfmDa1RX47QWnKVbsJKmU2rNCcSI-SqYlZk", "name": "Stones of Sollentuna", "lat": 59.46563600000000, "lon": 17.91735500000000, "team_id": 2, "available_slots": 3, "bs": 28, "bc": 104, "rs": 34, "rc": 127, "ys": 22, "yc": 96},{"id": "57e4a093263146629c4b0976047f9c06.16", "url": "https://lh3.googleusercontent.com/2thAd0vBRQxI81njxNlld1KE1eHAlyNHvWQ3sSL5HPTS87vMAYmYOtjBH4ul7oZFdpflcmGSwEcccU79l2_U5j475QQ", "name": "Lekplatsen Alströmervägen 77", "lat": 59.42144200000000, "lon": 17.94562900000000, "team_id": 1, "available_slots": 2, "bs": 21, "bc": 45, "rs": 37, "rc": 19, "ys": 137, "yc": 57},{"id": "5884cd9e724545a6bf127bee88c5c3e6.16", "url": "https://lh3.googleusercontent.com/2ev_qRPnqZnrDJ_kLwkeGnq4JjcgXreZ3K-D2Uc4HLte2wWjIrLM0kWEZlDIkLEKg_LyalQ4ZVeNOgseKCxewK3M41w", "name": "Naturreservatet rösjöskogen", "lat": 59.44938300000000, "lon": 17.97784900000000, "team_id": 3, "available_slots": 3, "bs": 98, "bc": 48, "rs": 38, "rc": 4, "ys": 98, "yc": 47},{"id": "5a00238b09264c13baba815f26c68011.16", "url": "https://lh3.googleusercontent.com/dT3u3JMMh6oOx6mx4yiN-06XiWG5YD4eS1s0ZNVaYZVS40eve7dDrzTqGObDjp3fuLBdKWd-1TP7S45vDi7raySEZQ", "name": "Bögs Gård", "lat": 59.44050000000000, "lon": 17.91082300000000, "team_id": 3, "available_slots": 5, "bs": 72, "bc": 71, "rs": 55, "rc": 54, "ys": 31, "yc": 44},{"id": "5a2d839f77fb4704a6b03afe6f95047a.16", "url": "https://lh3.googleusercontent.com/zpPaK1I2oXE7pwZ8BxaW6-ysO_iuoTnSaquuy8glhk1GUxfRKClgBVDcLG_Bvk_0_awsFhud3lXivqDUagCWut07fw", "name": "Deepvalley Skatepark", "lat": 59.43512000000000, "lon": 17.95205900000000, "team_id": 2, "available_slots": 5, "bs": 52, "bc": 86, "rs": 27, "rc": 74, "ys": 32, "yc": 92},{"id": "5aa35b4bd55d445e80a6911a882d61db.16", "url": "https://lh3.googleusercontent.com/akLFnCW4WAgCXi43QkPyrWHi6VjkzntH8Co2qWSuZ0b4VVs9F3jlnjTNTyR6VeV9deBnUPXo2p-wbTHMjk8T_EIRYWzW", "name": "Fyndet swings", "lat": 59.42704100000000, "lon": 17.92390300000000, "team_id": 3, "available_slots": 4, "bs": 13, "bc": 36, "rs": 13, "rc": 44, "ys": 122, "yc": 69},{"id": "5adca6d03e714eecabc15fda1cf5c81a.16", "url": "https://lh3.googleusercontent.com/A7lra0tb-Tgray3zomPpF8zI2ET2_nrRweu8i9_syG9B1La1xskttrw9Uv2FyH5XAsS0fplxS5mAqWsaY1CqnbAktQ", "name": "Indianparken", "lat": 59.42470100000000, "lon": 17.92565100000000, "team_id": 1, "available_slots": 2, "bs": 29, "bc": 25, "rs": 43, "rc": 58, "ys": 81, "yc": 70},{"id": "5d78e68e53394dec8026a98aea47d1b1.16", "url": "https://lh3.googleusercontent.com/ENRKUT5_3nJH4Swl928sAbSrkLhzamLsKZk3r8l31TCNuy5eqm6MM4ay0PxjLRNH9ZwBR6v_PomOismksESHi1CRICo", "name": "Big Lamp", "lat": 59.48385000000000, "lon": 17.91765900000000, "team_id": 1, "available_slots": 0, "bs": 48, "bc": 96, "rs": 42, "rc": 91, "ys": 24, "yc": 41},{"id": "5eed19daa8cb4cb3b345c992b80a135e.16", "url": "https://lh3.googleusercontent.com/P7yRWZt0vyndnnxq1V97vFJiyvC48RxwDwTGnYIVBOMjBWkzjx3PudXdRsY5azkRX8RsyHFw2v2qBEG2qsrAKGc1hCo", "name": "Friaffischering", "lat": 59.45257500000000, "lon": 17.95594400000000, "team_id": 2, "available_slots": 5, "bs": 53, "bc": 82, "rs": 17, "rc": 21, "ys": 54, "yc": 88},{"id": "61e0d91d2bd140e195f0e7fd543bc63f.16", "url": "https://lh3.googleusercontent.com/PBEjbKeTxaJQGGBWkwyp1Bbs-FzrnnVg8sNVltkH-5mJr7bfsTfyRqeQg1KmYleaodS0qsybhqB3nFMr0CYZj_Tayg", "name": "East Viking Grave Field", "lat": 59.41957900000000, "lon": 17.97257800000000, "team_id": 2, "available_slots": 4, "bs": 109, "bc": 64, "rs": 33, "rc": 46, "ys": 23, "yc": 43},{"id": "622ce7d9cb774790a438d099c2def851.16", "url": "https://lh3.googleusercontent.com/9rhixGN3KgO32_bJHjqgIfRqbylQ63UaSll59FyRVsOl8e1reJQahJssPKuNFk9dcsj9lCAE9bfzdLoU2rWATCyQPFTI", "name": "Vibyspårets Utegym", "lat": 59.46631500000000, "lon": 17.89179000000000, "team_id": 3, "available_slots": 0, "bs": 98, "bc": 55, "rs": 46, "rc": 47, "ys": 47, "yc": 37},{"id": "626c5e5218b4440eaa7977e71d544ad4.11", "url": "https://lh3.googleusercontent.com/k9dTDFYWjQn4g4FHntsvE_XY8q9vbeW_i2PczLMA4yZVKbKbwdbSLwZTas5L0PW5GITRKSNkUEPUkgVB8pngZcyj1Q", "name": "Sollentuna Cross Tower", "lat": 59.42817200000000, "lon": 17.94967600000000, "team_id": 2, "available_slots": 0, "bs": 20, "bc": 176, "rs": 20, "rc": 143, "ys": 20, "yc": 154},{"id": "63da8a138e394748b3c3947dc149cb81.16", "url": "https://lh3.googleusercontent.com/DfZXUKx3NR2TR5zIxPJ5C6ZRS1rQtkcxzx2t4DcjJAho-i3MrXyZ-4WNor_aY22Wd8ObgzzmElKNrpUcbEivaZKVjQQ", "name": "Barshällskällan", "lat": 59.43595200000000, "lon": 17.89097800000000, "team_id": 3, "available_slots": 5, "bs": 187, "bc": 18, "rs": 154, "rc": 18, "ys": 163, "yc": 18},{"id": "662730c376524d6090d54f9a9aa8475e.16", "url": "https://lh3.googleusercontent.com/E90Xg8vjee6Bv-zQMUb81chDmBnGsjt58fUfsxv5LG0eYjzi3pkeHaiGMpBVMt9hV8oWCGkdwKv28pNpAFY5eFJ2l4OGmy3LfwvQUIS5", "name": "Informationstavla Tegelhagens Naturreservat", "lat": 59.40541200000000, "lon": 17.98093900000000, "team_id": 3, "available_slots": 0, "bs": 44, "bc": 64, "rs": 73, "rc": 68, "ys": 32, "yc": 49},{"id": "66f23a3f618b4891b1b102809c093785.16", "url": "https://lh3.googleusercontent.com/JCEKrLxE6dAE0PbhcM3hygY9v6Q7QJEA_dV-1i8AmO28sfKs0w4HoL5Rk1N5PQdH3BPW4D3f8-IRe6u17xSy3WOX2oE", "name": "Ted Gärdestad", "lat": 59.40049600000000, "lon": 17.99166800000000, "team_id": 1, "available_slots": 4, "bs": 33, "bc": 66, "rs": 20, "rc": 64, "ys": 58, "yc": 97},{"id": "6908979876cd4557b704cbd7858d96a0.16", "url": "https://lh3.googleusercontent.com/xvT36hpwa0l2JWVbXEXcQlYgWDLuAqUA-L1BtRdxfE1i-Xtjvk8Fz3b6DKsUDT6kOyvTKuyipK5xW5op_W2_f_ldL3qk", "name": "Runsten Helenelund Sollentuna socken", "lat": 59.41590900000000, "lon": 17.96143400000000, "team_id": 1, "available_slots": 1, "bs": 55, "bc": 107, "rs": 25, "rc": 47, "ys": 30, "yc": 83},{"id": "69585b425efe4fdd95c2c1542979ff23.16", "url": "https://lh3.googleusercontent.com/-_zo6Jtl33VrtsYQ-i4RthdCT1Ex-D2hTsIuVsrV7cAAjdtgVj_AeJTULZcJqgTjcyHNFnCXO-JoMLUjTSBcaDyynw", "name": "Gravfältet I Engelska Parken", "lat": 59.42172000000000, "lon": 17.96752900000000, "team_id": 3, "available_slots": 3, "bs": 129, "bc": 44, "rs": 51, "rc": 30, "ys": 58, "yc": 36},{"id": "69759ea5b8594df2b253763179b9bf77.16", "url": "https://lh3.googleusercontent.com/k2ahUq9ccGpNYGXsa2FkYkyuVrm83rut55WOM6Zx08ZU1EVhk_ZCa4uYk8Z6AKRsN23w9PFpAoQtVuRB0SlNUsjEVtw", "name": "Skinnaråsens IP", "lat": 59.48681000000000, "lon": 17.93240600000000, "team_id": 1, "available_slots": 3, "bs": 49, "bc": 119, "rs": 21, "rc": 76, "ys": 28, "yc": 73},{"id": "6bd76f2c9fef41599088081c4d5fe891.16", "url": "https://lh3.googleusercontent.com/0QI5AQe04YZCPEgW4EVeqF1aTR3yasokebLb2No0GaKfhEkeBDXys92a0TtjDTinl69xE5-neWi_GAg1i3iYsZ_p-w", "name": "Kartskylt vid Vaxmoratorpet", "lat": 59.46646700000000, "lon": 17.93816700000000, "team_id": 1, "available_slots": 5, "bs": 87, "bc": 42, "rs": 110, "rc": 43, "ys": 80, "yc": 13},{"id": "6d090b7834133021b8aeda772333422b.16", "url": "https://lh3.googleusercontent.com/Ndw8SmcKMLELKM2sbXm9777V_o20fF3579VRIyErnpyuzsEWSVZJfSfi30Cy0kpS-KzwcYowHmrFofwI_QGEdbEHdsdbAw-wUZe8jq7l", "name": "Lekplats på Lantgårdsvägen", "lat": 59.46359300000000, "lon": 17.89177800000000, "team_id": 2, "available_slots": 5, "bs": 31, "bc": 123, "rs": 29, "rc": 124, "ys": 24, "yc": 87},{"id": "6d39b7d57f984720818ee25ae853ff92.16", "url": "https://lh3.googleusercontent.com/YycuPBTGXi8XklPtGEeoVlavrbz3qYmFm2lVE88ByScMs1GvOEN05QR2ZfbZpL2lkwRGKgvizI83no1EgMa8jeeD_sQ", "name": "Sollentuna Boulehall", "lat": 59.43599600000000, "lon": 17.93922700000000, "team_id": 3, "available_slots": 0, "bs": 22, "bc": 94, "rs": 22, "rc": 121, "ys": 34, "yc": 141},{"id": "701fa1536b2d4990afd346c292d3b6eb.16", "url": "https://lh3.googleusercontent.com/B13immLMmJMmLORNHemhXtVn0CYzQE7qvenvc9kjX3I_TWh4AfBnpmMJ37wlwwy-ZW_4diYVKSoyLG0MqQ-W3k6Ksw", "name": "Stensunda Stall", "lat": 59.48777600000000, "lon": 17.94166700000000, "team_id": 1, "available_slots": 1, "bs": 168, "bc": 45, "rs": 29, "rc": 25, "ys": 36, "yc": 30},{"id": "71240ff5cdd434839c4a9d967a0d82ee.16", "url": "https://lh3.googleusercontent.com/YNF_OCGcVJaiP6oN_9sV6HStzm-lyYGB4XUC92fS3B-uFflcAam-RneP7tBX-6s_CvDh-16P-QSdpp5y2eIhNTzicTvxJhJgA6DYik9v", "name": "Anslagstavlan vid elljuspåret", "lat": 59.47431800000000, "lon": 17.88669100000000, "team_id": 3, "available_slots": 2, "bs": 157, "bc": 30, "rs": 124, "rc": 30, "ys": 63, "yc": 15},{"id": "714fd7fc7ede48d58cf2f9e5497d612f.16", "url": "https://lh3.googleusercontent.com/06Ky4CUF1fZ0lmZKiU2Kp1WMX_1OPTjEchI5CPLhFrm-_GZZMk8MNxAChEftRWVbrnaqyxtUYcwguJ-QNEYKh9lwS-8", "name": "Tegelhagen Information Board", "lat": 59.40403000000000, "lon": 17.98458900000000, "team_id": 3, "available_slots": 5, "bs": 47, "bc": 72, "rs": 67, "rc": 74, "ys": 41, "yc": 27},{"id": "7369960bb4c54d88a9a93b303603b7fb.16", "url": "https://lh3.googleusercontent.com/09DnofoMjgPNb1J2WzGie2OMGOSpgp_R2ZMU1cfQDjF87F94ZlFtBUEu0R-qOGa_0y5zO-HGskGhNqVK6RLUp93-_A", "name": "Curmans Playground", "lat": 59.48818000000000, "lon": 17.92745400000000, "team_id": 3, "available_slots": 3, "bs": 76, "bc": 68, "rs": 29, "rc": 49, "ys": 49, "yc": 54},{"id": "738dc0aac9f741e290d270e8bf88fd56.16", "url": "https://lh3.googleusercontent.com/gZTPdxg_5YlMpofFSj4IwEt6-rz1tqh_CS4C2H4dVw4d5HiHFOyPQkBzneaYsfb6oW0sfYa4Oy5ddtA1jthaUdr3wjDm", "name": "Äldre vägar", "lat": 59.44191300000000, "lon": 17.90237200000000, "team_id": 3, "available_slots": 5, "bs": 101, "bc": 56, "rs": 71, "rc": 33, "ys": 40, "yc": 33},{"id": "74a0245dabad4f67b4df4dbd3b9466cf.16", "url": "https://lh3.googleusercontent.com/TTlpnAI7YYmFr6KW8wUIVevHemHpHKZHD6faj9FOqP5nN9FjboYwMJnt8LhSmgcNBOilQ-Y0JiaqZgkTPVXthxL6k-Vk", "name": "Södra Törnskogens Naturreservat", "lat": 59.46353000000000, "lon": 17.96903400000000, "team_id": 1, "available_slots": 0, "bs": 217, "bc": 6, "rs": 271, "rc": 4, "ys": 36, "yc": 2},{"id": "74e479c121014143887187939239bf8f.16", "url": "https://lh3.googleusercontent.com/xocFJ9PPVtZIa3GhcIx5_hDWdgDUp9kJR6QyxwmfcjraX7KjFR7b5x1n2kSGttScfS6vKhC_ky9RjxWEUnURsDO6ONI", "name": "Norrviken Art Tunnel", "lat": 59.46488500000000, "lon": 17.91049900000000, "team_id": 1, "available_slots": 0, "bs": 146, "bc": 40, "rs": 46, "rc": 27, "ys": 67, "yc": 33},{"id": "750a4ae880944c04acae64c263ebd110.16", "url": "https://lh3.googleusercontent.com/0H2vru22UFUawc6p3O-IJIsoop-dsgC_yq-iDsbLiLN3eF09uzzTiGyobFkkLnRARewkzdGGoHVaYhRZPY5EDVGc06JGPSdh9igDzmluxA", "name": "Ravalshagens fotbollsplan", "lat": 59.45653700000000, "lon": 17.90943300000000, "team_id": 1, "available_slots": 5, "bs": 63, "bc": 78, "rs": 29, "rc": 57, "ys": 38, "yc": 76},{"id": "7581b810b11f4106a0e505212dbc4bff.16", "url": "https://lh3.googleusercontent.com/lMNWZNpZGQGjffq-q31XyOtZPKTB-AqXIHU28aa_bBjfmMHu9Mpzy2RZrdSPutz-NjBuPqXzs2gDwEibUiLbRByf3Bq9", "name": "Kanalvägens Lekplats", "lat": 59.42122900000000, "lon": 17.94331700000000, "team_id": 3, "available_slots": 2, "bs": 44, "bc": 151, "rs": 18, "rc": 107, "ys": 15, "yc": 64},{"id": "75f5efca4be2320cad02070c26db7f9f.16", "url": "https://lh3.googleusercontent.com/8oTA9xaFdZDtxP1dZUH2EsP1BlZv3jGBezFVGzP3xYLdOUsGxmkdcSVQnj5j32hT6aI-KkT5VohTY7Fwik-6xZ1ybSEnXoQtkQW7CM6W", "name": "Stenmjölsbrant", "lat": 59.42986600000000, "lon": 17.88082500000000, "team_id": 3, "available_slots": 4, "bs": 155, "bc": 3, "rs": 0, "rc": 0, "ys": 219, "yc": 5},{"id": "768fc34f1e4f4aa58d5da3528396cd6c.16", "url": "https://lh3.googleusercontent.com/MPTgEsXHhkjTC22Q7sVPOvhPISHo28X4JA6JJvdbSGJ0zqsaCvGOotsSLM2WhJ_m0LxRgOFlh2pHthCBxc3RfW64YiyH", "name": "Woodtracks", "lat": 59.42729100000000, "lon": 17.94553100000000, "team_id": 1, "available_slots": 4, "bs": 21, "bc": 117, "rs": 41, "rc": 140, "ys": 21, "yc": 59},{"id": "76cb1fa7903d3587b145d2479480e464.16", "url": "http://lh3.googleusercontent.com/F62kAsEC8rZkxj2Us76EJjTXheA0_FFdzWP_yyXpuFVnHEEAaGr6Tw7c94Lk0UydBquvITCC8MXdvIJo6lhHs3UjV0mbQgQaaNIRhDfvWw", "name": "Lekplats på Lomvägen", "lat": 59.43269800000000, "lon": 18.00190800000000, "team_id": 1, "available_slots": 3, "bs": 22, "bc": 179, "rs": 10, "rc": 9, "ys": 31, "yc": 176},{"id": "779cdc352a7943a9bea305730ab16ac9.16", "url": "https://lh3.googleusercontent.com/YJ89BsupdP9Zs6zzZzPrcpBIwi78zjKNnzD3dF9HOGeZNLf3WMNwS2HAv556U1NzoDrsucRgC6KXKQWZpLu9UqDiy8h0", "name": "Bergendahl Jordkällare", "lat": 59.42923800000000, "lon": 17.98383300000000, "team_id": 3, "available_slots": 5, "bs": 168, "bc": 27, "rs": 146, "rc": 10, "ys": 130, "yc": 26},{"id": "79cc8ea5c1c04a23851129f7b3ff5ccb.16", "url": "https://lh3.googleusercontent.com/p4yXqibYk4LcFNbOqMAQtWKaitOBs43E69fwz3C_FWcpq_4nMWF-jXpuVo8HeeuPKtiKNiWoM-obQPQPStaRYb7OnG8", "name": "Ryttarolympiaden 1956", "lat": 59.46333000000000, "lon": 17.86792900000000, "team_id": 0, "available_slots": 6, "bs": 150, "bc": 18, "rs": 208, "rc": 18, "ys": 153, "yc": 19},{"id": "7cb0a248a8d94880b852f57133aabad1.16", "url": "https://lh3.googleusercontent.com/4zS06ayAfO7X1zb9gRpGzTmHh6FZDwaobBlRc-imsM45IcsSU1qmyiqqpKCmUHWTwaz-B6RzlyX9YqfxpBD7l9zuBQ", "name": "Vänortsparken", "lat": 59.42484100000000, "lon": 17.94564100000000, "team_id": 1, "available_slots": 4, "bs": 43, "bc": 79, "rs": 28, "rc": 79, "ys": 40, "yc": 96},{"id": "7ff0987346694f23971299c3cd360950.16", "url": "https://lh3.googleusercontent.com/qb-_OF4UBOFxr60TmMwRMrEZYn51RsA3wiJzi5mX5GgsDLHVMKF2r-swZ6PEoI8BcxCcSeQYy93N5-NeWgbCT7V9Y3StTMUc1bAxfQ8", "name": "Garnisonsgravarna", "lat": 59.40555300000000, "lon": 17.97137700000000, "team_id": 1, "available_slots": 0, "bs": 90, "bc": 57, "rs": 61, "rc": 46, "ys": 65, "yc": 20},{"id": "83d3997fa14b4210baab89bdf6ecad97.16", "url": "https://lh3.googleusercontent.com/Ci2PV3CqOk13nKtq6XrdhuaYCpPlQ5UFJRKoFtDrDm4CnqQ_dEVz799BTJrsm-KrmSEpdkwgwgx1_UAZ9K_-1I0NIu8", "name": "Lekplats vid Väsjön", "lat": 59.45942600000000, "lon": 17.97381200000000, "team_id": 1, "available_slots": 2, "bs": 158, "bc": 42, "rs": 44, "rc": 23, "ys": 49, "yc": 31},{"id": "8458c3c53346415c8f29a741ac8a3557.16", "url": "https://lh3.googleusercontent.com/XCnInI3QPXzxTyPIBesU57fPJoD7AS4VJaJck3bBsHzhcZX2zHEKMnHY0V46P0Ah9o7HC4tqP-8mUjdXrQ_H9V9rMx8", "name": "Rösjöskogen North", "lat": 59.45148200000000, "lon": 17.99391700000000, "team_id": 3, "available_slots": 5, "bs": 678, "bc": 11, "rs": 110, "rc": 5, "ys": 175, "yc": 7},{"id": "850ada36a1f44fa09b9e1eeff723dcf2.16", "url": "https://lh3.googleusercontent.com/FVzKXJGNK_QJRU2OfxN1djDDuNl8j2MzbXXESwMAC5lx_Rz3ty_WjWnJrC1ibuw1uyqzu67Z-RzPKJycqOcBwQeIKg", "name": "Skogsparken I Kärrdal", "lat": 59.43406800000000, "lon": 17.99762500000000, "team_id": 2, "available_slots": 5, "bs": 29, "bc": 179, "rs": 10, "rc": 17, "ys": 24, "yc": 172},{"id": "852d3a43fd93453b800733dfa68f9f8a.16", "url": "https://lh3.googleusercontent.com/8clhJy8LVaT9c8au4RO8wwCQ7pDduqgMspKaRX_iruCWeVGWj1gG6kAqe88XBbHMsOKpIpfj9O7nqK1OTIrUVZfUfRfB", "name": "Segeluddens Utegym", "lat": 59.42934400000000, "lon": 17.96262700000000, "team_id": 3, "available_slots": 4, "bs": 51, "bc": 63, "rs": 39, "rc": 69, "ys": 55, "yc": 65},{"id": "8668ff16cf1b4962bbd97805f9507daa.16", "url": "https://lh3.googleusercontent.com/QyCxiuDaEGP9Ug-HzIXheDbLR7LR4pYVx3-63FoBDUB-VfeuDGepLv0nAnZ0OT2reWbqdA2LLJX009D6-C_cF8vhuSw", "name": "Skogsängsvägens Lekplats", "lat": 59.45121500000000, "lon": 17.95860300000000, "team_id": 1, "available_slots": 3, "bs": 72, "bc": 111, "rs": 11, "rc": 18, "ys": 13, "yc": 100},{"id": "876cfb9a3d37445ebc3790a95ebf09a2.16", "url": "https://lh3.googleusercontent.com/9oxhTyJwFY3I2l5MMBTlJEs-ALjHPyKv74bVgbYBYUzNuPHGvr6AxcBjBWNMKvHBfD56qEE8SxSUIsd76q4rlHpdOw", "name": "Stillhetens Kapell", "lat": 59.46709500000000, "lon": 17.91705600000000, "team_id": 1, "available_slots": 4, "bs": 82, "bc": 58, "rs": 57, "rc": 53, "ys": 61, "yc": 27},{"id": "87c2ec5d5f3040739617c20731364d60.16", "url": "https://lh3.googleusercontent.com/CixFMyb78DBQo1rnkyTZ0N-_8uhWymsM7BnP2omanCixsj25JOE4O3Y7drUyYjhLkORoTnD1zR4GVHsroZ51YJ3f5Mc", "name": "Iron Gate", "lat": 59.44163000000000, "lon": 17.95570000000000, "team_id": 1, "available_slots": 3, "bs": 28, "bc": 117, "rs": 34, "rc": 116, "ys": 25, "yc": 89},{"id": "8a6104e45f64463b8c788236a96f44a8.16", "url": "https://lh3.googleusercontent.com/ot0X_dOvU-eTMI2d5g6K1bCHjfJYY3myiOmyWqd-Ado_AibV0WfgSmzVf7BXh5y__nCz-2ewGuZUeV_ZBIWuwsAGGSo", "name": "Naturreservat", "lat": 59.43514000000000, "lon": 17.92034800000000, "team_id": 1, "available_slots": 0, "bs": 100, "bc": 39, "rs": 68, "rc": 34, "ys": 98, "yc": 31},{"id": "8ae103cb8a884206a5dad54d86af1bc8.16", "url": "https://lh3.googleusercontent.com/2-dK7Ob07LL_iz4gS-WVg4bG1FhgLxg__Xnnz12rvl1MXie_hmd_0rWC5DzbBUN3NtPt2UdOAORhAKR7o6OXaqhTx9c", "name": "OS 1956 - Hinder 10", "lat": 59.47277300000000, "lon": 17.85348200000000, "team_id": 3, "available_slots": 5, "bs": 561, "bc": 7, "rs": 153, "rc": 5, "ys": 584, "yc": 7},{"id": "8b71089f4b5c437fbcc14f24402208ef.16", "url": "https://lh3.googleusercontent.com/89XVWkF1mLmLpoVFobCqU6-ZONgMlC59Un9x7_c0DbPour9_H5JEtUob5SZByEqQEOb9SOCGq3V8UOfCBXeaEOro3uny", "name": "Infotavla Naturreservat Tegelhagens Strandpromenad", "lat": 59.41119000000000, "lon": 17.98951300000000, "team_id": 1, "available_slots": 2, "bs": 76, "bc": 55, "rs": 45, "rc": 40, "ys": 61, "yc": 54},{"id": "8c8e12c6d6484ca09cce30622a601ec1.16", "url": "https://lh3.googleusercontent.com/xRvDIh-v_D7jcBJv75c6BZJGdOyonFHJ06rA4IfBqfcf6RMPZF8XoBpT9Vkp3Tzmt4asjPMvR_eZ1SsTp-RH7RmBFj4S", "name": "Ancient Viking Stone", "lat": 59.46698100000000, "lon": 17.92668900000000, "team_id": 2, "available_slots": 5, "bs": 232, "bc": 29, "rs": 66, "rc": 20, "ys": 63, "yc": 20},{"id": "8d11daa16dcc3fb6975c49f363cc98cd.16", "url": "https://lh3.googleusercontent.com/FNtP-WDjt25l4pEao4Y7F_yUTnP-Sn5wcztID7E2-ZmbAMcXupnPz0f_9cyVVf5qbU1UX95w93pbuAJ_Yi8b-i2Frgubb_WeiR0LziWY", "name": "Puls och styrka #11", "lat": 59.46727200000000, "lon": 17.88959400000000, "team_id": 1, "available_slots": 5, "bs": 166, "bc": 27, "rs": 143, "rc": 21, "ys": 101, "yc": 19},{"id": "8d187b4dcfbc4bf5aaaef676efba43d4.16", "url": "https://lh3.googleusercontent.com/3vQWJ18Oqv-Vs9ptG2Fbeg5fezBzlAgqLukLy1mO9pJmCJ7CkigvpDKxWvcgkBZnA8-BL1q-qq_3sFh2MUg6_OjgKM7D", "name": "Gröndals fotbollsplan", "lat": 59.47278400000000, "lon": 17.90954200000000, "team_id": 1, "available_slots": 5, "bs": 58, "bc": 86, "rs": 43, "rc": 55, "ys": 25, "yc": 68},{"id": "8d2ec7d900e54274a8a4fbc47fe2d2c6.16", "url": "https://lh3.googleusercontent.com/NRJUN7IirLTDALFDw-VUYUOmZqVQKep4ahxNqgfl8-QZAbmQujk-K4v_M5piJ9uhbfqM28OEWzno1-PsEX1rpadgrwA", "name": null, "lat": 59.46676600000000, "lon": 17.86747500000000, "team_id": 1, "available_slots": 2, "bs": 268, "bc": 8, "rs": 495, "rc": 4, "ys": 272, "yc": 6},{"id": "91be3802d17b4955a1ee726d0a562743.16", "url": "https://lh3.googleusercontent.com/fc62SXTIazVsD8hZTd5Pnds3lAOgXFoGjEiW63E3NxkTb5oZq2P2_aHSutSvtIUK9AnyxJIQ-92SvnrUewXBT36wQ00", "name": "Badplats Trollholmen", "lat": 59.48000300000000, "lon": 17.92809500000000, "team_id": 2, "available_slots": 4, "bs": 61, "bc": 97, "rs": 26, "rc": 85, "ys": 28, "yc": 47},{"id": "91ef6d47165f4400ad9b469a93042df0.16", "url": "https://lh3.googleusercontent.com/00Hz9nEeSWshzQ3sijeQ1-K77Ey7hVH77Sl2YGFDUanEmQ5ZA3eoU9G25523gk0NhkX3n8nFJPhzf1Qv4K-ln6A1_cI", "name": "Klätterkana", "lat": 59.48333400000000, "lon": 17.89243900000000, "team_id": 1, "available_slots": 0, "bs": 99, "bc": 82, "rs": 9, "rc": 52, "ys": 17, "yc": 41},{"id": "9282b734067f441cb5b3fc72435d157d.16", "url": "https://lh3.googleusercontent.com/QA_M8yrY_pITJ0LyVHM7H9d8z8nfH15sGpdLqkUdjR7XUAuSz32vPnVA__5ne6eAeJxH9hmmH-GidKw_uRVFTIOb4K0", "name": "Wooden bear", "lat": 59.43029400000000, "lon": 17.99233900000000, "team_id": 1, "available_slots": 4, "bs": 69, "bc": 55, "rs": 58, "rc": 41, "ys": 68, "yc": 47},{"id": "93de4383ab174ec392a0580927213791.16", "url": "https://lh3.googleusercontent.com/LmWrZlLVyPuh28cSR68N5iE_ElTE3qH6KH1zQsXQaS6yAzFn7XDqr6BIAJl3gxH81ePSjcwyJVtfbHPofyiLeup-6A", "name": "Naturreservat rösjöskogen", "lat": 59.45410500000000, "lon": 17.98410300000000, "team_id": 3, "available_slots": 0, "bs": 70, "bc": 59, "rs": 33, "rc": 16, "ys": 82, "yc": 54},{"id": "96865a7b55e339fc84103edbdf4cde5f.16", "url": "https://lh3.googleusercontent.com/wH3VliGQUc_9b2lUwOnFkY4599TUgVvdeFFhVRef2nVKn1-tXXe6Aq2sNqAzNG3Ih9wAjTz5SIm7SDREF6PJbvCBG4LEUPhAveXGRsI", "name": "Bro över brandvattengata", "lat": 59.45978100000000, "lon": 17.87920500000000, "team_id": 3, "available_slots": 2, "bs": 593, "bc": 2, "rs": 307, "rc": 1, "ys": 0, "yc": 0},{"id": "968cb40a7b674b74b28b771ce5203299.16", "url": "https://lh3.googleusercontent.com/WsY2ENWGC94W7FnszVIgHYjLicNSK34sZ2v3aZ4gAXOI2BDj80rKuBTzjUzXvDAsyis2f0SQMIFBgHeXo2ZU7zYsCYU", "name": "Hedvigsdal", "lat": 59.41310900000000, "lon": 17.97392100000000, "team_id": 1, "available_slots": 0, "bs": 71, "bc": 59, "rs": 47, "rc": 36, "ys": 41, "yc": 72},{"id": "97743d9e094043c2ba5444d0cecaf7ba.16", "url": "https://lh3.googleusercontent.com/H-vDxId06XN_Evte5Pjmdle-j9KGGhJknEalIWwQoYYhcbWkpoAYLHAKYpoqtv02seaAF6D6qoOhowDoVTwFB4yIfXh-", "name": "Vinterfåglar #2", "lat": 59.46225800000000, "lon": 17.86004800000000, "team_id": 3, "available_slots": 5, "bs": 237, "bc": 17, "rs": 165, "rc": 13, "ys": 197, "yc": 15},{"id": "978b3de3487748fabd689e60ab3546a9.16", "url": "https://lh3.googleusercontent.com/1DiGqGGznHPvL60y6-5PKFpvdqAn4KfXdvfepbtaPfG6hYgWxcXZuSvSxgp8lC8uasq0N5qOuCGpwjhiFaOhw4mHzCA", "name": "Järvafältet", "lat": 59.43434900000000, "lon": 17.92068100000000, "team_id": 1, "available_slots": 0, "bs": 146, "bc": 31, "rs": 104, "rc": 29, "ys": 82, "yc": 21},{"id": "995fd0281a3a46f5a2258bb8c1dc27fa.16", "url": "https://lh3.googleusercontent.com/ZLAE279BhrUTOaOScFoibbaIf5L6Q6VLC9-EeVBGuGie4jHE8x98J2wwz5OGXjck3xH30_lfdZkG9vsheeyC0wdo_Zc", "name": "Parkleken på Lövåsvägen", "lat": 59.41906900000000, "lon": 17.95844600000000, "team_id": 1, "available_slots": 1, "bs": 60, "bc": 122, "rs": 12, "rc": 16, "ys": 15, "yc": 111},{"id": "9afcb163012f4f12866b427508f27509.16", "url": "https://lh3.googleusercontent.com/3OPy688MWh5W7Juah1vTzvaace95wXB77rnngLCVwGSMHKOr2YfzFuusD5GE-cAS8r-WsMZ49aGE_RT6NA6CAOnlIw", "name": "Uvbergsvägens Lekplats", "lat": 59.45652800000000, "lon": 17.94502100000000, "team_id": 2, "available_slots": 5, "bs": 90, "bc": 66, "rs": 51, "rc": 56, "ys": 36, "yc": 17},{"id": "9c95bd7cf1044c30be57b04b56a1252a.16", "url": "https://lh3.googleusercontent.com/XcY3Fpaal2BYfGw3Eqi5LGHKFZsbtQ0ZCNSZec8b0eFu0f3N1SJJvSGHrkInK8Usw7_mLhw1jIIYMOlzYbZnaCnJ7cjI", "name": "Gäddleken", "lat": 59.42830200000000, "lon": 17.95028100000000, "team_id": 1, "available_slots": 0, "bs": 21, "bc": 168, "rs": 20, "rc": 137, "ys": 21, "yc": 156},{"id": "9d7a3eba70774852b0daa9bedf786d05.16", "url": "https://lh3.googleusercontent.com/Ne98Y9xJPUPKWcS1VagDhsspcxYHZKBsA9VF9VemkBqEprJPHBBHmRIsY8a2OuSNWhTHdni25Mg7hIfwwpOMPuyZnZk", "name": "Malungsvägens lekplats", "lat": 59.46311300000000, "lon": 17.90717300000000, "team_id": 3, "available_slots": 5, "bs": 48, "bc": 117, "rs": 13, "rc": 18, "ys": 30, "yc": 118},{"id": "9e285ad7b9ce416f80c155c202a6905a.16", "url": "https://lh3.googleusercontent.com/70f4Li94hIcDlN97L-B8Qt6eo8EueMxGyPcR6S9bCf06UIC9EdFcS5bHCymhqkVX2ljv7mrDp9C5Lfr-hZHuKn6LBWg", "name": "Blomsterutsmyckning", "lat": 59.41906200000000, "lon": 17.92772500000000, "team_id": 1, "available_slots": 0, "bs": 126, "bc": 28, "rs": 88, "rc": 17, "ys": 136, "yc": 31},{"id": "9eae24f4d713408a966a0bceed3ab24b.16", "url": "https://lh3.googleusercontent.com/LmOLtVWX8up_CsMYeRTZjKf4CW52RBu6C5InLc87CCvtNW5u_440pHdyEf9dtcbMEvSIx3O9wXw7ryplIYwjFn89sg", "name": "Soptunneblomma", "lat": 59.41003300000000, "lon": 17.98174800000000, "team_id": 3, "available_slots": 4, "bs": 37, "bc": 54, "rs": 81, "rc": 65, "ys": 38, "yc": 54},{"id": "a248ae5a8f1e4706bdb581ed93200d15.16", "url": "https://lh3.googleusercontent.com/ZAsqAPDAyiAiCnTrgyYhLaKFnSJdF65fvW67HwPGddCG9xoySZynqVag0siv-zGcr7frL-cOxhVM5cpLVy8PVQ2ncVs", "name": "Vector Polygons", "lat": 59.44599700000000, "lon": 17.95923700000000, "team_id": 3, "available_slots": 0, "bs": 69, "bc": 59, "rs": 41, "rc": 37, "ys": 68, "yc": 55},{"id": "a264a151ce16473887c17968f15280a5.16", "url": "https://lh3.googleusercontent.com/CACa41ujuwbwNaHUxJ-FsUaxWIUXcYK4LgAAFLS3y7rN4oZ5L_4ee9dB3dvsum5noxvPoKLanDvLpZ2gtGzEYF2Z24hj", "name": "Edsviks Klocktorn", "lat": 59.44052700000000, "lon": 17.95722800000000, "team_id": 1, "available_slots": 0, "bs": 22, "bc": 115, "rs": 36, "rc": 142, "ys": 20, "yc": 84},{"id": "a95fdb25e8774a16a366aeaf39c846b0.16", "url": "https://lh3.googleusercontent.com/mjcfhF9OOP_d7Bry6_yXWO-lmFs5B0Kvk3xEyHGv0Py6iKiC2Wjm0WtlcFlx1cmlXowm4pzl0WhT-YpGEAm1f4Qiiw", "name": "Sollentuna Fotbollshall", "lat": 59.45192300000000, "lon": 17.92863500000000, "team_id": 2, "available_slots": 2, "bs": 51, "bc": 75, "rs": 47, "rc": 33, "ys": 52, "yc": 79},{"id": "aa224fa2ea15465585b401d9a6628c05.16", "url": "https://lh3.googleusercontent.com/dSlW0w13fO_b93Iuv3fAqM5YEMFLMhGmrFHpE_4kvQMcCewpiNYAoA_F8rDEiZmE7sxqxMIms3fwkuvQZxr5HNFIlAD5", "name": "Borgen", "lat": 59.43054500000000, "lon": 18.00463400000000, "team_id": 3, "available_slots": 5, "bs": 78, "bc": 80, "rs": 36, "rc": 10, "ys": 41, "yc": 70},{"id": "aa5264c56aa84366b10e608c8569666c.16", "url": "https://lh3.googleusercontent.com/6wdaLFrf00At0ZGO9hEp4T9VbX5trOeWE_gyTv4CmfP-GmDS3PHevlQM5AO1IiGsBs6YuGdo36wHjWoEkh54EgEF41z9", "name": "Bodaäng Korset", "lat": 59.46226400000000, "lon": 17.85182900000000, "team_id": 3, "available_slots": 5, "bs": 142, "bc": 20, "rs": 71, "rc": 24, "ys": 196, "yc": 24},{"id": "aa8d81eadd2840a081a38bbeefda6cf7.16", "url": "https://lh3.googleusercontent.com/UB_Wp7X1QswYFHuBIqOKeDoBEs6dSycVz7P7x03KlphgJhnfMwDhId8Ay9Tyo4Y9fPr5w5jhCp4mNQYuqN8laga9Ikg", "name": "The Gateway To Törnskogen", "lat": 59.46105900000000, "lon": 17.93948400000000, "team_id": 1, "available_slots": 3, "bs": 66, "bc": 61, "rs": 73, "rc": 62, "ys": 44, "yc": 22},{"id": "aebcf1db00f2428b9966ed8512479ed2.16", "url": "https://lh3.googleusercontent.com/LTpbuIpuYN-iW1ErWf7XVGc3-wjZUG1VvXj7mf8Y-uSh_6YkMyDKwJIAqoL0vy8ONO4apL6MuHNcoTrRqQwHSdsY5n4", "name": "Bebyggelselämningar i Viby", "lat": 59.45937200000000, "lon": 17.90103400000000, "team_id": 1, "available_slots": 3, "bs": 51, "bc": 121, "rs": 24, "rc": 24, "ys": 24, "yc": 107},{"id": "afab215480d64beaa85bcfe010e3eb58.16", "url": "http://lh3.googleusercontent.com/tb1iIADcpKYyvR7eyn6V2V9OOgTcloHMyEhZqx0RmOTKQQrrk0FJACTec0PRdeGoWIUt0iM2NltD8kd7GxolYrZlVe1z", "name": "Rösjön Runt", "lat": 59.44364400000000, "lon": 17.99375100000000, "team_id": 1, "available_slots": 2, "bs": 133, "bc": 33, "rs": 129, "rc": 8, "ys": 122, "yc": 31},{"id": "b05a0bd95c5447deaf0c6897e629d117.16", "url": "https://lh3.googleusercontent.com/RwqpvVgglwmxqO5cqVJt294eG3iUyxhmTkNDg7x1fSs__u552MspHIcC0eQZCqOZ-CmzPZcqyzpAPFjz7YQe2vXRy1E", "name": "Lekplats Ytterbyvägen", "lat": 59.47455400000000, "lon": 17.89630400000000, "team_id": 3, "available_slots": 0, "bs": 28, "bc": 212, "rs": 7, "rc": 20, "ys": 17, "yc": 205},{"id": "b17db4d803434124bf9b90c7a76c24c1.16", "url": "https://lh3.googleusercontent.com/KCNmfAr0ojv1gwIx5C-fWrjh7_F4m5GLBgyGIMekK-0DSZdxq7p6wSeTEIk6etJ9ZNX19hBeLl3eeMGdEHyNGVTH3bU", "name": "Rikets sal - Jehovas vittnen", "lat": 59.44407300000000, "lon": 17.93072400000000, "team_id": 2, "available_slots": 2, "bs": 33, "bc": 113, "rs": 17, "rc": 73, "ys": 36, "yc": 121},{"id": "b44f94991c444e44a8fe1f1d73ef51a4.16", "url": "https://lh3.googleusercontent.com/oUv1RFz_TwEwaAfVqzIkGaqxKBj9ecg1ogqT4vnD1QTeFw4uov0kSLUwCP5TQIsGWgSQFBJxxruwyE_5f98oRBMzYemBI0Qne4S6EchN", "name": "Edsbergs Tennishall", "lat": 59.45003100000000, "lon": 17.96704700000000, "team_id": 1, "available_slots": 0, "bs": 69, "bc": 72, "rs": 42, "rc": 47, "ys": 38, "yc": 63},{"id": "b5d7a63415c1373f98bfae8e09fb4ad8.16", "url": "https://lh3.googleusercontent.com/zG5gBEmH8U1f5T3v8imxk7rEsEuDxroQSdP5ULQQVHXXJXHpy9HbcPJZMlKDK3AsLwv5wVzwWU8PGIHex7aw7Rvq_x1CnmQv6CxRi08t", "name": "Vägvisare Barsäll", "lat": 59.43219500000000, "lon": 17.88579000000000, "team_id": 2, "available_slots": 3, "bs": 113, "bc": 16, "rs": 124, "rc": 12, "ys": 101, "yc": 20},{"id": "b6bb21075ebd44489e32771c87e87477.16", "url": "https://lh3.googleusercontent.com/oCcXusBfjhW8bSB90HUWOAemEi609Xk7f8nER2LX4HeLv4q-GBvUFWw1oIT6eJ0aFibiFtZ85cHoL9aImkkd7ug4iZI", "name": "Badplats Ravalen", "lat": 59.45389400000000, "lon": 17.90804600000000, "team_id": 2, "available_slots": 5, "bs": 57, "bc": 22, "rs": 107, "rc": 23, "ys": 186, "yc": 30},{"id": "b6ee4fedcaec41b3b3e76182af83436b.16", "url": "https://lh3.googleusercontent.com/nfXO3hE_aex0g1kSUvyvdSW1KttWQPIguy763BRRTtJ8dPMNQI6eHJcYswL7aGihD9K_86DhChp2m2wD5Gwn0aTk2xc", "name": "Sunbathing Cats", "lat": 59.39891100000000, "lon": 17.98416400000000, "team_id": 1, "available_slots": 5, "bs": 31, "bc": 132, "rs": 19, "rc": 113, "ys": 34, "yc": 96},{"id": "b7058d120e7a4ad6af2e2b2b84f99daf.16", "url": "https://lh3.googleusercontent.com/kf_Kc4mfjavci-4XP1yu3Z_TWi1jnEOrGC-38PBR-9RuOLIeD24EPYG5lkhKA6Z3IBMx0ksPo46vyEQ-2KJZmmmRS4A", "name": "Tunnel Art Stinsen", "lat": 59.43599100000000, "lon": 17.94053800000000, "team_id": 3, "available_slots": 0, "bs": 25, "bc": 89, "rs": 20, "rc": 116, "ys": 34, "yc": 141},{"id": "b7553b2fbeb24a9e98cc95ec529566a2.16", "url": "https://lh3.googleusercontent.com/mDmUtNrLnOo5UWPx4pQByoYnwIdBM1ImI8AUQ87hbTltCCBgTBwiysZv5PTr9YNxlaUf6b9_Sa4eWyTYK9QM-OvNwHY", "name": "Kummelby Kyrka", "lat": 59.41568500000000, "lon": 17.96168700000000, "team_id": 1, "available_slots": 0, "bs": 67, "bc": 102, "rs": 19, "rc": 57, "ys": 22, "yc": 69},{"id": "baa4e56647064c9e93532e218e6962f4.16", "url": "https://lh3.googleusercontent.com/j6vjFCTv4lCvinNBVn7JL6j7KOEiv9mO1kIthGQLrB2BLEsYNFEoULUaySijSef75D9f_ihktWEtIYBtndT7aq8BkJY", "name": "Norrorts Polismästardistrikt", "lat": 59.42630000000000, "lon": 17.94974700000000, "team_id": 1, "available_slots": 0, "bs": 17, "bc": 132, "rs": 19, "rc": 85, "ys": 34, "yc": 163},{"id": "baa84adc860f49a7983b0b253905c383.16", "url": "https://lh3.googleusercontent.com/zxNUyZASFNsc6GNqGcKxmIlAynzsWlEbT5L_pCiopbkod5E3f8Ycgz61bF3ejQH4xLVbB27zHYg_SyyVC5UwNtg2MAg", "name": "Capital Iron Y", "lat": 59.42971100000000, "lon": 17.94228700000000, "team_id": 1, "available_slots": 0, "bs": 40, "bc": 126, "rs": 18, "rc": 90, "ys": 25, "yc": 114},{"id": "bc58a6d090ed47a7a3b242e377d0e8e7.11", "url": "https://lh3.googleusercontent.com/j5F8_c6_jxve2RpdvZl515uw3jrBzanHvl2t6hiNyYEzTak9BJt3vUAYR1_hC3FjtsYIgXCr3n0E-7ZPL38YtKNV_8Y", "name": "Deep Valley Art", "lat": 59.44480500000000, "lon": 17.94728400000000, "team_id": 0, "available_slots": 6, "bs": 24, "bc": 135, "rs": 19, "rc": 148, "ys": 24, "yc": 149},{"id": "bc91ed4066f444e2b28c92396ab4438f.16", "url": "https://lh3.googleusercontent.com/Yg48QbeAUBSc-Wk9_WeSLZE2vSBdqttAaouE3BmAxNUj1WY89ifVqOOpgEhUp_rmkMbJecY43IPErZ7soY8qQBaUgOI", "name": "Alien Landing Site", "lat": 59.42655400000000, "lon": 17.94317800000000, "team_id": 1, "available_slots": 4, "bs": 25, "bc": 59, "rs": 26, "rc": 88, "ys": 54, "yc": 106},{"id": "bd66dbc789024388996a1c6211a36a21.16", "url": "https://lh3.googleusercontent.com/XnJmly1AtRXzk9AxOvgiaLea82wGoGoCUz_AKULl3-fHeuTki93lSRtz9RO3MM9hZX0ogCD5490RXLIm2ndvvvU1boY", "name": "Floras Trädgård", "lat": 59.44106400000000, "lon": 17.89830300000000, "team_id": 0, "available_slots": 6, "bs": 115, "bc": 48, "rs": 60, "rc": 38, "ys": 48, "yc": 32},{"id": "bd773dff97784246a2362175614459ad.16", "url": "https://lh3.googleusercontent.com/HANh8LogxHl0pX5IzJKLbEE3qY0MIA_IdTdrXtDYqpPr40nrY3CI5o5WuWMSub2947tLFZ8tF5z89idJamUH__9esg", "name": "Vattentornet Tunberget", "lat": 59.44898300000000, "lon": 17.94775300000000, "team_id": 1, "available_slots": 1, "bs": 460, "bc": 12, "rs": 79, "rc": 10, "ys": 292, "yc": 10},{"id": "c0e7464c02883eb3b12f1134f89e6ae3.16", "url": "https://lh3.googleusercontent.com/J2q9bz0x-argujqcrBW7D7a8ivjeUpqXVdMFtBPRMDwyCDv6HjMPhIYlpHCXMvYT0hZrrYEXJYEhttDRqxhgSeoahQG7bC_U0qFEn76_", "name": "Kung Hans vägs stora lekplats", "lat": 59.47517100000000, "lon": 17.91104400000000, "team_id": 1, "available_slots": 4, "bs": 86, "bc": 78, "rs": 20, "rc": 41, "ys": 30, "yc": 66},{"id": "c10810345bb64b2397156148d09135e1.11", "url": "https://lh3.googleusercontent.com/knXbzVxCn-zdxBy33_wmLzu9OsF-QI5mno5VJgS4iU-z1cJBeHopaCfdPt5VuZGc_hkdszSSb4ckbT60hTRlAGzPkyY", "name": "Infra City Ball", "lat": 59.49583600000000, "lon": 17.92409500000000, "team_id": 3, "available_slots": 3, "bs": 36, "bc": 118, "rs": 21, "rc": 114, "ys": 29, "yc": 93},{"id": "c1bd0bb7bc294c4c8488f7e711e23a9e.16", "url": "https://lh3.googleusercontent.com/rkKZysLmKzuD0oaOTSUCoFmu-8R1JE5GM_1ARnToYyfxFESSiqYwqo5yvL440Ad9JySrQDo_ZSNSPwF3Jh0FkELkrRE", "name": "Vattentornet Helenelund", "lat": 59.40871300000000, "lon": 17.96530200000000, "team_id": 1, "available_slots": 4, "bs": 163, "bc": 54, "rs": 4, "rc": 15, "ys": 16, "yc": 36},{"id": "c279c4891f584ed7ba4c9bf1f1ebc971.16", "url": "https://lh3.googleusercontent.com/VuaaxQW-qh8TtkmAC-DVge1gOgwl1z1ncsN6Nh5-dXn8G7rb2YMl38H0P-_buihp0r4tcYfLOT3SmKoIlwHQ0yoPPCg", "name": "Columbarium", "lat": 59.46651700000000, "lon": 17.91583200000000, "team_id": 3, "available_slots": 5, "bs": 39, "bc": 74, "rs": 76, "rc": 79, "ys": 18, "yc": 31},{"id": "c2af242528eb4667bdc0fc86ae6629f7.16", "url": "https://lh3.googleusercontent.com/UjNBkU9Wd-jPy0QZd-hiVyVt6icED6Qz6SeaogBvqaBi6idd0LE59p2v561jW6ZFa_eLReY29QE9SI5lXdz8sGMEHn0", "name": "Svartinge golfklubb", "lat": 59.48668000000000, "lon": 17.87243300000000, "team_id": 2, "available_slots": 4, "bs": 640, "bc": 7, "rs": 401, "rc": 8, "ys": 340, "yc": 4},{"id": "c3ace5e8640544b08f604bd5a9ff855a.16", "url": "https://lh3.googleusercontent.com/XoeWcDME2BL1rj9CXcjCZmdXXIZhvbSTkaSAprM9_v0j1h9wVL09qvLv5MZ132pnOdvMi2ZMuBd87_SRdelc1s2M8EPq", "name": "Vinterfåglar", "lat": 59.47412100000000, "lon": 17.85831100000000, "team_id": 2, "available_slots": 5, "bs": 457, "bc": 10, "rs": 645, "rc": 6, "ys": 217, "yc": 3},{"id": "c40efe99e7af38179b4f254d78297267.16", "url": "https://lh3.googleusercontent.com/1OJNpwYoJzSuJRK1mF3YGFS4ODBzQ5KafirgZQ0p1H1PZ6WWyr70Uur2oqQDOrd-b-RTeEXYPQR8byNS9TS5-twpGgq3xAaM55Z3dBqkhg", "name": "Viby bokholk", "lat": 59.46182600000000, "lon": 17.89034200000000, "team_id": 2, "available_slots": 0, "bs": 23, "bc": 133, "rs": 16, "rc": 171, "ys": 19, "yc": 188},{"id": "c458d60889134c97af9426a2eb6eeb81.16", "url": "https://lh3.googleusercontent.com/Kb5mJxnQDR6IUB2bTfXyzgc-G1_Moq9lXjhhT2YvQTkaHc4nTj5iZywh7dt7DgqzyTrjaZB5Rdsku49AMKowZFb1GOYA", "name": "Vattenrutsch", "lat": 59.43892300000000, "lon": 17.99310900000000, "team_id": 2, "available_slots": 5, "bs": 84, "bc": 57, "rs": 35, "rc": 28, "ys": 75, "yc": 48},{"id": "c58707e88a4742c99e49ffb0c406087d.16", "url": "http://lh3.googleusercontent.com/0O4Um162aFXeh0l6Jl3mVS0a65W_eOn9bAnweySWqZQ5NnYc2YXX_AX5xMbF6Yzfz9wmh7AGN6OGNE_7mSJ7YBdgDq_t", "name": "Silverdalshallen", "lat": 59.40148500000000, "lon": 17.98095200000000, "team_id": 3, "available_slots": 5, "bs": 40, "bc": 74, "rs": 55, "rc": 48, "ys": 50, "yc": 77},{"id": "c8a2db25b38e47fda5dacffb4344bbdf.16", "url": "https://lh3.googleusercontent.com/_xCOa1fxDR9Rji11R5Yh9AMFLCWFdMQIGv82Z5dbTBBELZS0ceDL8i-wG4yJN2l04S2AALwfHmY6Y_AbbG1vq9s2pMg", "name": "Gravfält I Tureberg", "lat": 59.43122200000000, "lon": 17.94490300000000, "team_id": 2, "available_slots": 2, "bs": 35, "bc": 123, "rs": 37, "rc": 124, "ys": 16, "yc": 34},{"id": "c8f48c64c186435eb84517f17a6fda15.16", "url": "https://lh3.googleusercontent.com/FhZnaavuQygcdeF6sU6LhIdJhB9ui24iDtTJujNkQJw5qBDvI0jrc6bcHg6x0rTk2s5ySRBkq6enIopyQ79w9VFqcQ", "name": "Tuff Tuff Tåget", "lat": 59.43401900000000, "lon": 17.93441300000000, "team_id": 1, "available_slots": 1, "bs": 45, "bc": 92, "rs": 34, "rc": 82, "ys": 31, "yc": 80},{"id": "cb09d5adc1ea4da980aa8e9be69f3973.16", "url": "https://lh3.googleusercontent.com/J_VV4lTJl0iGWgU_aP6Q-AGuqxle8UlW0_PK7sxYR40uJJSYY75Y4xKBgCGiwz8lJJv2l8RPdIi-jc4Zk_xeRQOMqjI", "name": "Viby BP", "lat": 59.45699500000000, "lon": 17.89141800000000, "team_id": 2, "available_slots": 3, "bs": 27, "bc": 125, "rs": 28, "rc": 110, "ys": 25, "yc": 109},{"id": "d0b43e163b3d4712b3a236f116780cc9.16", "url": "https://lh3.googleusercontent.com/hB_uaB012xgb0mewLKYsR3DNNs1c1WrHIwNrR9WkJ0itF2CXnwf9hlEQky3AvtPV5dRo_Zvt3mnBSLyzSQCLgjKEwkY", "name": "Törnskogen", "lat": 59.45957800000000, "lon": 17.95981600000000, "team_id": 2, "available_slots": 3, "bs": 198, "bc": 27, "rs": 115, "rc": 24, "ys": 140, "yc": 6},{"id": "d0c37aa6703d41fd99ce4beb986ef908.16", "url": "https://lh3.googleusercontent.com/epgauZLCa6qEXGcZW8tIGbyb-RMnxFDDLwrh9Tpe_lSPWHYAF65G-InKDTajTZFfUqKnGpwXMLtQWmD0KAG6bHGLvk4", "name": "Häggviks station", "lat": 59.44414800000000, "lon": 17.93254100000000, "team_id": 2, "available_slots": 0, "bs": 30, "bc": 151, "rs": 16, "rc": 91, "ys": 22, "yc": 149},{"id": "d0e35435282b4acbb4ccec05188a91b8.16", "url": "https://lh3.googleusercontent.com/lF87vgpiVcF5OMIQk3rLlLf6yftdXcWTAcFFQbt3qY3H9PAbdznfHFn98PmihVs65XzHnRQxVDP2NwMhe5zsfy1tQyIi", "name": "Allmän grillplats Eken.", "lat": 59.44458700000000, "lon": 17.89485700000000, "team_id": 2, "available_slots": 4, "bs": 90, "bc": 25, "rs": 30, "rc": 11, "ys": 46, "yc": 20},{"id": "d10af2d0f9dd4a629c2fbb6cfdf95e5f.11", "url": "https://lh3.googleusercontent.com/d1K_1ngDzXfDQamt9iMZBpTGU2tyODcFwgAxS7rG5zP1d8-MFLGY_PmbvGa6MeT6daG4jIgmwbl9Gbpw5wvQHuVpJg", "name": "The 1912 Stockholm Marathon", "lat": 59.46681500000000, "lon": 17.91948900000000, "team_id": 3, "available_slots": 3, "bs": 36, "bc": 90, "rs": 47, "rc": 97, "ys": 32, "yc": 50},{"id": "d18f12134881447f8ea9351a5bf8ab02.16", "url": "https://lh3.googleusercontent.com/YbTHI-rfZ6TcIvngBe2M8MCTPMkIJLTq_Cw201BWx6zCh4STWm6eSyfo-GD5FhRQEjOg7AbZPc2g1doLqkww-DccbAg", "name": "Helenelund Hindu Temple", "lat": 59.41202100000000, "lon": 17.96064700000000, "team_id": 3, "available_slots": 0, "bs": 92, "bc": 54, "rs": 42, "rc": 56, "ys": 58, "yc": 34},{"id": "d19fdaf97c594cc1b5b03ec02b07f7da.16", "url": "https://lh3.googleusercontent.com/yB62eeuur5cm_xcNUOipYYLD4t07BZyf6D_1ApTwCk438XXI9bIQMkkm9dqMeNeA7JBDeajARXkJZ-ZbowBIvQE1hpYH", "name": "Sjöbergs Badplats", "lat": 59.42689100000000, "lon": 17.98843900000000, "team_id": 1, "available_slots": 1, "bs": 160, "bc": 43, "rs": 51, "rc": 13, "ys": 52, "yc": 34},{"id": "d37e15daeeb74edbb5f8ffbfeef5d21e.16", "url": "https://lh3.googleusercontent.com/nUiBP3lhyPPyYubvokVmJALYfRK9kbP5RRUylMY8sLYA6CdR3pTrbiiw0D2dhlI9bcZrddHp6DPOVAFH59we4xXwy-ZF", "name": "Gillbo Playground", "lat": 59.47741400000000, "lon": 17.89783000000000, "team_id": 1, "available_slots": 0, "bs": 63, "bc": 99, "rs": 21, "rc": 53, "ys": 30, "yc": 70},{"id": "d538b6d8df774d8e9a95310f4cdb81e6.16", "url": "https://lh3.googleusercontent.com/cqsm15G1hRPaI-Y5EeDyKh5JuBn9geIfXHTUXQ8qr2fqUnswDjyq_mOaLIMUVBIgVQQLKJAR_sEINji4HuOfrLhTAYc", "name": "Linbaneparken på Basunvägen", "lat": 59.46139400000000, "lon": 17.88755300000000, "team_id": 2, "available_slots": 4, "bs": 62, "bc": 84, "rs": 34, "rc": 77, "ys": 35, "yc": 47},{"id": "d66ba73b9e8d3d9da6ad617702795b62.16", "url": "https://lh3.googleusercontent.com/Qa4zufeWlAdOnMBFzkroGnOEDIwMw8Ocl84CLvi4lCJoWAMkPfpCqtSxeiOHunK4G1IiEy0C4xFLK2-5G2AOLSbf6lhqZsHwvVOrrxMH", "name": "Välkommen till Rotebro Golf", "lat": 59.48274200000000, "lon": 17.88172400000000, "team_id": 1, "available_slots": 0, "bs": 381, "bc": 16, "rs": 370, "rc": 6, "ys": 77, "yc": 10},{"id": "d72b84fcbbd448c08de46a0aef769c65.16", "url": "https://lh3.googleusercontent.com/XhQ_JyW0eDfU1Qcvw1CiT63lFrrFuhugTX7em_8SFDtC5CdDjguwnaZ_BVJ7Q5g-SvOj4l5t91C1QZN9xcTgVyFxO18", "name": "Lobster basketplan", "lat": 59.46150300000000, "lon": 17.92222700000000, "team_id": 3, "available_slots": 0, "bs": 54, "bc": 80, "rs": 29, "rc": 67, "ys": 44, "yc": 69},{"id": "d73ca7cba25943d7b7471127d01c0b4b.16", "url": "https://lh3.googleusercontent.com/qOFcC8yqYC0BiF2VyWuF3H4PhkTyygkgVe9qBfMmnOmCcsBGx2-IAN16BTprcHBYnNTaMmTWz_o_OqKegQIuTn4xVQ", "name": "Rotebro Station", "lat": 59.47601100000000, "lon": 17.91453300000000, "team_id": 3, "available_slots": 0, "bs": 21, "bc": 222, "rs": 17, "rc": 226, "ys": 12, "yc": 92},{"id": "d7585bc7348b4718969891f06cb9accf.11", "url": "https://lh3.googleusercontent.com/JrT15CqHsboFNnejGKwtXZamoUP1QILQ3fDLYjju9rTPkIqyej--lsmFA1JsI34j7MdGrR62FtzNDCPM4qjMZFurSa0", "name": "Pingstkyrkan, Sollentuna", "lat": 59.43377500000000, "lon": 17.94894700000000, "team_id": 1, "available_slots": 2, "bs": 51, "bc": 112, "rs": 21, "rc": 84, "ys": 30, "yc": 69},{"id": "d80ea77c422d4ade8ff37919ad728ea0.16", "url": "https://lh3.googleusercontent.com/_ktxuewHKZWoIu7kEXNk2e6IJ0PsDONqGalcNg5Wm7JBrcgStNwBjsak3mSP5_txKfvcFH-RdeggRGXdMlW2_ur214Y", "name": "Lekplatsen Krönet", "lat": 59.41350300000000, "lon": 17.96856400000000, "team_id": 1, "available_slots": 1, "bs": 89, "bc": 74, "rs": 28, "rc": 52, "ys": 35, "yc": 35},{"id": "d8b1945ca0c4486dad1071c91ba0b895.16", "url": "https://lh3.googleusercontent.com/wbrky_tw-16fAUrK03ycnsrua3Kc3uU_sEWV-AlBwcYaHTdekWgQKj8r2pdzqpOS6awVjtQW1VTr_YilQllnO71A0eo", "name": "Silverdal Bell Tower", "lat": 59.40545700000000, "lon": 17.97258600000000, "team_id": 1, "available_slots": 0, "bs": 72, "bc": 60, "rs": 58, "rc": 59, "ys": 57, "yc": 26},{"id": "d9336cb19040409496b6ca9848ca1dce.16", "url": "https://lh3.googleusercontent.com/i-dV-R0_w1-5BZcKTn0yMxvKoDXUyW87fGWQQX8H2mk9b92ya94uN4jzjdtSmOKI9LPHcSmEjkyzJLpgjlICjx5I2k4", "name": "Pommern", "lat": 59.44747800000000, "lon": 17.91380800000000, "team_id": 2, "available_slots": 3, "bs": 66, "bc": 54, "rs": 38, "rc": 47, "ys": 75, "yc": 53},{"id": "da69f680e285396bb8de2d970178f8f5.16", "url": "https://lh3.googleusercontent.com/RmFx5eQNX6-g4cjIWL3qIsFthm6aft2G7epj0TAtVIbjH2lPXe7EGFbyM3haAgJaW3sh3HpS1hj_yDgBrJLQ6KQzB6q4VAssUPA_jQI", "name": "Spårmarkör Järvafältet", "lat": 59.45066000000000, "lon": 17.88640000000000, "team_id": 3, "available_slots": 1, "bs": 95, "bc": 2, "rs": 0, "rc": 0, "ys": 480, "yc": 1},{"id": "db72cceb84ce408792a0728a0c0fa100.16", "url": "https://lh3.googleusercontent.com/oP9UlCgrLwYUFBep8wNfyJMxJG5qvHvs5IoIXHTobqpX2MOZh5cHbPX_MnnVBZxKmRgB4PKrRKQZh4hNmd6EtSxQld0", "name": "Grindgårdsvägens lekplats", "lat": 59.48453100000000, "lon": 17.89720500000000, "team_id": 2, "available_slots": 3, "bs": 119, "bc": 23, "rs": 227, "rc": 20, "ys": 100, "yc": 20},{"id": "dee23d8f44ba4318860584cb8ed9ddc3.16", "url": "https://lh3.googleusercontent.com/KjBKmUYB-evg27KJmzA7IZGYnlRStIpErsq2GnNOu39maS0FOfNCvTRo2uWDEt8nQ9oIJUQrmybpkBLlFUoQ8I84AMM", "name": "Naturreservat Rösjöskogen West", "lat": 59.44202300000000, "lon": 17.98203700000000, "team_id": 1, "available_slots": 4, "bs": 140, "bc": 33, "rs": 81, "rc": 9, "ys": 111, "yc": 34},{"id": "e18f1064998a4454a12012cde726ddb1.16", "url": "https://lh3.googleusercontent.com/d92BoU_jKq9hzISTc4r6UDfoW4wTlzVWHJJodvoHlhFe4MLzXlbH8W1tHfX5hUIjNgYBl6yN8Rxn7NaEqS6yeu-eM14O", "name": "Törnskogens Naturreservat - Solängen", "lat": 59.45641500000000, "lon": 17.93895400000000, "team_id": 1, "available_slots": 4, "bs": 321, "bc": 13, "rs": 268, "rc": 15, "ys": 168, "yc": 6},{"id": "e2734d925e2636b48863c70790c4c6d3.16", "url": "https://lh3.googleusercontent.com/9HXLl2BD96SXxFD_w9vN_UkiumQhiXv44UTmE3qhkHM5jZFrD_apEu0yUmjj-hz4hzogJk1rw-tYqE2DdmwOotmFwNWJ4Kn_KXZlGlXSkw", "name": "Välkommen till Häggvik", "lat": 59.43697600000000, "lon": 17.92654700000000, "team_id": 1, "available_slots": 4, "bs": 25, "bc": 131, "rs": 25, "rc": 115, "ys": 28, "yc": 118},{"id": "e304a0ea517d4e7bad08943ccf4c420a.16", "url": "https://lh3.googleusercontent.com/wzOHf4GkjMCez9kRGCf6XYk74J5IHk0QaZDb_6gDrFievS6Ls-cJgBPEtCLxqfJD6-5xlD-wpbDMJzKqrTqR07PW1d8", "name": "Sollentuna kyrka", "lat": 59.46665500000000, "lon": 17.91848800000000, "team_id": 3, "available_slots": 3, "bs": 40, "bc": 93, "rs": 41, "rc": 102, "ys": 26, "yc": 61},{"id": "e4c4894bdaf7451992512469308c0add.16", "url": "https://lh3.googleusercontent.com/jtxc8K4TtuBk1ZVVB2RV1FCd0w3S6Lmcl7WRMkAiMKvaBd1uGL3GxYFwP3rI0WMHS6FeE4NYT3aWgrMMWjpM0Jf8aTs", "name": "Skillinge gravfält", "lat": 59.47235600000000, "lon": 17.89945600000000, "team_id": 2, "available_slots": 0, "bs": 183, "bc": 20, "rs": 223, "rc": 19, "ys": 141, "yc": 10},{"id": "e71da16e14dc4dd2a8e33597f97c3f03.16", "url": "https://lh3.googleusercontent.com/YgnHhz8COFZ117Xx80r4vQp0j400oWU3quofmxx4lGLVQ4reznLLqz5iwu_F6kWkTWNpUiBJveK0VvT9EbCjcvx6U7g", "name": "Norrviken station", "lat": 59.45829600000000, "lon": 17.92417000000000, "team_id": 2, "available_slots": 3, "bs": 34, "bc": 153, "rs": 17, "rc": 108, "ys": 18, "yc": 135},{"id": "e9573ecdeb2541f5aa65fb9d705d30ff.16", "url": "https://lh3.googleusercontent.com/_JU2kp1CAwmODFfRAjEUTkJkbOEG_SiHhtczU8d9SZ_suJQ0zzJBDJV1P4QnvHlTwh_m1CbO0JmxuJ9Sy5fkTxRSx98", "name": "Badbryggan", "lat": 59.48437000000000, "lon": 17.93951900000000, "team_id": 2, "available_slots": 5, "bs": 91, "bc": 65, "rs": 49, "rc": 56, "ys": 26, "yc": 26},{"id": "e973fcec1bae45649115cb37310839e5.16", "url": "https://lh3.googleusercontent.com/f3ExvJprujUg9T0Bp_rHIfWjpe3LwiUsP4feFyWmwgMyZUi_NHFzU6cYGfhWjUPthDr_axI3Y34_gYvqWaAD2yLiY-jcJDCWWlKZmjo", "name": "Långa Hopp", "lat": 59.45407600000000, "lon": 17.96937900000000, "team_id": 3, "available_slots": 2, "bs": 216, "bc": 18, "rs": 60, "rc": 6, "ys": 263, "yc": 16},{"id": "eadaf6347f6441c7885892b251b35ebd.16", "url": "https://lh3.googleusercontent.com/gwlOb4MVrUJmMmmJatIFdsuB0wJOcjMt60n1yGDiaCIFhBIu_sJQeNIgGV7hA-_3C1uJCeWEBMMh3HifWJZXKh0Io0k", "name": "Twinkling Monolith", "lat": 59.42773200000000, "lon": 17.94368300000000, "team_id": 2, "available_slots": 1, "bs": 25, "bc": 101, "rs": 37, "rc": 128, "ys": 22, "yc": 105},{"id": "eb9ab1816c444e769dd2de08f61451be.16", "url": "https://lh3.googleusercontent.com/pCOSkMYSkSVZKuYoo_zCoXZ79PFNNw7W_i_p7bHsne80L2OPuOkMg2yezaHCpMjuoIx7r-mpE3tdLxt-cqUv5RXjbzA", "name": "Häggvikshallen", "lat": 59.44816600000000, "lon": 17.93921500000000, "team_id": 1, "available_slots": 4, "bs": 33, "bc": 80, "rs": 15, "rc": 37, "ys": 66, "yc": 95},{"id": "eeaef27f116146ffa86066cb12c67da7.16", "url": "http://lh3.googleusercontent.com/77EoQDXpH6OaTLubsG2tElsEQPF6l8mnp9vcvmMsX6LK0rwuk8HyBNJ5mJ8bpyKP6P__CeXBf3ndlyEx9YtyPaeIvg", "name": "Fäboda", "lat": 59.46274800000000, "lon": 17.87189000000000, "team_id": 3, "available_slots": 0, "bs": 130, "bc": 18, "rs": 203, "rc": 21, "ys": 105, "yc": 22},{"id": "f0ac91ade21a4ac3b162d5699f823d31.16", "url": "https://lh3.googleusercontent.com/GYVItCLKJCaae0oM7_r9gyWuQHi0gLP7CYuCZvWous914b527UEBmVJ5tjkk1wU3QKGB4brZruEzR7DgjUp6A_R82OA", "name": "Ryavägen Playground", "lat": 59.42627500000000, "lon": 17.92577900000000, "team_id": 1, "available_slots": 5, "bs": 39, "bc": 40, "rs": 33, "rc": 48, "ys": 86, "yc": 74},{"id": "f3394595dd1133518e27b933f90aa4d8.16", "url": "https://lh3.googleusercontent.com/0IRPeiIMAoGIZZPDG8gP8w9fogOxiCovR-4RjooDX2IUiDZR4dnP1849Gj4IoJF30mcGRXqi2cP9xLoSUZWJozQfnfowf8NCqLXjrsuB", "name": "Lekplats Lomvägen", "lat": 59.43162500000000, "lon": 18.00469300000000, "team_id": 3, "available_slots": 3, "bs": 28, "bc": 163, "rs": 29, "rc": 6, "ys": 30, "yc": 158},{"id": "f5b3e213e6de4809b994b1e2b2e2d199.16", "url": "https://lh3.googleusercontent.com/SNbJV51DgFZJxQLXaBGjF50axdujxQJQUpc5Wbs3G3UwJL-rpb45eVM_QukxDaMeF8Dxiipc8PuVaR36c5T73neipVE", "name": "Fågelmatning Ravalen Norra", "lat": 59.45669700000000, "lon": 17.90482300000000, "team_id": 1, "available_slots": 4, "bs": 71, "bc": 80, "rs": 30, "rc": 55, "ys": 40, "yc": 54},{"id": "f6f8c9d630903407a518145dac04abe0.16", "url": "https://lh3.googleusercontent.com/6kw_3wgLZ7DRY4rXB9e9OKOOqRAvYhqzwIVaQYKtSRVI1nQ2DlZqDaQGgrWNpMKle_tCXw7QIwp2nn8FaWwNWH7KdRdXIidGWf83YuRl", "name": "Nya leden av blågröna stråket", "lat": 59.45875300000000, "lon": 17.98161600000000, "team_id": 3, "available_slots": 3, "bs": 95, "bc": 46, "rs": 17, "rc": 25, "ys": 45, "yc": 31},{"id": "f8802733e4e8498ca619d63d8f5153a1.11", "url": "https://lh3.googleusercontent.com/m9RwV8HAY-4zty_3LH8jGtvZOX_I3qdhc7QCYGaPk7n2gGV4WgGbgwtmsHUKCc41KM0fkgZVRy0AQufSDJRh1BP4lBU", "name": "Överby gård windmill", "lat": 59.47636600000000, "lon": 17.88331700000000, "team_id": 2, "available_slots": 1, "bs": 32, "bc": 52, "rs": 64, "rc": 68, "ys": 42, "yc": 67},{"id": "f8effbf1c4fd48e59b494eac235145cd.16", "url": "https://lh3.googleusercontent.com/koZthpIMVEkSXTaffKn4HUxT3UjlJB2iMSDSqB1kxRf-hXj9RuI6hCXKF5rTGxBgvNpyRx9nRx12e-Kh7ReSHSvHkFg", "name": "Norrvikens IP", "lat": 59.45257900000000, "lon": 17.92836800000000, "team_id": 2, "available_slots": 2, "bs": 48, "bc": 82, "rs": 34, "rc": 42, "ys": 42, "yc": 96},{"id": "fa2ec39411ac4c288762520f2b201d24.16", "url": "https://lh3.googleusercontent.com/qxb_rNes-5q8ghrGNWrrVMSrRqtuLYaDBcwg1VeOXKWPT1ztVVhvNZrXi34mNs04syWqC5MLb3mDopt79tk5VfCsxzE", "name": "S:t Eriks Kyrka", "lat": 59.43247900000000, "lon": 17.95306600000000, "team_id": 2, "available_slots": 2, "bs": 233, "bc": 16, "rs": 197, "rc": 15, "ys": 227, "yc": 11},{"id": "fc156a649da643ffad749a03bded591d.16", "url": "https://lh3.googleusercontent.com/35uymj944xGR8GlbfHSS3RQQvDmSzmz8MH6-IunMhx_evfL8jy-KNNV-UJyWbp4q27sDM1IdhFThqAZw5JZgnNWrIeWORWqdsUuAqJxM", "name": "Edsbergskyrkan", "lat": 59.44483300000000, "lon": 17.96786800000000, "team_id": 1, "available_slots": 5, "bs": 12, "bc": 215, "rs": 26, "rc": 239, "ys": 16, "yc": 44},{"id": "fd1b1355c1994975bff7f0f7ddda5601.16", "url": "https://lh3.googleusercontent.com/D9KiVf8Z5Fz-gyKVotEGFfWNO0br58mg7BtWHf_v2fd0p8RkmSwlcSp1mvrlw3eYQTYrQiav-sbKgwQKQbX-aLhsB88", "name": "PlayPlane", "lat": 59.47715700000000, "lon": 17.89789300000000, "team_id": 1, "available_slots": 0, "bs": 69, "bc": 91, "rs": 24, "rc": 52, "ys": 33, "yc": 57},{"id": "ff6ae049389d4c9ca8822502d8b9a66b.16", "url": "https://lh3.googleusercontent.com/DeRIWm1xgW6rItJkhlKpCxAwCGKBrlrPfHuwq43r-E5CICid9lx7iCsmS3zRJFfsW3pInzT7es8Yz-Y-LqySku1NHbI3F-oDlAhle1tZIg", "name": "Köksträdgården", "lat": 59.44197400000000, "lon": 17.95509200000000, "team_id": 1, "available_slots": 3, "bs": 42, "bc": 103, "rs": 44, "rc": 99, "ys": 15, "yc": 50}]
