[{"id": "0c0593747943341faadca7726523e8d0.16", "url": "https://lh3.googleusercontent.com/tmDsJxBvy6jiPHb4PqW7y9meBpdBhg1AwzWMhiWThZnoAWcz58kJp_PPkzuEN40nhFE5UZVQO3Gn6VFSXOb2-TKNUKo", "name": "Småbjörkens lekplats", "lat": 59.38104600000000, "lon": 17.92475500000000},{"id": "1ea641a2a548463fb424a005cf82686d.16", "url": "https://lh3.googleusercontent.com/tDi56_iu6sOyN3GBfRT47LiVqxoxeQk3RM3DOW1VewniLXgIvaeZTXMsv-tK0e2-EYTtQHVN_21_njoeFhLbQk5Wv4M", "name": "Bahnhof Mobile Server Hall", "lat": 59.40973600000000, "lon": 17.95283700000000},{"id": "38a7e51cc6ba4cd883c56e3805b8b90e.16", "url": "https://lh3.googleusercontent.com/TFol29rwpGLeBqY8ZjYxCn7s1-_hsMG4CIcx4Gf9hXrR55a3bXcnXDtg8yttejtGRYlVxZ6wnRNPue4PJ7TqfTP31Ok", "name": "Vattentorn vid Fagersjötoppen", "lat": 59.25370000000000, "lon": 18.06341300000000},{"id": "3be79c649e403e85ae632254882ed9f2.16", "url": "https://lh3.googleusercontent.com/-9blLOmCEA6gYNB2K323ZFi4j9-_8DrBfn_oIbpZN9thGhUYJeFvpDuXN0CUUheHJlfTbysaD3wnjYxOBUGeFXyqQWGk0tksLNG6JVYh", "name": "Sätra varv", "lat": 59.29603600000000, "lon": 17.90836800000000},{"id": "3f412eb2a6434ae69cd6b25a25ac28f6.16", "url": "https://lh3.googleusercontent.com/DaAZ1KhLTjUAwxJZ0xxl62B9pAlBtrhe2OwesYuWtnYZanVxUc9ciwKJyXUQKe63Hz7cwaWFJK6IdnafaJmDPaBa_CeO", "name": "Bäckravinen", "lat": 59.24189100000000, "lon": 18.15840000000000},{"id": "445097a1465743a0b6ee72b594b2d5ff.16", "url": "https://lh3.googleusercontent.com/JqY521-h4hGB0CJzNCVu6K6VSw_au4XlYUsgfFdLYpsX0nQun4SBTwgeIv-DtOSfg9teybqfYJREtFwDBB5xrOEyv2Y", "name": "Lekplatsen Nyckelpigsparken", "lat": 59.36251700000000, "lon": 17.90821600000000},{"id": "4606247613054df9b479670d7384daa8.16", "url": "https://lh3.googleusercontent.com/skze6xh3z9irTGQZwHEmQ0PXZy2ut643b6VgtQjzjrGKh9IGfhxt5gXnmyaXEqVvjQzM7D4lxt1fnlU4sL06_SrscZZQ", "name": "Stockholms Länstenen", "lat": 59.41659600000000, "lon": 17.93283300000000},{"id": "4ddd3aca723045b2bec7d763d9ca0b56.16", "url": "https://lh3.googleusercontent.com/iKaytDHaIvtRjpXg8AdGX6I9ko7-g6Lz9ndhtgswd-8OMg6py4b27RqF15qhuWatrWdPP60WwsMrhXo4pQtUVedW-94", "name": "Tidens väg – South Start/Finish", "lat": 59.40187400000000, "lon": 17.89649800000000},{"id": "5c42f8ccb7be47a6a334c5a5a5405afa.16", "url": "https://lh3.googleusercontent.com/Xoo5Rl-dwdwBNeoZCftA3brdgPAgO1f9lRVLjLeGmvyIm0mf7bfuyZjdPjjmaDZUKO2jqNSc5Sn8sLAmCpxfBS4PgtA", "name": "Flatens Historia", "lat": 59.25388700000000, "lon": 18.14276300000000},{"id": "6e7ccaa7b2614c2385fcd3cd17a4b80d.16", "url": "https://lh3.googleusercontent.com/742kvpppJDPFBNVcvG6ZF_A11h6vmUWPrQkz00bDD4rl28dAGYdVn1k29dZosuHsdMpDK_LDX30EEuoOHtqHhV0-WlHP", "name": "Svart Katt, Ingen Vit Katt", "lat": 59.28257900000000, "lon": 17.91607300000000},{"id": "6f930508b4d242e294a32be62cf2c0c3.16", "url": "http://lh3.googleusercontent.com/oQMefHNs97IdFdvSkK-Da3RQnM-YScKKv_X0c3OXD_qeYWySZMHa4lk8IHIr4mBEeNv6SJXVkJlPV8dH4QbzfkLx3ZA", "name": "Lekplats Kv. Lapptåget", "lat": 59.38972400000000, "lon": 17.82003700000000},{"id": "709c0719e9d7465abaebf5c2d0f941da.16", "url": "https://lh3.googleusercontent.com/1mbxgWxETgV5Tjj7kPs85-qcpUsg0rD7fLZqZNhJVfSeVnVj9ru-e6u5OmnxpNW-_R4i3ssvFu8E1K_1PGAC_DbFuwQ", "name": "Thielska Galleriet", "lat": 59.32179900000000, "lon": 18.14810700000000},{"id": "732d5207d94f47a3bd3cd5b70a70fcf2.16", "url": "https://lh3.googleusercontent.com/tSGPlYf46_mci3CEhmH16ZZHAXXmp8TapLcGHEjouSWz2fXt6_N2xNqWq5q2ztuFcdbfrNRgjrBOB9-8lCvJ2W8jxAs", "name": "Gravfältet Ålstensängen", "lat": 59.31748400000000, "lon": 17.95359900000000},{"id": "77054e0c79a631519508f01834fc5934.16", "url": "https://lh3.googleusercontent.com/gQTtdxkV3BP48iI6Iz1WccVlBXP0hDFpZZu0keRhg-YxP3hUYRKQFdnDIuVz-4oYgOi4BmnxoT__5G1MZwYWVhGUoro4zN6fvOit1Z4J", "name": "Bromsten sport field", "lat": 59.38033400000000, "lon": 17.92779800000000},{"id": "789db356a9ba4949b406e0631777e5ca.16", "url": "https://lh3.googleusercontent.com/R4x-gS4U-k3gRuyF-mNIOGQXa1wD-XZq63c1VI-pgcG57vhogd9NJgtqo2lpqDF3WPKC1qoTZ_UNE0P8XbmW-4GzFtM", "name": "Gungor och klättertorn", "lat": 59.37795000000000, "lon": 17.86850200000000},{"id": "7cc3a1cfa78341dbb02b42249b3599dd.16", "url": "http://lh3.googleusercontent.com/F-D4Py9DAdrin1Ote8Uug1TbnomqIP1mIhzWiLqsFZ--UT9Sr4qTVG1HnTfpKFXZTrrWJhIAig_Jg-z72wHSil6u20c", "name": "Boplats & Gravfält", "lat": 59.42570800000000, "lon": 17.90097000000000},{"id": "8578e7f6752032be97e19a9e065f5f6d.16", "url": "https://lh3.googleusercontent.com/e9N_4WILNx9Is9V8ymbFcAMNDXf2jlVY0Xbz8JrfPRmTXMnzwTlFETlnDFyEvzp50PRZ_7QsNOHWQBCC08yGerAzzbvVfT7DAVDLd4sgRg", "name": "Sälg", "lat": 59.33155000000000, "lon": 18.15168200000000},{"id": "886d889ab08944368fc68d2e73d6050a.16", "url": "https://lh3.googleusercontent.com/NIOyLXPiWlXR4AbJTr984ZSQZl2gLXT9zMtflR-MafPv-pIAcr6PYfaYViaw3IoLhmOItoKpCdgphETft8Q0X3COSA", "name": "Sätra Reservoaren", "lat": 59.28951200000000, "lon": 17.90532200000000},{"id": "a399708db69e4cbb89d1bd532a08bf31.16", "url": "https://lh3.googleusercontent.com/bbi2R2MVq2qvmkEDZeTkMUF-8RqWEWX-oyWg9DJ2enqUOyxe77D8OBjiKaoeamVtaG9ndvRkBfLdDS_hnUxpdU_Qgw", "name": "Concrete Artwork", "lat": 59.33493000000000, "lon": 18.13549700000000},{"id": "b7e99fb3c56a36429a24ee44e39b0b63.16", "url": "https://lh3.googleusercontent.com/OKPz8pUGERQYmGyS-_vRWLJXUCCx0AZFIuEm_7Gx6wu0LtOT-zxGzZd9EYe3OIvZC8FvY2eoEJEhVtNzEQ69nDtXryGmkumtzaridC0", "name": "Lekparken i skrubba koloniområde", "lat": 59.24370500000000, "lon": 18.17930700000000},{"id": "c03e770bcaac49f6ab2e880fb803ecdd.16", "url": "https://lh3.googleusercontent.com/-J7_PaSXL3KL28ca2Sl2EQaV67-Px1ZnLiTI5euK5s9-K6BNdJNUimQakQW63Ms5tAhNnHpzBVX0wSPK7VQfk09Y-gw", "name": "Tidens väg - Kolkärr", "lat": 59.40222900000000, "lon": 17.89527400000000},{"id": "c6e05e02159a46dcb8df0c70f325410d.16", "url": "https://lh3.googleusercontent.com/krxSlffkHfnzg5JlOiJNdLreJ1Q_jiYg3HV8hk-tGFzaj_rKVJstqjyXRSkcfE7cVofuATH7uTr68JQD3xCcFTFiJq8j", "name": "Frihetens Port", "lat": 59.32203700000000, "lon": 18.13347700000000},{"id": "c9c90714dde5343289e005f74e5e24eb.16", "url": "https://lh3.googleusercontent.com/ZQ9ObJPMem8Pw1VRFGCq6NcTQcKufphsEhJFqY4qj8vHVWrmPpN2A21-1Izdw7GkrniWyQi6iMtYwqePgr4b_dv8cZk", "name": "Lekplats", "lat": 59.38020200000000, "lon": 17.86724000000000},{"id": "cdc8cf66cb5f4738a3c7dd3b4c30af30.16", "url": "http://lh3.googleusercontent.com/7Xx0cIAko4_Bkm1deJAHg8gVZh2bjMBOVfUG12gtl_LlFjlB0AMo5-7yklfchz6Nw-H2jDsHQ21WEVtxMkuf5kph0xw", "name": "Ett Stort Mynt", "lat": 59.27098700000000, "lon": 17.88551900000000},{"id": "cde1a64aaeff49d4a236215439735200.16", "url": "https://lh3.googleusercontent.com/yzW1YYtiUKrPGooWKKoMLMhLJXHJ4GgK0Y_Rkh3JPmldnB-Ry7yFn4FpbTcw1Jyyoyet3XH9z9hrouzrobCr83p_KdPq", "name": "Kista Gårds Koloniträdgårdsförening", "lat": 59.40191200000000, "lon": 17.92786600000000},{"id": "d47af58a1a11441f9b579b599c43a6bf.16", "url": "https://lh3.googleusercontent.com/aUyStNjdxU8O6Yyny14mZ_J56NmaZDxeuoHSMAZifkck4QMG_XRH35p8KcHCwCvVrskCiNZLrPbMab0fZ6OpitkYc0A", "name": "Gebers Totempåle", "lat": 59.24444800000000, "lon": 18.13714700000000},{"id": "e46aa3e11c394acf81f852ded43b5dd1.11", "url": "https://lh3.googleusercontent.com/D5ac7cO9QRXlDZ1RY2OUDaekztUJm8-HwUV3sUt7U6s1t4Hi58_yNZuExQwd_XG6U5PdP5k72TZhEx844lbWxWsWG1o", "name": "Solvalla Radartorn", "lat": 59.36340000000000, "lon": 17.93775200000000},{"id": "e6ffc166ba67417db27ed47ea31beef5.16", "url": "https://lh3.googleusercontent.com/J1d4F-0KuquZVBJ2fAyMK4DgYsRbayKafURRjg_B8zgdzpe8_nzf743dV5yYCLlqdi-It4aAaWyff5McAn1ZeK_VCEo", "name": "Padelverket", "lat": 59.27280500000000, "lon": 18.00438200000000},{"id": "e9d3330f7c0c4335b80655085c1ec661.16", "url": "https://lh3.googleusercontent.com/z9bcz5jWOPRi7OHzC7IJgiNWiQgkHwzOAGav7QTQVD7A4NjXLgpkrbWWdq68r9cX4p-6TnLmjbF8Z6Xk_WI1xTtMyK8", "name": "Den Blå Älgen", "lat": 59.37135000000000, "lon": 17.83975400000000},{"id": "f0563367171b412c82b4ea867bdb2132.11", "url": "https://lh3.googleusercontent.com/Aysgt4vpBLvFkjnRLkTw7GDW6m7Iw_lIRVOll-mD8ZqEqLLhuG_AdZZSNesYxGhYiXQ7XW1pr_xs0XsM7OfmHmqV0Q", "name": "Åsnan", "lat": 59.40667600000000, "lon": 17.92021000000000},{"id": "f33c5b1ecd0f33ac80db47bbd613cfe4.16", "url": "https://lh3.googleusercontent.com/PJxcpd1_q0umzUuKDvtTHmDnULLtDfR2em7fOvNBrrIw8nRCsDyzwjuv4oLXQtHB3LfrBwt9rlSi621UYXyngeyJrmmc", "name": "Lambarö lastbrygga", "lat": 59.36597700000000, "lon": 17.81311200000000},{"id": "fe64dfc0492f4dc58da2bc53ea7af12b.16", "url": "https://lh3.googleusercontent.com/UpQg5HNVPsCFM-epL2VGaO8EDhlWej2RJJ2rRQBS4C-a1heK_Mp8I-BkahFgr1nM4oIrwiWlATfwmac5QOTxT0EwGw", "name": "Stekelhotell", "lat": 59.34860900000000, "lon": 17.93218800000000}]
