[{"id": "083d0c11d3c73be4b338241da7c0a16f.16", "url": "https://lh3.googleusercontent.com/DaLIcWuYOwBO7upYIz5XbTfE-PVuZw2onK6pJ5mM9b7f9c7oLSwZWrpPp_Cs8x90UnNyn1oef6nG7SiXk-Wbt-L-f_dIVXXwICKJPZY", "name": "Igelbäcken Gångbro", "lat": 59.41198400000000, "lon": 17.90029500000000},{"id": "1435a9e1998c43cb9602a55b651366a8.16", "url": "https://lh3.googleusercontent.com/jss8VDxvhmVOy0ipFabliRSWevGwuidHFY0ehiRNTKpKUTJD-lxWicF_sIbG7g8IXzc6Ns3S6Wj2pkRsHmVjea-w1g", "name": "Flock III", "lat": 59.39064000000000, "lon": 17.90408700000000},{"id": "19c73d02858f45b48be42f6ce090948c.16", "url": "https://lh3.googleusercontent.com/0e2M9u9MwRko2t-a_9icshAK4DIOv8CjpTRLbvcxCXI-5BFUeFj729mfFHjyjMvLyPo4q4WB58Y136QSdRFIdBth2Ew", "name": "Fort Lingon", "lat": 59.38708100000000, "lon": 17.80175000000000},{"id": "1ea641a2a548463fb424a005cf82686d.16", "url": "https://lh3.googleusercontent.com/tDi56_iu6sOyN3GBfRT47LiVqxoxeQk3RM3DOW1VewniLXgIvaeZTXMsv-tK0e2-EYTtQHVN_21_njoeFhLbQk5Wv4M", "name": "Bahnhof Mobile Server Hall", "lat": 59.40973600000000, "lon": 17.95283700000000},{"id": "21b6648112ec493a87e734979070e7d9.16", "url": "https://lh3.googleusercontent.com/zRJu5YGtCYDmK3FlN6Lr2caAUvbstUc8SH9lObnNFf1NKZ833Fxphjde88cGuDmX-cdMZCYAB-bkOQdX-dFmf8_GeqAq_PaeTqO0VfQ", "name": "Gravfält Och Stensträngar", "lat": 59.42834800000000, "lon": 17.89806500000000},{"id": "35d95e98d0d9493585deceab94f0e964.16", "url": "https://lh3.googleusercontent.com/nqx2hTGoeXMVHeIIBnCXmHb2D1yCV9xO1J7cZd-18PxCO4LnOHx36QeGuYqvRwpCRnBBdZEuNNPJ1tdFF1CtU6sdGXA", "name": "Second Bridge over small water, Hjulsta", "lat": 59.39301000000000, "lon": 17.88720000000000},{"id": "382ef5a4d7c642e78e499ddd6f8dabf0.16", "url": "https://lh3.googleusercontent.com/6h6uqkDy5nxdccg5iM0ceEK2uNBGiOmVXwwGXUfn7uXZvm5lXGZiCElvQRnlIekakDyyl7sE_q4xNnCpiL9fBjmsmtQ", "name": "Wooden Horses", "lat": 59.40845300000000, "lon": 17.89812700000000},{"id": "38a7e51cc6ba4cd883c56e3805b8b90e.16", "url": "https://lh3.googleusercontent.com/TFol29rwpGLeBqY8ZjYxCn7s1-_hsMG4CIcx4Gf9hXrR55a3bXcnXDtg8yttejtGRYlVxZ6wnRNPue4PJ7TqfTP31Ok", "name": "Vattentorn vid Fagersjötoppen", "lat": 59.25370000000000, "lon": 18.06341300000000},{"id": "3be79c649e403e85ae632254882ed9f2.16", "url": "https://lh3.googleusercontent.com/-9blLOmCEA6gYNB2K323ZFi4j9-_8DrBfn_oIbpZN9thGhUYJeFvpDuXN0CUUheHJlfTbysaD3wnjYxOBUGeFXyqQWGk0tksLNG6JVYh", "name": "Sätra varv", "lat": 59.29603600000000, "lon": 17.90836800000000},{"id": "445097a1465743a0b6ee72b594b2d5ff.16", "url": "https://lh3.googleusercontent.com/JqY521-h4hGB0CJzNCVu6K6VSw_au4XlYUsgfFdLYpsX0nQun4SBTwgeIv-DtOSfg9teybqfYJREtFwDBB5xrOEyv2Y", "name": "Lekplatsen Nyckelpigsparken", "lat": 59.36251700000000, "lon": 17.90821600000000},{"id": "5c42f8ccb7be47a6a334c5a5a5405afa.16", "url": "https://lh3.googleusercontent.com/Xoo5Rl-dwdwBNeoZCftA3brdgPAgO1f9lRVLjLeGmvyIm0mf7bfuyZjdPjjmaDZUKO2jqNSc5Sn8sLAmCpxfBS4PgtA", "name": "Flatens Historia", "lat": 59.25388700000000, "lon": 18.14276300000000},{"id": "6e7ccaa7b2614c2385fcd3cd17a4b80d.16", "url": "https://lh3.googleusercontent.com/742kvpppJDPFBNVcvG6ZF_A11h6vmUWPrQkz00bDD4rl28dAGYdVn1k29dZosuHsdMpDK_LDX30EEuoOHtqHhV0-WlHP", "name": "Svart Katt, Ingen Vit Katt", "lat": 59.28257900000000, "lon": 17.91607300000000},{"id": "77d1835b30ce4ef08566580d60273a72.16", "url": "https://lh3.googleusercontent.com/f69w_lVchNuSoOXFCBciqQ7PqY9knMXeA_GxSYBJ4qRq4A9ilfldNH3j1tHV9j_5R5IPEi2b7vrkCNm5tdDDjm9QqQ", "name": "Giraffkran", "lat": 59.32020600000000, "lon": 18.09871400000000},{"id": "81a47d3001234afda3ab726c78119f48.16", "url": "http://lh3.googleusercontent.com/AlRvTHi3f40tfRVJ7BJwyDmtKyOQ035VW5O-S1AW1SuyM13vdvn6RQtbOqf-C8UW3fyDDy2OX0FvrjYHaF3buhP2pJYeQ6DyOBJ4mzBb", "name": "Fågelskylt", "lat": 59.32391600000000, "lon": 18.14406900000000},{"id": "834f6a2eed244334a33b23e4ca514579.16", "url": "http://lh3.googleusercontent.com/QGi-SqyZlenwINdRs_1W9dLIEmSj_RW1E-i4KcZzxEOEYrTWIJQXnCllcSRgfgw51dKmp6qqM7Pt80Aqzf19897hQjE", "name": "Fantastiska musen", "lat": 59.23258200000000, "lon": 18.09841100000000},{"id": "886d889ab08944368fc68d2e73d6050a.16", "url": "https://lh3.googleusercontent.com/NIOyLXPiWlXR4AbJTr984ZSQZl2gLXT9zMtflR-MafPv-pIAcr6PYfaYViaw3IoLhmOItoKpCdgphETft8Q0X3COSA", "name": "Sätra Reservoaren", "lat": 59.28951200000000, "lon": 17.90532200000000},{"id": "a399708db69e4cbb89d1bd532a08bf31.16", "url": "https://lh3.googleusercontent.com/bbi2R2MVq2qvmkEDZeTkMUF-8RqWEWX-oyWg9DJ2enqUOyxe77D8OBjiKaoeamVtaG9ndvRkBfLdDS_hnUxpdU_Qgw", "name": "Concrete Artwork", "lat": 59.33493000000000, "lon": 18.13549700000000},{"id": "c03e770bcaac49f6ab2e880fb803ecdd.16", "url": "https://lh3.googleusercontent.com/-J7_PaSXL3KL28ca2Sl2EQaV67-Px1ZnLiTI5euK5s9-K6BNdJNUimQakQW63Ms5tAhNnHpzBVX0wSPK7VQfk09Y-gw", "name": "Tidens väg - Kolkärr", "lat": 59.40222900000000, "lon": 17.89527400000000},{"id": "d6b2d4029f503ee68cf0678914d66922.16", "url": "https://lh3.googleusercontent.com/nvfJfzqZht5jJt5MiU2gceSCdnFVFUQyojs_tMRgiGw9kOPlK3IfxYz0DIwOolsgnSgMS6Cni3_qsc30nPBI8q_4hSzz0fhLtaVf5Isx", "name": "Järva discgolfpark hål 11", "lat": 59.40472200000000, "lon": 17.89879100000000},{"id": "d824b3e21aa54484a9f7f23d27fe53ce.16", "url": "https://lh3.googleusercontent.com/-CKJu1qQ3CLvIRZAtc1l4w5GVgBXP3RCk8AkeTrryfW6rWKIJRySnmIR7T4-0MPZF5U5CxE-Jg3sM0-9bgTmkiox0iLj1xkQNgq6gMbb", "name": "Ekelunds Torp", "lat": 59.29236100000000, "lon": 17.90795600000000},{"id": "e9d3330f7c0c4335b80655085c1ec661.16", "url": "https://lh3.googleusercontent.com/z9bcz5jWOPRi7OHzC7IJgiNWiQgkHwzOAGav7QTQVD7A4NjXLgpkrbWWdq68r9cX4p-6TnLmjbF8Z6Xk_WI1xTtMyK8", "name": "Den Blå Älgen", "lat": 59.37135000000000, "lon": 17.83975400000000},{"id": "f5be0b4c56554ab2ac4ac07e139133b3.16", "url": "https://lh3.googleusercontent.com/65wnT8PJUJZe5U3ZAkl4xJ12XM1cAI6u7g1kt3nq1stNSKwbFEhzemWZra_vSs5v_6i7R2_5Kx65eDtLdZNZLhtwFGw", "name": "Johannesdals Gård", "lat": 59.27841100000000, "lon": 17.87351100000000},{"id": "fe64dfc0492f4dc58da2bc53ea7af12b.16", "url": "https://lh3.googleusercontent.com/UpQg5HNVPsCFM-epL2VGaO8EDhlWej2RJJ2rRQBS4C-a1heK_Mp8I-BkahFgr1nM4oIrwiWlATfwmac5QOTxT0EwGw", "name": "Stekelhotell", "lat": 59.34860900000000, "lon": 17.93218800000000}]
