[{"id": "00d4ce0c16b248e8a025db24f8ba5a44.16", "url": "https://lh3.googleusercontent.com/SUT3e4LTFjuTgF6gRZRWQ2aVH7T1dkpUpZ5_7Opf70EnxSuNyyEwWwdxofaKRWxvvLLGg_13F-bOHHhu8Wf3Y-cNkEM", "name": "Svedmyras Historia 32 41", "lat": 59.27257400000000, "lon": 18.07100600000000, "bs": 22, "bc": 29, "rs": 24, "rc": 28, "ys": 18, "yc": 27},{"id": "01a4a8628bca412593515abda60b19ed.16", "url": "https://lh3.googleusercontent.com/kH92HGhxnOb444xWaDDqUFXz7JAHQtQsisa7aZ-AIv0jLyGI-blfcGdKnXOGUPBuFsy-x4OdCM_7f6IznX3aM2aWucw", "name": "Finn's Karta", "lat": 59.29750900000000, "lon": 18.11362200000000, "bs": 20, "bc": 7, "rs": 63, "rc": 20, "ys": 16, "yc": 21},{"id": "01ae30b23e554c16a0715125d7e34b14.16", "url": "https://lh3.googleusercontent.com/XvhMlvpoS-xNNO3TzBM6IhMMWQgKLQWC9cKlno832YaUtlxyt16Eo_dbqSP3WVaMSusSbutjT8IeNLGBY9aDjaLsn1Pn", "name": "Olaus Petri Kyrka", "lat": 59.34507400000000, "lon": 18.08795200000000, "bs": 9, "bc": 45, "rs": 24, "rc": 50, "ys": 8, "yc": 19},{"id": "023fd30c56784588ba1155fea5f9a66c.16", "url": "https://lh3.googleusercontent.com/A57TSRxQd39Rcru-KlK-YHX-mkA42ozbcQQleY3A4ktGeEeDzHu8W1u-QfL3OWFfDhtfSwHrim3XKcAc5MtL1k-zRA", "name": "Happy Thailand Mural", "lat": 59.28352300000000, "lon": 18.07294100000000, "bs": 19, "bc": 42, "rs": 12, "rc": 22, "ys": 17, "yc": 46},{"id": "031171d74d25419287e9b7a3f29c27d9.16", "url": "http://lh3.googleusercontent.com/BU6GLZzJ-iYgB6LbMtG1NeHBRT4NQD8n4tb1c0Bf_Wu_r1TbmUrkpVoJh6yFb0F390CPqSURV-NKrhbfEoY8d1KmKsc", "name": "Jord och Gräs", "lat": 59.32489200000000, "lon": 18.08108300000000, "bs": 20, "bc": 42, "rs": 14, "rc": 26, "ys": 15, "yc": 38},{"id": "03d3825fa31e4d62a495d3849a1d2951.11", "url": "https://lh3.googleusercontent.com/7arBsoCKhUj0JTQtQZJe7_U7Fx-7ndkzpPvXPuX1E1S5C5olwOXLhEGaJMCXne2G3zTENoN4Pxc9y8meI4G959eczU3R", "name": "Chihuahua Statues", "lat": 59.29008400000000, "lon": 18.09365800000000, "bs": 16, "bc": 80, "rs": 6, "rc": 68, "ys": 3, "yc": 54},{"id": "045687132353408f82072eb7d69016c6.16", "url": "https://lh3.googleusercontent.com/Pg4kD8QyzLjnmaQ11g1Fqt9pG8LULvBKb1Par6BDdTpWXeiXPeUKlYcBm7f3DyMZJzhHJrtuMIscsaUpmCIWg-o-_sc", "name": "You Can Lead A Horse To Water", "lat": 59.30864700000000, "lon": 18.07236900000000, "bs": 24, "bc": 65, "rs": 4, "rc": 38, "ys": 4, "yc": 35},{"id": "0578c2d8454c47a3a7740caf3b999f94.16", "url": "https://lh3.googleusercontent.com/zPZg1LFHpaz5JyRPKTm8x5DzcAPFcGlk9CDx705T_DMAbdsO_ka3bfTm4s9XQXTFlxoKODLsNzHHVUtjO0BvKDlmIw", "name": "Svedmyras Historia (36/41)", "lat": 59.27158600000000, "lon": 18.07192000000000, "bs": 15, "bc": 20, "rs": 12, "rc": 28, "ys": 33, "yc": 35},{"id": "05a1b71898404386890102281290d2ec.16", "url": "https://lh3.googleusercontent.com/IzfmU669pK7HXfPWCyxPWU4EF2dcQ7hsDzkNlJOEa7iweOUysHjZL2BWQs5HHkO7yu3g0spHHh5CmnxJ2xwG8p3rmQ", "name": "Kattscenen", "lat": 59.29746100000000, "lon": 17.99918000000000, "bs": 10, "bc": 74, "rs": 12, "rc": 53, "ys": 6, "yc": 67},{"id": "068513ff02543acb8d038ca986eeaac8.16", "url": "https://lh3.googleusercontent.com/11HVVfpphfUb9pHEhMO0gJvIfsn9xPPXmtvNVTBdisj8ec5d4nziZs0FUmnf2rg_xqCBU2C-kQTw_J-qucxxeOAwIs-pUElaNfxRz5BPoA", "name": "Dellens kvarterspark", "lat": 59.30030200000000, "lon": 18.04433800000000, "bs": 18, "bc": 28, "rs": 40, "rc": 30, "ys": 7, "yc": 12},{"id": "06d60f4cd769482eb2ecbad28be5ea5b.16", "url": "https://lh3.googleusercontent.com/m_p9m9jIH_HqEgXJNrOmVPArbg93zdaahrNLItlMzsVyX5lRbsanggWUjYQr-7apxh9BuRQeh_BTYJqiuiZnNlPwu8I", "name": "Idrottsparken", "lat": 59.34874300000000, "lon": 18.09255700000000, "bs": 25, "bc": 24, "rs": 25, "rc": 30, "ys": 18, "yc": 26},{"id": "0703321eed744c579326c2f75f818286.12", "url": "https://lh3.googleusercontent.com/ZkTg9LV0DAIpcVfRhVazJte6sIM_aEenv7hRlvk3U8SlSuQX2q_VZoYr3Th7bOjm3irns8i2wmuAQpgC4Id--dtCQ8XQ", "name": "Air & Water", "lat": 59.33134900000000, "lon": 18.08099300000000, "bs": 16, "bc": 48, "rs": 15, "rc": 39, "ys": 12, "yc": 36},{"id": "07bc172c8ca04496aaad629d6b429963.16", "url": "http://lh3.googleusercontent.com/TS_EPheUYi4qenMi0MpQg_us6xlpO01xY3u1Z_cQWz5-dJ_MOUrkx1r8JLmkzyf4nnj_ibiwY6LWxHXgskXMue5JM7w", "name": "Enskede Gårds Koloniträdgårdar", "lat": 59.28959200000000, "lon": 18.06462900000000, "bs": 4, "bc": 16, "rs": 56, "rc": 30, "ys": 4, "yc": 17},{"id": "07d1be8007d94b42a3a55b4aebc38a7a.16", "url": "https://lh3.googleusercontent.com/wA3dqZ09EWy-GOyFCl90dazJ3uMLp2X-zLgSg3oG9eZwT2Ukn-Ku-lLyrNyJr3vtEkizTsWY6tUyBpWNUDQMgBLIBSg", "name": "Krusidullig Ornament", "lat": 59.33114600000000, "lon": 18.03028500000000, "bs": 6, "bc": 74, "rs": 5, "rc": 37, "ys": 13, "yc": 92},{"id": "08333f0e3cb54fada4248f95d21e386a.16", "url": "https://lh3.googleusercontent.com/N3SW2ZIKssjkPXPxJl3Hfw75Mm-hdQHTKY9n9HkM7MTGiiMpJ6up5qDhQbCdfzoYUDj05R2tqyDg9FTdJN7nWh5r3E0", "name": "Billie on my Mind", "lat": 59.28466800000000, "lon": 17.92005100000000, "bs": 21, "bc": 25, "rs": 32, "rc": 27, "ys": 19, "yc": 20},{"id": "08c9d797d4f6473a8c37d0244f123b06.16", "url": "https://lh3.googleusercontent.com/kLhD40e2ZMURkMJ8U_o_2J5gnSqa0cs8U2VsAXKIypy5nP9uoLwTw0_W5nb3mvwOT0XItuex3FRJ1kYUX_cIgG6IDSqf", "name": "Dansbanan", "lat": 59.27023500000000, "lon": 17.99278800000000, "bs": 14, "bc": 32, "rs": 26, "rc": 39, "ys": 11, "yc": 32},{"id": "09cf1ac140664147bbc54d9293849f72.16", "url": "https://lh3.googleusercontent.com/8o4AAyfgw43B_5oAaUFtOnubFAl_MKekWGjfuqLMZ0mtlGCH9L9xAhQYWx5ENmdDwbJ4WNRtW-7BEqFRgQ1DjzmNdYlB", "name": "Fröken Ek", "lat": 59.31161000000000, "lon": 18.02815400000000, "bs": 17, "bc": 20, "rs": 22, "rc": 30, "ys": 31, "yc": 26},{"id": "09d689d9a3e04f9aa5914a4a4e84ef13.16", "url": "https://lh3.googleusercontent.com/MiV5yC5pwbGIHiZROeC8o-fJ_6dlJlS6Eue3xgtJttvNb4RoNOrxS5B1AlyiD2aa7kDkH2q9G0hKBSgoqwlek1iYEOG_", "name": "Gärdet Subway Station Elevator Entrance", "lat": 59.34692300000000, "lon": 18.09969500000000, "bs": 6, "bc": 37, "rs": 3, "rc": 33, "ys": 7, "yc": 39},{"id": "09e21b7317604bdcb9840cfcf02767be.16", "url": "https://lh3.googleusercontent.com/qo_0GTkMNvCCw92-w-H7m0V8ZZlXOYezxtCpxHy8yYMREbc5Q-RhNojFLHXrFwhieWpEFBby0hB4q1uM7io1kCmKEkWo", "name": "Varning för stora barn", "lat": 59.30292400000000, "lon": 18.09168700000000, "bs": 4, "bc": 33, "rs": 31, "rc": 49, "ys": 6, "yc": 26},{"id": "0a6fdaa0f68c47ceac07afb13902970e.11", "url": "https://lh3.googleusercontent.com/882lMK4Y-VEVR7XmuqRNOINkK3nwC0xmPDWgxoDGWtB_BVyJ0AIpEjiXFSiNzqme11g68pXfjAou9LoHeI5FFpHPTN8", "name": "Grekisk-Ortodoxa Kyrkan", "lat": 59.34595900000000, "lon": 18.06256500000000, "bs": 13, "bc": 84, "rs": 8, "rc": 64, "ys": 5, "yc": 42},{"id": "0a8e3056cf904aa2a7166a876b308e22.11", "url": "https://lh3.googleusercontent.com/mylSYtsc29qV0AMPDUhDvJK8sVTbwayko6TvQ3qcFmyEU_YIotqxOmrYUdTh2BAd8o9QV7z4k8SVWBB0Dec4UznrUw", "name": "Fruarna", "lat": 59.28571900000000, "lon": 17.96328300000000, "bs": 13, "bc": 46, "rs": 17, "rc": 44, "ys": 13, "yc": 36},{"id": "0c2155e07e8a4b278c349e711ca4bbfa.16", "url": "https://lh3.googleusercontent.com/9uTmlQZl1Q16cJ5MBxqxdbeJZzxqGu4G9ba82xwG9KrozrU3rsquPvDIk40RhB2ogss2-TqD9Sk0L-EuwlRGkyvvJVs", "name": "Lekplats Margaretaparken", "lat": 59.28217100000000, "lon": 18.08408500000000, "bs": 16, "bc": 43, "rs": 8, "rc": 30, "ys": 18, "yc": 50},{"id": "0c243f69d2004672a3b3051a8efec2f0.11", "url": "https://lh3.googleusercontent.com/sgydVzoL22fn8ph_YwFYAtijNyZahrx3H-RRPxDvqYlrWXGYMSIaEElDPWss5rh9Qi71oTT6JyVNr5NhKPLr8BzVe1A", "name": "Katalanskan", "lat": 59.31660000000000, "lon": 18.05598900000000, "bs": 9, "bc": 70, "rs": 13, "rc": 75, "ys": 6, "yc": 33},{"id": "0c4d36f507344ac8b8c8944ba181e4cf.16", "url": "http://lh3.googleusercontent.com/c7hA8ZmRPcbSa5lvP6h2TzkJ-5uRtVm_NDhLbU444ZbDZYIia88FdVSliCzx5IPRoDr4z6PHAdWexXIObjc1rEWiflY", "name": "Lusthus", "lat": 59.27303700000000, "lon": 18.06567300000000, "bs": 23, "bc": 41, "rs": 11, "rc": 20, "ys": 17, "yc": 39},{"id": "0c59602c044e43a480af3c82f755024b.16", "url": "https://lh3.googleusercontent.com/4RaYk6-V98OeOmO3Gux8u9ogCYmAhpriQGgZWUxdp1zSEQ1KLigU31A8qzdv-qIRrSW_183291Y8SZLj1lwb8JjbPQ", "name": "Sprallens Dansbana", "lat": 59.30375200000000, "lon": 18.07214000000000, "bs": 20, "bc": 42, "rs": 14, "rc": 35, "ys": 15, "yc": 30},{"id": "0d6cfbb4f4544f74a7a9de467b1e9234.16", "url": "https://lh3.googleusercontent.com/E-uAVvyDHv0sw2-dq5oZLmKqFeM3BRlMbUmwpncelPeQjE2s-rviQYVF5puhFA6qyQ_qx2SvBSThP-ZkqQ9Yt7KZFY4", "name": "Piren Restaurant", "lat": 59.33838100000000, "lon": 18.00139800000000, "bs": 20, "bc": 65, "rs": 8, "rc": 45, "ys": 6, "yc": 33},{"id": "0e64ada8987e4feb83460a0a8a093f60.16", "url": "https://lh3.googleusercontent.com/1hyn8vkGWs_WANka0G3XkX4H7F7RwJRRku-XxrY2qM--vZJQBHtGXapcXwk40Naok_LNMx5B23dfe1oLBu9JIdJ67A", "name": "Högdalens bollplan", "lat": 59.26597700000000, "lon": 18.04038000000000, "bs": 12, "bc": 44, "rs": 18, "rc": 59, "ys": 9, "yc": 25},{"id": "0ef69c53b0ad490c987c4f6da5109304.16", "url": "https://lh3.googleusercontent.com/m8ZEcpPD_62yp2d4wISSokH5J_ZKQce2bhEPA137hNPOlOr7a7vmCxe1p8d7z_WlVnuge3VGhQE_YAuRHgBeWRGEFF4", "name": "Tornberg 1916", "lat": 59.33275500000000, "lon": 18.07567600000000, "bs": 15, "bc": 50, "rs": 12, "rc": 32, "ys": 15, "yc": 47},{"id": "103ca165508945a882a0a1bc0c664748.11", "url": "https://lh3.googleusercontent.com/ZV0YwIOsU0RzJPCYikFap8NCI7PhG_pG_KGa01wchx5J6xawNJJdBRdQjqmrsFEdoQdM8HYINtVema_rW7X_yXOJaBY", "name": "Baltzar von Platen", "lat": 59.34757800000000, "lon": 18.07451400000000, "bs": 10, "bc": 75, "rs": 8, "rc": 59, "ys": 12, "yc": 52},{"id": "1106a8fd5a0649219c10fa19e79159c3.16", "url": "http://lh3.googleusercontent.com/8KNgtPSeU8T4z2wbM6-DixgG4bUZvg2ZwlFUSx4-J8K0H1RtwugIWrsAsYEq7IMbqzg4VBwOg1JgkAuiEMTFw-at5XQ", "name": "Lekplats Norrgården", "lat": 59.29436500000000, "lon": 17.94365500000000, "bs": 13, "bc": 71, "rs": 7, "rc": 25, "ys": 11, "yc": 64},{"id": "119e75e7b6224788806af37add216317.16", "url": "https://lh3.googleusercontent.com/mclB9tFGwAFqI7Ay-s2IktMfzlwCmPIo12dfEMJv_AF5RIGn0ndBc82ffU_4cIPpIWupAS1SLSz5ibG_stOlS0tCcHb_", "name": "Globen T-banestation", "lat": 59.29449900000000, "lon": 18.07827400000000, "bs": 11, "bc": 51, "rs": 12, "rc": 40, "ys": 16, "yc": 49},{"id": "123ea64125c7408081317d437e91bc20.16", "url": "https://lh3.googleusercontent.com/xW3pLdWidU6R-wXGPNDVzrdwrF4GrODxMdRwNTkssi4RVeTQ3jK_cyA0xyH8X2LarKsX6QmGk4RzHiYxVEohUR755Q", "name": "Insane", "lat": 59.32369100000000, "lon": 18.09566000000000, "bs": 8, "bc": 66, "rs": 10, "rc": 64, "ys": 12, "yc": 55},{"id": "126c1b5e712b43a7b573138c57a8d27d.16", "url": "https://lh3.googleusercontent.com/b8sBkVP4cfdsTFK5ApC-G6M6znrlpOWMOP5nUVQvBVveYquKE3x6Guo9Q-hh-LgXtDUFGbSvEEOnPqOua3mwY7SHHxtP", "name": "Kungsholmens Baptistkyrka", "lat": 59.33091600000000, "lon": 18.03539200000000, "bs": 9, "bc": 66, "rs": 4, "rc": 37, "ys": 14, "yc": 76},{"id": "1291e047da544afbb89fff76ba53dd9b.16", "url": "https://lh3.googleusercontent.com/taAEEHdQ4FE0A_VT_2YGTbJb4kP9yeJZ2LvVbAh2WXiTyj28BsIddlu8P1Bij8H3BNwsJCV-bGKNhtntH5wJX_kXaRIG", "name": "Örnsberg Subway Station", "lat": 59.30551800000000, "lon": 17.98909200000000, "bs": 16, "bc": 49, "rs": 18, "rc": 42, "ys": 8, "yc": 33},{"id": "12a9b18b6cc74650b03dc20dccdc26a9.16", "url": "https://lh3.googleusercontent.com/Qk71d86PWDB1sbO7_-1syRHTLKrLtgaYU2NdW0HV-LxPK_0fOgeSOtztvaLlrFLNxZPhnbYn8H8a3GDlnhdcaIuHCXA", "name": "Regalskeppet Vasa", "lat": 59.32810900000000, "lon": 18.09143700000000, "bs": 11, "bc": 62, "rs": 10, "rc": 56, "ys": 8, "yc": 50},{"id": "137784d164af47fe91f0a84e9988accf.16", "url": "https://lh3.googleusercontent.com/l-hPxQZH_X_GBpIpXeiOe3fZyfnxtMa4tNH8-bB1PmKVcXnkbxg-MSaSRTlm2B2jdibdhBVm_HDW9GhtE5a1bLrnwjI", "name": "Gyllene Sol Med Klocka", "lat": 59.33196200000000, "lon": 17.98987300000000, "bs": 20, "bc": 43, "rs": 20, "rc": 38, "ys": 13, "yc": 13},{"id": "13ad2bd4f4a6415f8b386ba30e91803f.16", "url": "https://lh3.googleusercontent.com/cUP8gmsznmnLCjwM9DI-0_cuELZ6jBv_qKWgOO2TCWtNtysU3yCQiTO_ZNigHymwjh5MpjDMlvFOv-jLldlwd5g7GBDM", "name": "Tower of Mormor", "lat": 59.32079400000000, "lon": 18.05119200000000, "bs": 17, "bc": 44, "rs": 13, "rc": 40, "ys": 14, "yc": 39},{"id": "13d7ca59093a47008ede24a115ac7532.16", "url": "https://lh3.googleusercontent.com/GMFR_TQI-y8yw-nBZx65-UgPBvHhn6Y_YhOhC5NCBs_fnHDZwhOmq-0p3ikv6LtJqL1zjk_BVVo_42avzPjZBQosOB4", "name": "36 Flowers", "lat": 59.34473400000000, "lon": 18.05886100000000, "bs": 10, "bc": 89, "rs": 7, "rc": 76, "ys": 7, "yc": 61},{"id": "15dd52a112fa450889f6c17936debb33.16", "url": "https://lh3.googleusercontent.com/aL-owmBnkQp7hEU7Q6Bx_J2yPLO_gJGqm2v2AQa5NGxvE9u86uGqWnOzJZvE6fvH-AAZ9aDJO_5SZpr23TykIKmycoc", "name": "Paradiset", "lat": 59.33645100000000, "lon": 18.01322600000000, "bs": 14, "bc": 111, "rs": 3, "rc": 53, "ys": 2, "yc": 68},{"id": "17c925492db74ad2a942d7fc712181a9.16", "url": "https://lh3.googleusercontent.com/_zn12Xk96OA7gfeEc3bxB-JWLkiNOjCYjfF7qTyqx8ewT5KNJZ3hNQ4B5R6AHcn_SN7DalKaJeIs8BUxZ3VGeZA0IX0", "name": "Blomsten", "lat": 59.31797400000000, "lon": 18.03372500000000, "bs": 5, "bc": 100, "rs": 6, "rc": 89, "ys": 7, "yc": 106},{"id": "181670fdccec4600a0c542916756f299.16", "url": "https://lh3.googleusercontent.com/tdI7G1CP94IRpsfaBY1k9p2-mnCWUhB5wq2oUSSIDWcVQe4JlnNW5a48_8UhXuTlH_SqHdorgx16qRCD9-1MAjULyK8", "name": "Climb to the sky", "lat": 59.27834700000000, "lon": 17.98985500000000, "bs": 14, "bc": 50, "rs": 17, "rc": 55, "ys": 12, "yc": 15},{"id": "1c62cd54190346dc84c534dc63ab1948.16", "url": "https://lh3.googleusercontent.com/rhFueCo-4auTpDZqCiH_9IB3j1CDU_wqpxBLFwgHG1xUtpb64zIW3S4l08Gk44Zdiz22_D0D6qXBxwM7eyAhkU96Pxk", "name": "Flicka Med Boll", "lat": 59.26224800000000, "lon": 18.01463900000000, "bs": 11, "bc": 61, "rs": 15, "rc": 64, "ys": 7, "yc": 24},{"id": "1c78b26ec22e4cf1bb281f937dd34f6b.16", "url": "https://lh3.googleusercontent.com/NQJBCJNSQO4c5w-snQFHfaV_5zrQbvSlWvMuq9utbsQkTCLDeDBBx2IZor8gVFsZhF9RuXMeAsFwOfIvsc2TURji1CPa", "name": "Sigyn", "lat": 59.29408100000000, "lon": 17.97646400000000, "bs": 10, "bc": 54, "rs": 11, "rc": 40, "ys": 15, "yc": 56},{"id": "1c7b4b17d26e43dd932b1ba6f33378e5.16", "url": "https://lh3.googleusercontent.com/m19jvJPTIwvg61yB-3EDwsofxhuXd-mq8BBHgkrBgiHweXDWmEbvX2W_RPpBfmjv8KZVdK-mXjBo6sHi5yef6I8FXIpx", "name": "Reliefer II", "lat": 59.28128100000000, "lon": 18.01285000000000, "bs": 15, "bc": 27, "rs": 16, "rc": 30, "ys": 30, "yc": 30},{"id": "1e3fa2203eb246a0ae09425700af8827.16", "url": "https://lh3.googleusercontent.com/dgBf_Gur5pB2GRKagZjtbfMTsnZFvDPslNXBNZdgaImcghcGlnc7NhknW4Et3JTrp5Deks2XdbRCu8-kjhBia-a5Wjs", "name": "Långsjöbranten", "lat": 59.26713400000000, "lon": 17.98199400000000, "bs": 15, "bc": 52, "rs": 16, "rc": 56, "ys": 15, "yc": 7},{"id": "1e76545bc3b4464b900298a0e7f0d4e7.16", "url": "https://lh3.googleusercontent.com/zjJBj6sG0UF43LoyIczyJjVIlKkuhfPFaElr7LgW3H6K04ASoGawJpFsIPR-ap1KRxqrklh95jtX-MXqq1obZHduyg", "name": "Kapellet På Västberga Begravningsplats", "lat": 59.28810300000000, "lon": 18.01805700000000, "bs": 23, "bc": 16, "rs": 28, "rc": 21, "ys": 35, "yc": 24},{"id": "1edaa9bc9a0b41ab8995b63df0fb91be.16", "url": "https://lh3.googleusercontent.com/LX-gxrcxNXrZo7EI3zfb__mKEVcligBNQKp6cK6THEVLi-vvNRwRZ-IpKagTHk-bnVYgvRylBCpD5YBINHHzdH5WXq8", "name": "SVT Fontänen", "lat": 59.33540600000000, "lon": 18.10121600000000, "bs": 14, "bc": 43, "rs": 17, "rc": 39, "ys": 15, "yc": 36},{"id": "1f18d6a965204187993b91680391a940.16", "url": "http://lh3.googleusercontent.com/iTLHU8_P5BrnEJNLgnTJ5-_tOI5k14TDX6o_EkGLs0zWu8GVTV7U75iUZMy5lXA2kjm0Ojc-sfdhtbLqJR8u5kYOP0c", "name": "Spelplan i Lindeparken", "lat": 59.29334100000000, "lon": 18.07106600000000, "bs": 20, "bc": 27, "rs": 19, "rc": 24, "ys": 24, "yc": 34},{"id": "1f9aa54c3c8e43f3ad5e611972a703b9.11", "url": "https://lh3.googleusercontent.com/zdL5zs8SSrJIu6ViQ3nE-8arH8ewm9BnrOXJBS2TT38S3juHEYdtd5fm-ydiPNr-6KTYLU4shd8RK0RaUlotjBf1cPQ", "name": "Katarinahissen", "lat": 59.31993300000000, "lon": 18.07320500000000, "bs": 9, "bc": 79, "rs": 9, "rc": 78, "ys": 7, "yc": 56},{"id": "2030fef74fa04476a65d00da0c4eb72b.16", "url": "https://lh3.googleusercontent.com/CCkm-nvJuECx9xewHngoDwI_ZUW2pTki-DOuS89R0jqoE0BcUBbTvz3CpyTpsZNVAZ4LSl286Tyk1jgqlHQ4yJEvsmA", "name": "Kupan", "lat": 59.28169600000000, "lon": 18.01298200000000, "bs": 7, "bc": 21, "rs": 15, "rc": 31, "ys": 28, "yc": 43},{"id": "20c47396fad3459fbf2888f52a675ccc.16", "url": "https://lh3.googleusercontent.com/hIwvfYK2YAuPssoVagMoLOU4LcakDOzHNFIZ3k4tHCHY0TXbT7S7u0va_Iz9qoKgZjr20sf4F32OURPdwgtyJvj7aeh2vmeblIq7VsDnLg", "name": "Tigers", "lat": 59.28374900000000, "lon": 18.04247000000000, "bs": 4, "bc": 73, "rs": 14, "rc": 91, "ys": 4, "yc": 56},{"id": "21d8d3b6ed983655817e3e05888fed06.16", "url": "https://lh3.googleusercontent.com/SdvgOSMvRHjDwWtm8XlB_EgBEyOCa14VSbBljD1azoapvDODRMa1Qov1Vi-DFc1ATpOe3U7aL-HYsPf2gnIxqg22ObNftmR2o8rdoQg", "name": "Anslagstavlan på Hjälmarsvägen", "lat": 59.29884000000000, "lon": 18.05509500000000, "bs": 19, "bc": 36, "rs": 21, "rc": 37, "ys": 13, "yc": 25},{"id": "21dcb7e1f64644b9a3a5913855801632.16", "url": "https://lh3.googleusercontent.com/laXW6gm1hBjwIc_RehjsgX7I4oJb-y8Tuf9SrJED2L89VlwFu4e4OfpUlmn0Qoryqfy8nMh6zMkF_aNhCJSX466FKk0", "name": "Sandvik", "lat": 59.29037600000000, "lon": 18.00703900000000, "bs": 14, "bc": 42, "rs": 11, "rc": 33, "ys": 16, "yc": 54},{"id": "223b019f2ed14264a198e02c805379ab.16", "url": "https://lh3.googleusercontent.com/zLv1cH-suf8YScnveh0I8oPxT_I0orAcw3kC9LsDTcl92VPApzmThov4_xx197N_S9CMVxKS_TW6LQ9MBpw5lKe0RDbR", "name": "Älvsjömässan Fountain", "lat": 59.27702300000000, "lon": 18.01519200000000, "bs": 13, "bc": 56, "rs": 15, "rc": 40, "ys": 9, "yc": 53},{"id": "2456d52086db4b85aa1c741dc6f9fcf9.16", "url": "https://lh3.googleusercontent.com/KkfzjsJmTdrmdgw7hSIqYpHSny8em6MO9sJ3DoBRz57zUu6AHjOsog1_vr6hwkNNtKHli-V_rkFNnF5-kCIq7jrVWkN7", "name": "Fruängens Centrum", "lat": 59.28597000000000, "lon": 17.96365700000000, "bs": 10, "bc": 58, "rs": 11, "rc": 65, "ys": 9, "yc": 49},{"id": "24901520b5e240fdbcb0f67d28a9a358.16", "url": "https://lh3.googleusercontent.com/wdYhvRMHvbN-PhxR-LIFUKkvwRM_WqBEe0bLZxGDgVrYA-MsUt8zzttPJ8Q1xbAXyVmoMQyHGqFG49a5nAsmB4mmNX_w", "name": "Askrikegatan", "lat": 59.34422700000000, "lon": 18.09759500000000, "bs": 7, "bc": 42, "rs": 15, "rc": 36, "ys": 17, "yc": 55},{"id": "2594c75cb8a5445a87cf9775cc23b6f7.16", "url": "https://lh3.googleusercontent.com/Oo8Xv6RP_w7UKpVfipoen3I-peNSQoOe9aHl1P-Q1pGcFfkqk5K8QArUgPOYwkrpAxvnxa2hH6-gpsbPZTF7nKJRVMs", "name": "Tyska Kyrkan", "lat": 59.32406500000000, "lon": 18.07137700000000, "bs": 5, "bc": 96, "rs": 8, "rc": 121, "ys": 4, "yc": 91},{"id": "278d1e9f610948aba2fc1ac326b7734d.16", "url": "https://lh3.googleusercontent.com/gyIdwsAhIfG-X57D-Sm4VBWis9KRGycpy1FJp28SHaf9wCjOehE0CEGDIkc-yfIBqNsSML8sc1LuqDAnx967SSU_X0o", "name": "Två Damer", "lat": 59.34223100000000, "lon": 18.08345000000000, "bs": 8, "bc": 72, "rs": 9, "rc": 54, "ys": 10, "yc": 70},{"id": "27f442d8675f4694903a41ae620b9a19.16", "url": "https://lh3.googleusercontent.com/Dmai6H0gPZlpIU3GLVqQlJDFYzAXvDBcNIpysS5ZBXve5eO2348USvZx6zuy4yFfeIQEWylUO-j4Y6uQ9gZ23bBn8JU", "name": "Fiskansikte", "lat": 59.29483600000000, "lon": 18.05615800000000, "bs": 24, "bc": 24, "rs": 35, "rc": 23, "ys": 20, "yc": 20},{"id": "281221abb41447e38d9fe627177bec6d.16", "url": "https://lh3.googleusercontent.com/9XdnHEJlxtNmIHVAMSnmGZIayGfJi4m5HRUd6alzmlMPxDnmdSENBvn7vox9scZXARROuWHRxnZ_EeuKpjcLl9IiaAE", "name": "The Happy Frog", "lat": 59.27026400000000, "lon": 18.05044800000000, "bs": 12, "bc": 97, "rs": 6, "rc": 88, "ys": 4, "yc": 26},{"id": "2871c95e6b55455d980a0b820178aeaf.16", "url": "https://lh3.googleusercontent.com/celVs3H-8RDaKJR7-TdXk68Uq_E3kth7qoOv5PQwLKeh52NyBC7XO2h-51yDh7NutJbTDhx-8msRhZB6p0sQhtM9Bg", "name": "Skålgropsstenen i Årsta partihallar", "lat": 59.29217800000000, "lon": 18.03091600000000, "bs": 10, "bc": 23, "rs": 22, "rc": 36, "ys": 18, "yc": 44},{"id": "2936d075389340a0bca63f4352327a8a.16", "url": "https://lh3.googleusercontent.com/1poUGSytcIuzXu-cCwoH6ejLHpznLowu7JehWkGUbFBKbWVw9r0v153Usjvu6NsJS3MJCf8mciy9gOuZcLF3J3D-jA", "name": "Kuben", "lat": 59.29356100000000, "lon": 18.04984100000000, "bs": 10, "bc": 64, "rs": 7, "rc": 67, "ys": 10, "yc": 76},{"id": "293b690d4e3646d6bd0f7303b72719ca.16", "url": "https://lh3.googleusercontent.com/ONl39a7eZfOsPaObsaYp546BCg-x8T_fPrOb0Uh8SHrWIT1P74eW4ZJSt0l1LNMlc78XrQlhCYqs0WhSp6hrvbf6Xxhv", "name": "Fries Playground", "lat": 59.28830100000000, "lon": 17.97157500000000, "bs": 10, "bc": 106, "rs": 3, "rc": 77, "ys": 4, "yc": 51},{"id": "294ea8b6584644d5a9aa16c9ab14638e.16", "url": "https://lh3.googleusercontent.com/JmjMRw-S9CCF6P9msOFOzw-1MYUqL3Zkv5PLeexJY8ZNQ8-5EJ5RSpP6TTuntzUy3XLRsd3a-8byhnQ9S4eQq-oVAxc", "name": "Mikaelikyrkan Klocktorn", "lat": 59.27700200000000, "lon": 17.90990500000000, "bs": 23, "bc": 42, "rs": 15, "rc": 40, "ys": 10, "yc": 16},{"id": "2983b372cd7d46928e6e58aada5d4b8c.16", "url": "https://lh3.googleusercontent.com/W2Poom3MHlkr9Ng0mE72Pu2osYzg5InyonJOIC5PRXp8Oo9eqNugXQ5XCHTre02tI-BZ8KmhTy7CRrCzEKAl-7-H3ls", "name": "Hantverkshuset", "lat": 59.27077800000000, "lon": 18.04539000000000, "bs": 9, "bc": 22, "rs": 8, "rc": 45, "ys": 21, "yc": 56},{"id": "29c66b578c274875b61525c56272b42b.16", "url": "https://lh3.googleusercontent.com/Mpip8MI5DSpWyzj5mZPkVZtZPpsC7b1Q8WyVWk4QsFLe0UIOoazm3oBf0DGhUbNs5y06AdFDqzTrjwFV49qEoJCddq3f", "name": "Tiny House", "lat": 59.28785700000000, "lon": 18.09895900000000, "bs": 13, "bc": 47, "rs": 20, "rc": 52, "ys": 9, "yc": 12},{"id": "2a1e5ab2381a451c9075bea1b112d571.16", "url": "https://lh3.googleusercontent.com/YQ_C0rcEsd5HJJA3XCUZtrZny1yNDZ2wAst1i_C0ErCLx2GtCbbM4qQbkk57ren0EUQS8T6TrB-FuZf2ASPvSuRG_Qo", "name": "Stora Katten Tinker Bell", "lat": 59.26904800000000, "lon": 18.05113600000000, "bs": 7, "bc": 68, "rs": 16, "rc": 80, "ys": 4, "yc": 25},{"id": "2a64fc801c4d460484cc18dbbd856a39.16", "url": "https://lh3.googleusercontent.com/GhZF5szHbr5eAv7dG0QTmASWcO3vCitD6wfBPabtXNIC-M1FrQxvO4i72qZqyNKJeWE7AQJ2LUqgxHiQNrTfFpUuKto", "name": "Färjan Till Årsta Holmar", "lat": 59.31100700000000, "lon": 18.04057000000000, "bs": 23, "bc": 28, "rs": 23, "rc": 31, "ys": 13, "yc": 33},{"id": "2a90e48779bb40ba9fe909ddead91fef.16", "url": "https://lh3.googleusercontent.com/AEokaBFJqUku-YQbCDfmynFBytQkjCDG7bkhFcqu52_aBe_cna1PBSVcal0XBQx7y9xT-kVMVQaBUrIJShsizKrhpQ", "name": "Funderande Pojke", "lat": 59.30131000000000, "lon": 17.97016400000000, "bs": 9, "bc": 23, "rs": 29, "rc": 50, "ys": 6, "yc": 27},{"id": "2bb494e668ac4b6eace71c221f2b5041.16", "url": "https://lh3.googleusercontent.com/WHYTR8kSPfHu4hRIqEgcxJw7GUfJjJTpMSf9x8pUhR5zNlPMYBfuyit36hqQL4IQyxNMw0wz4U3JXrVnFMhXm-3pwjk", "name": "Odenplan Tunnelbana", "lat": 59.34291200000000, "lon": 18.04980700000000, "bs": 4, "bc": 106, "rs": 3, "rc": 114, "ys": 6, "yc": 149},{"id": "2c23b9709729461db96b0300892d55d5.11", "url": "https://lh3.googleusercontent.com/s-f67QNfGIqmWWrGOUqqvc8wRCdoRT_NG0tpxsR8SG7dhWaZ2DQ8lbTm6sZpe-M9sfRDwDqQJduyEI6KUrBPQnY3Kw", "name": "Commedia Aeterna", "lat": 59.31412200000000, "lon": 18.06972600000000, "bs": 13, "bc": 82, "rs": 9, "rc": 76, "ys": 4, "yc": 22},{"id": "2c440fa3c85743fdb10cd47097516afa.16", "url": "http://lh3.googleusercontent.com/FFgaB0PVC8gOyEaTqVrnYtqGXbOeJaRwczAaD-wSM0R7R71JDhW27muq3peP6HO-kXhJFm8CsAqk6_bjiGLqqN8yxw", "name": "Bredäng Church", "lat": 59.29577800000000, "lon": 17.93404300000000, "bs": 19, "bc": 77, "rs": 4, "rc": 44, "ys": 4, "yc": 39},{"id": "2cdc4aac66634488838c7e994901d2fb.16", "url": "https://lh3.googleusercontent.com/DsrA7e6QldQXIEv6sA-0zo2JrfDWKfE1QyO_AltiW7i9DWLh92ceZgmnVhe6dMR8ToeUlEAaxBky6j5ynUG7p0_F8dM", "name": "G2 Harbor Marker", "lat": 59.30522600000000, "lon": 18.08655200000000, "bs": 9, "bc": 102, "rs": 7, "rc": 89, "ys": 4, "yc": 57},{"id": "2e8056f6bea249eeb72eaf35bba390c3.16", "url": "https://lh3.googleusercontent.com/iFazFh3kkHl4cFKRqcl1iljkfhPwtwPnMudJHidoni0DNqCNGh9JluvA5GW47xWPqheLYJNLMUDqAh3NExqpbzZJhe8", "name": "Olof Palmes Minnesplats", "lat": 59.33659600000000, "lon": 18.06283300000000, "bs": 8, "bc": 123, "rs": 5, "rc": 80, "ys": 4, "yc": 86},{"id": "2ea3bee9c3184442884459103974cbc8.16", "url": "https://lh3.googleusercontent.com/OS3vWxZUzd0EALd25dhloIMUb3g_FDAswVhN5TYndtYfhNEyELGU1LjHiLHHZSDA-7Dx5MCMF62ufgs0EG09y1uLQch9", "name": "Kastellholmskajen", "lat": 59.32171300000000, "lon": 18.08951800000000, "bs": 16, "bc": 32, "rs": 16, "rc": 22, "ys": 31, "yc": 29},{"id": "2f1690e93d704149b8be63b0da6182d3.16", "url": "https://lh3.googleusercontent.com/8XWZl085Wx7Ts2Y4zGjmDbgqYxmoam8K65Tr8jXH0ySscZ5uiY5bwKPEpjh95c0LA0QMRIkvm9yh9jyL2uKSiwXNgr8a", "name": "Lion By The Bridge", "lat": 59.26692800000000, "lon": 18.05871800000000, "bs": 20, "bc": 52, "rs": 13, "rc": 36, "ys": 14, "yc": 20},{"id": "2fc6d57b1eb84183818ce0f85847dde6.16", "url": "https://lh3.googleusercontent.com/i-ap0DuAS0esCo7DLcZVXHe9u6pDdIOid0KlN13adrXVc89nliiRvORsb4PElYwltMgWmXId24bokKm9lopYvJ1HBcfU", "name": "Ormen", "lat": 59.29402600000000, "lon": 18.04537400000000, "bs": 8, "bc": 57, "rs": 15, "rc": 65, "ys": 9, "yc": 40},{"id": "2fec6c7de58347f1bd4acb5767090170.16", "url": "https://lh3.googleusercontent.com/SQnzQMwTow5VRN1rLyeeemVTWqhBwC83gNZbvw0dICf3yNEH_w-Po2fO6uDOrz6un2bd5o3TfLaTxBKed9FTr9cS2w", "name": "Ringvägen 100", "lat": 59.30740300000000, "lon": 18.07526500000000, "bs": 7, "bc": 140, "rs": 4, "rc": 102, "ys": 4, "yc": 110},{"id": "30b38757fcb54d7ca81db12d4cefa9c2.16", "url": "https://lh3.googleusercontent.com/wBdK8xKZW4Z3bmmPuNtZcv5SAXlv5RMwOOobGkLPTdkjpXVkBLBxOzMBlY65d19BxHwNK4j_UQjE6kHwIqwWb1Y0zbU", "name": "Konst 4", "lat": 59.29088600000000, "lon": 18.08847500000000, "bs": 8, "bc": 22, "rs": 10, "rc": 30, "ys": 32, "yc": 42},{"id": "324b86b293f04146a253fa79f53c6534.16", "url": "https://lh3.googleusercontent.com/MAf4GbP0ON6XHRtDuHE2XgsYAltR68nod8XFMfTt9vhpFEi624IkLZk3cN634gKQ-1A2v1RiaVad3dJWJgbCDZRD4A", "name": "Drömmarnas sjö, månen som speglar sig", "lat": 59.27880600000000, "lon": 18.00999700000000, "bs": 9, "bc": 95, "rs": 5, "rc": 75, "ys": 6, "yc": 84},{"id": "32eebff5453748a292f296479c58e9a4.11", "url": "https://lh3.googleusercontent.com/XbKMwGjVLpvZF08eAbU2jUEWOVpeTuay-_xQIaHCbMDgl32i9tJ_qrxripQjse4Hg7WcJ0MYJKli6y8R31-cuZLKYpE", "name": "Non Serviam", "lat": 59.33459900000000, "lon": 18.06566100000000, "bs": 10, "bc": 116, "rs": 3, "rc": 79, "ys": 5, "yc": 68},{"id": "33eb4653ce204268bf60cb1e4964d36c.16", "url": "http://lh3.googleusercontent.com/07TzKxQA5M67eS4onGTKb_HYEVqV20WsgwYzxRPISUklqNC9csKT64RWDKUnjzIaeZRVjc0yT6WaiNnJmtV9gj-M1njz", "name": "This is Stockholm", "lat": 59.31549300000000, "lon": 18.10353300000000, "bs": 20, "bc": 34, "rs": 19, "rc": 28, "ys": 25, "yc": 22},{"id": "348fa4cbbbfd429fa4ce3eb75b25cf2f.16", "url": "https://lh3.googleusercontent.com/cvj5eaexsPHKQoguOAT-gP50ytiW1UQ5vqMK7y1GNTwaFsx0kxki3q23SN5m6Tonb17ZAxgNTX3sr-n6wW3jknLeczd8", "name": "Västberga Begravningsplats Entré", "lat": 59.28854100000000, "lon": 18.01801700000000, "bs": 20, "bc": 24, "rs": 22, "rc": 16, "ys": 33, "yc": 29},{"id": "36608053ed8d4072a872499c436b17b2.11", "url": "https://lh3.googleusercontent.com/_E6tJnMbdxFAzW8MWu9EOobhIP4CJioG0SDYt_4f0gYZvtsxxoE0J8CLru5UOJaMaDiWDWpFyQOlLY3qLI2VxGK4FRo", "name": "Gubben med Geten", "lat": 59.29230300000000, "lon": 17.96821500000000, "bs": 19, "bc": 47, "rs": 11, "rc": 37, "ys": 14, "yc": 37},{"id": "375fe272cc02447e86b613dbed0bb375.16", "url": "https://lh3.googleusercontent.com/Yu-AAAi8gHHIk6lyZ3zgfUfeWgwW_-RacdTalPnBoheIDZ1-m6PQSeA9-o4e8GJC57XJXnJxvtoJihbIgH3TEpmnlCE", "name": "Klätterställningen i Önskeringen", "lat": 59.26413800000000, "lon": 18.03722200000000, "bs": 2, "bc": 16, "rs": 1, "rc": 28, "ys": 36, "yc": 47},{"id": "376103ff97b845eabf78fde8c3aca4e3.16", "url": "https://lh3.googleusercontent.com/VePceFmsUXMrtM9KZNSFBeOEhWdoOgdaI00DU8YhS5JyKfYec_-xBUev9NO7-vKPxc59FuVJ-MxUaROoTp2qxW_-F68", "name": "Squirrel", "lat": 59.33482400000000, "lon": 18.01765200000000, "bs": 11, "bc": 87, "rs": 8, "rc": 79, "ys": 7, "yc": 30},{"id": "3772a5cbf65b4b199f6f45a9ccd51952.16", "url": "https://lh3.googleusercontent.com/PB_oZlVOFsTEdHPielRTQon_WrChw0BjkVQLvJn5vm1oqVbtKxkCCkj6B9I5qVO9lQ0QQ2EBRidDFYk4HD9dMWkX_w4", "name": "Storsjöparken", "lat": 59.29717400000000, "lon": 18.04385900000000, "bs": 21, "bc": 42, "rs": 19, "rc": 40, "ys": 16, "yc": 9},{"id": "3950456d8b6241f689eb5b01964c6bf6.16", "url": "https://lh3.googleusercontent.com/iG-o_0Iv8gwjP2WVFSpMxJFn4zyVgFg8o3PF6tgfW2fB6NzbSH9S6GELKosoqcS0umZt1aScKv9DjnKqXDvlh9nhdjs", "name": "Svarta Elefanten", "lat": 59.30900000000000, "lon": 18.06017100000000, "bs": 17, "bc": 40, "rs": 18, "rc": 35, "ys": 13, "yc": 34},{"id": "39a18c3c9f1334019bd8eca1a25b0515.16", "url": "https://lh3.googleusercontent.com/hwHd-hip_0u_FA2QJQlX0fzHqEjH1cLexebIZgrnUoiHP09rBJp_R9b2nmbseIm0QeGHzmp9lwNwE5kzIwb_bDRFvWHf0-PfJiAdDns", "name": "Knattemålet på bredaröbacken", "lat": 59.26654600000000, "lon": 18.03439000000000, "bs": 14, "bc": 67, "rs": 2, "rc": 34, "ys": 11, "yc": 66},{"id": "3cd45e74898f4bbf9c44103ef3014401.16", "url": "https://lh3.googleusercontent.com/znxNj3IY859y0gc1uBEk0v4tGWuZN-mam9vboT_GX88apLJqAhKFMrSjXBJa8YpnDJVK-hRL8T0hNKVYqhG5QsxjC3c", "name": "Guldkronan", "lat": 59.32730200000000, "lon": 18.07904400000000, "bs": 15, "bc": 30, "rs": 28, "rc": 35, "ys": 18, "yc": 17},{"id": "3cd943524b41465f855c283a49688721.11", "url": "https://lh3.googleusercontent.com/Jw5nElLMvSQtaz9k5uCDet7uhF6YCCsZkraBYurx9_TtLdkMxOG4iYMlKm1lkjOnJEKYJo6VUJCRVUQwb8V5ewjcRDU", "name": "Nils Ferlin", "lat": 59.33154600000000, "lon": 18.06070700000000, "bs": 6, "bc": 147, "rs": 4, "rc": 121, "ys": 4, "yc": 104},{"id": "3d16ae346a5b41449495e7c306ce727d.16", "url": "https://lh3.googleusercontent.com/GmlAQQRbvWhGGtd-oTIbZyuNzgg_yjDTdQcUNc9MnzHNDzutCmD0W3hMFJSPJ3_6hrTRuPQ4d4EHHoLCALtWRXpzrw", "name": "Stenfiguren", "lat": 59.29830900000000, "lon": 18.04952900000000, "bs": 21, "bc": 67, "rs": 5, "rc": 49, "ys": 4, "yc": 25},{"id": "3d5f2f6d456249049b8cd554b4e75c28.16", "url": "https://lh3.googleusercontent.com/5zaPsaFpPgDY9wpROIZ1zri1S1jClwB5TXLYPujbPdO6gWGY45_qgn12anMuHaLeIp3q4zO47hF0-6ZOfSv7LgEms0Y", "name": "Hunting Dog", "lat": 59.34313900000000, "lon": 18.03627100000000, "bs": 8, "bc": 80, "rs": 8, "rc": 51, "ys": 9, "yc": 87},{"id": "3ded0d46f7b64a9aafdf1f141292b44a.16", "url": "https://lh3.googleusercontent.com/AyvLddH-jclIvnu4XvgVcybK9xxb5wg8NK55tVrK-klRSpSekXA_xpOBaCk-1C2trweQcJS8D7Oa13_fcpKHu4USG6Ev", "name": "Josef Franks Plats", "lat": 59.34615400000000, "lon": 18.10014400000000, "bs": 10, "bc": 60, "rs": 14, "rc": 63, "ys": 7, "yc": 38},{"id": "3e04c82c33e549bc8ac6b4243c02c5fc.16", "url": "https://lh3.googleusercontent.com/dAk_DB86t0umN9tZgwbtf4SOW0NjtWRfzeBNokAmKpHTBUnB4kX2rZTFy7svT_wzthUGRR4dvO20aPPJqZUP7bXirg", "name": "Två Myror", "lat": 59.34223400000000, "lon": 18.06451500000000, "bs": 8, "bc": 56, "rs": 7, "rc": 56, "ys": 12, "yc": 80},{"id": "3ef749de662e4f8abad3260b37163002.16", "url": "https://lh3.googleusercontent.com/sM4RFLr4_RqEd1Y0q0QnvuybDh2z1vo-yl6twEg9Az3GdpMNH7hUsZImIlWIRzAlpFGlqL8-Ezt4K25Hrs2lfnlO6A", "name": "Sample of a Distillation Tray", "lat": 59.34952800000000, "lon": 18.07364100000000, "bs": 15, "bc": 58, "rs": 15, "rc": 50, "ys": 5, "yc": 37},{"id": "3f36c8a78bfb4d4ca2617987adc9de90.16", "url": "https://lh3.googleusercontent.com/itou2RH5x80XLMjkz4PDo0OFld2me-ciFcI3yW4JQHgtRPqqb6DRpBx7MdPHuyb2gz-C7bxKLu4Ty8sC09g8FnU8Eg", "name": "Flicka Med Bronsfackla", "lat": 59.32669700000000, "lon": 18.05355400000000, "bs": 21, "bc": 54, "rs": 7, "rc": 41, "ys": 8, "yc": 52},{"id": "3f6c4ef016b64d78bf44d8207a1b1de7.16", "url": "https://lh3.googleusercontent.com/dS6ThJvnXG32DRTwFam1UiH90-PKaYvfILyRAa71lp4yG3xlOL-7ot2dmK6iJ0etBUr0K7S04PwqTwVkbFgMBBS24g", "name": "Stjärnan på Toppen", "lat": 59.35398700000000, "lon": 18.04787400000000, "bs": 19, "bc": 25, "rs": 33, "rc": 34, "ys": 11, "yc": 15},{"id": "3fe2ab3b5d79484abc2abbfd893b6983.16", "url": "https://lh3.googleusercontent.com/TAKvB6M65sAfbnWXFHPx8pVykOtXtmshrNtnyWq48Tzcyvhv34_F6PNs-ywGPs8Fr2Hkm72u2x2kYiMoL8051M5EDvQ", "name": "Märta - Norges Kronprinsessa", "lat": 59.31665500000000, "lon": 18.08432700000000, "bs": 11, "bc": 50, "rs": 15, "rc": 48, "ys": 10, "yc": 50},{"id": "4031545f873b4326bed74b5b49143bb1.11", "url": "https://lh3.googleusercontent.com/Hdn19fTR_Zs2tVmsKcwAPOJZs4smc8oFaRyK4A-iNDkKRXFqZImyX5PuUJRqfeVmcBLU7G1w5FUtuRo2K1XEVZ9SLnVh", "name": "BP", "lat": 59.30728400000000, "lon": 18.07284200000000, "bs": 13, "bc": 51, "rs": 14, "rc": 39, "ys": 11, "yc": 51},{"id": "4138781e979048cfb75d92ed198bcfdd.16", "url": "https://lh3.googleusercontent.com/8FreskoxQkrkTpR4YZvGykijTwnDSMaFPu_BXT9iiQAM0GYJ09JQ-y_pz2kbbt7qqnp6ytCSMXJoDWUYhJddBntLevBA", "name": "Vit Blomma", "lat": 59.27890000000000, "lon": 18.09150700000000, "bs": 7, "bc": 19, "rs": 7, "rc": 21, "ys": 44, "yc": 35},{"id": "416b64e5ce024de485200f176b125dee.16", "url": "https://lh3.googleusercontent.com/Xl9id1QaP9Mr7NHd4NtGtsdht0nKNHlecPwndcVaY1NvIehESmlamYGO5fG51jmPj1A6TuWAHpzoTjmkkNRBz8RNYiI", "name": "Faces in the Sand", "lat": 59.33933400000000, "lon": 18.03161300000000, "bs": 13, "bc": 44, "rs": 23, "rc": 47, "ys": 6, "yc": 22},{"id": "41cb0b31b1d04fd09b8de7dda389c3ed.16", "url": "https://lh3.googleusercontent.com/7aWoh1Ei1IDoDmGpyWC-UexyaCWyiAZxoaz9Mg6KtJ9_EyIuTEXZRijd713vrxtsUnAGgQINSZsHCc18AOrQSBZk86s", "name": "Fondueboden", "lat": 59.34530200000000, "lon": 18.04082400000000, "bs": 7, "bc": 85, "rs": 4, "rc": 37, "ys": 12, "yc": 89},{"id": "42599d503fad42559c2484ff0cc2c762.16", "url": "https://lh3.googleusercontent.com/jNVl2ew98cOhTC8KxKMtZK1a_ar_qRu_54agV6ihEJPcDqKRyY5BhqB6bBJryAT0p3ZbSh6wib9duTkK--W4T4EAxgYi", "name": "Husmorssemester", "lat": 59.34073700000000, "lon": 18.09275900000000, "bs": 11, "bc": 62, "rs": 18, "rc": 31, "ys": 11, "yc": 51},{"id": "45052a91606a4c5dbd2b9a764ed1044c.16", "url": "https://lh3.googleusercontent.com/Geud7yZjW0IkmtW3vn9jMSCqcbLcAqyV7jZqEky2V0Wbv_FQvTCd8f9ntc1R6NnqD7l-I9n3U_uaVgDRIUwisiHe", "name": "The White Sea Horse", "lat": 59.27879700000000, "lon": 18.06956200000000, "bs": 15, "bc": 59, "rs": 13, "rc": 31, "ys": 10, "yc": 51},{"id": "45d639df8b3a453aa5494b87e8759786.16", "url": "https://lh3.googleusercontent.com/_aKBhAIS5AmjQc10H8N5uXxWxrmz4bL0rQvDe8-P4KYJyOKwMn91so4HntXIgG-cLx3wS9iiknqtSHui9pQdYl9fc9o", "name": "Hidden Snake", "lat": 59.28738700000000, "lon": 17.99987200000000, "bs": 16, "bc": 24, "rs": 26, "rc": 29, "ys": 22, "yc": 30},{"id": "473ce5ed6cc349c9b5653dab87bbf08d.16", "url": "https://lh3.googleusercontent.com/B71_S-dsYsT7ucHJlPBpFzZuLDH5U3zzhlwRG3zpdSs74exbah5oomn0miUNzQ3T2M6PoN5B36ifmIoqn-vq215l9C0", "name": "Mighty Pump", "lat": 59.32295600000000, "lon": 18.10134400000000, "bs": 13, "bc": 18, "rs": 25, "rc": 37, "ys": 16, "yc": 28},{"id": "4782c7fb42ac481f8c4048d105d41428.16", "url": "https://lh3.googleusercontent.com/FseI7Ar42Or-2AE-71Wl3Mzs-uQ7qXf7gfN0BUzePTTnRdyywY_rqrJRlTRQoIs4_4IVoFLPOcueyUE6C62fpWgTSKca", "name": "Wolf Statue", "lat": 59.26966300000000, "lon": 18.05162500000000, "bs": 6, "bc": 47, "rs": 18, "rc": 70, "ys": 6, "yc": 41},{"id": "48420ad1c17e4a90abc708a2e13e655d.11", "url": "https://lh3.googleusercontent.com/ovx-pjJsWvS_yHFNgPG9ld51xXNFGyCSp-4sl1__oS3mNpFbKSwNOp-7LtD0-RVsA4GkAOcheu0hkvOFY7ZOWQO3MQo", "name": "Lars Magnus Ericsson", "lat": 59.29869600000000, "lon": 17.99596700000000, "bs": 10, "bc": 75, "rs": 8, "rc": 64, "ys": 8, "yc": 58},{"id": "496cbc265ac5401fad2b927c33030117.12", "url": "https://lh3.googleusercontent.com/DTtcs2c5KO1Lhwf1RqWnDeAh9xGk1bqZJFnw1vUpWyoyGKL67cqJueH9msLUpGHwAoT5nkpr3gvhcxZ7TK7PHDJyng", "name": "Familjegrupp", "lat": 59.32318900000000, "lon": 18.06814700000000, "bs": 8, "bc": 84, "rs": 9, "rc": 74, "ys": 8, "yc": 62},{"id": "49aa49a492444762ab16977f2b09c023.16", "url": "https://lh3.googleusercontent.com/vF1zDx8nma53ruN-c8Ou9Vas19-QcFaE9rYtyM9xIta79n0IgiKdc0kP8w4LOsEC6vRMLo7Uxd5ID3zgKKELLPajark", "name": "1917 Clock", "lat": 59.33578500000000, "lon": 18.03139900000000, "bs": 16, "bc": 85, "rs": 5, "rc": 55, "ys": 3, "yc": 47},{"id": "49b249507b8d4319b1c483c29cd75800.16", "url": "https://lh3.googleusercontent.com/_ophnGoAa72Exv2cEtQ-aVjcsUw-oY9xeGV7Y06m_BY8RAzfFAT8rCWzaXlRC6pzLbuT5kVrZEfa_YMOeFlp_2Bl1AaSaJ6FDORyDYTR", "name": "Grytet lekplats", "lat": 59.26830000000000, "lon": 18.03509300000000, "bs": 6, "bc": 28, "rs": 26, "rc": 55, "ys": 6, "yc": 31},{"id": "49f64ee9313143d2b155ac6bf31d4cca.16", "url": "https://lh3.googleusercontent.com/l_6Tn_3x5I3kIRifbk6343PzOND9TIsXO5kFPEt7erSa1QaR4qygPczok6gVTer0t896BxQcLbDlaEBQUD9kJxcwhg", "name": "Parkleken Stacken", "lat": 59.26035800000000, "lon": 18.00622700000000, "bs": 19, "bc": 34, "rs": 23, "rc": 38, "ys": 20, "yc": 15},{"id": "4aced9e59eb94b7d869669014a49bb3c.16", "url": "https://lh3.googleusercontent.com/GvlkAf6oGvsjcaZgdzBdcqe5TEC4I4U0-iWN_rX64VZusK7QGfpmyqyTSzPTWWMo2kkNxjtjObCnkTSYcDIENDt42w", "name": "Klara Kyrka", "lat": 59.33117500000000, "lon": 18.06154200000000, "bs": 17, "bc": 65, "rs": 8, "rc": 43, "ys": 8, "yc": 48},{"id": "4b213b26b1b24f209e85350e38b88917.16", "url": "https://lh3.googleusercontent.com/DyJ9ijA3lR9HjeSbpBF8gQymyZKrjcysreH0sSJSe1Bvnaj-ZSgH6bC45emnGGORqebJPN8Ei1jPfFIsH90y1PFZ-FR8", "name": "Rålis Bouldering", "lat": 59.32792900000000, "lon": 18.02340600000000, "bs": 16, "bc": 31, "rs": 17, "rc": 26, "ys": 26, "yc": 33},{"id": "4b4e93501fbc4f9e9a364b44964fd58e.16", "url": "https://lh3.googleusercontent.com/k9UGZsflhQHvjE_38oZhh7z-ltUFZ7RJozQSGiYnwBD6pjswdBekKURjKLZPLZPYOHhXf8FS6VRksQTep3cneAuJJ9s", "name": "Tele2 Arena", "lat": 59.29192400000000, "lon": 18.08255900000000, "bs": 9, "bc": 58, "rs": 8, "rc": 73, "ys": 12, "yc": 55},{"id": "4bb8050639fa4fb9af28b213e0488341.16", "url": "https://lh3.googleusercontent.com/ODr77U9CNGyCQ44iJDkz1uACUo6C1q141ExamUH8kDnZjNYl_JFqMeRMAgpH9HDJIwCiZEhGtLO0oo3RwTMqwjlQGw", "name": "Mårtensdal Tvärbanestation", "lat": 59.30271000000000, "lon": 18.08821600000000, "bs": 11, "bc": 84, "rs": 7, "rc": 55, "ys": 9, "yc": 58},{"id": "4c4b301569134177b69071dce52050b7.16", "url": "https://lh3.googleusercontent.com/B5bzm7tlIHoVZeesu6H4qQ_Gc7k8qH7zzO2rBh2DPVYFyfsLGGgHmcUX6bU-tKs2CcuNx6d93ZNdL_MX8fhz2uS0ftM", "name": "Grodan", "lat": 59.32338400000000, "lon": 18.09586800000000, "bs": 13, "bc": 67, "rs": 6, "rc": 58, "ys": 10, "yc": 61},{"id": "4c5573d162b64ac1a8f52ccec3950221.16", "url": "https://lh3.googleusercontent.com/-ks4XZJ07L1xYrYal3wYtJ4gNufywwfuZ4R5ULoO7ZiLxRptCsJRLz99yHSg9wfdg0kToJEJNAOWMVM0Cey8zMAhMw", "name": "Gungor på rödamattan", "lat": 59.27368300000000, "lon": 18.04806500000000, "bs": 16, "bc": 16, "rs": 47, "rc": 23, "ys": 26, "yc": 18},{"id": "4c8602c128bf40ec9f839e66f7fc2676.16", "url": "https://lh3.googleusercontent.com/dkGYPcuUcj1Nu-5phIqdSSgi-L_OlPAC2cuaOTnRw5WLJn-3iIvOVjbkzQvCQBgAXSM1ygQSEyoYWmfB2II8dyW3dQ", "name": "Gärdets utegym", "lat": 59.34205300000000, "lon": 18.10834400000000, "bs": 19, "bc": 64, "rs": 6, "rc": 51, "ys": 6, "yc": 43},{"id": "4cdbbb0778104fda8514eec064bfe449.16", "url": "https://lh3.googleusercontent.com/m71oVrVE68IhnUkJAYcTmdT7S9evmk7XWX4oTvAA2I7KZN6xWAz0C-KVeoIzBouEvpSnlKpnf61lDCZBQY9sY-O_xSw", "name": "Apoteket Ugglan", "lat": 59.33396500000000, "lon": 18.06120500000000, "bs": 7, "bc": 99, "rs": 6, "rc": 96, "ys": 6, "yc": 76},{"id": "4dd0b7ed8d434d7a8f32f8d397bf3b3c.16", "url": "https://lh3.googleusercontent.com/irg_-fkc5KR7KzfXqOEZ-3awyvKiN1wXYAp53-FpW07I1CdjYTlvz-nLny0i10q3HitQuZnnKrZjSrrpJbG_R1gLvs8", "name": "Globen Subway Art", "lat": 59.29370000000000, "lon": 18.07542500000000, "bs": 20, "bc": 35, "rs": 14, "rc": 36, "ys": 18, "yc": 31},{"id": "4df56bc8de4c4836b02629ca01b6f914.16", "url": "https://lh3.googleusercontent.com/Nn61syrlwMEooWSA8SgY9sNxTiRdnvoMp30Y0tnpXsAdnwGFRQM2jw2dlQwpml29EdoQDmT--9Gi-Wu_5DgN6xjZDC7S", "name": "Vågig Bänk", "lat": 59.27893100000000, "lon": 18.00920600000000, "bs": 7, "bc": 97, "rs": 8, "rc": 103, "ys": 5, "yc": 56},{"id": "4f1ce652838d4f11b07dc4b0583d8c94.16", "url": "https://lh3.googleusercontent.com/U3tB4uq1Cg5MKfWr6mLjO3C8h_Z14n5Pel1naOPPtOBQp8sz6quDmXSWZD6qm1IA7LIxzX8GPh1gnfEb9KLwH6kAGQ", "name": "Årsta centrum", "lat": 59.29726500000000, "lon": 18.05162700000000, "bs": 12, "bc": 56, "rs": 11, "rc": 46, "ys": 11, "yc": 55},{"id": "50aceae88900405a9a35361fc4faa61d.16", "url": "https://lh3.googleusercontent.com/H9PIzhNoHOdMsWttbqL--ajQWobE1NUEy7fPSrWW1LkZpJ13Cd5-N4hb3LSuLkVSrUumzDS576BockH-rSZJSc1QFkI", "name": "Vattentrappan", "lat": 59.29744400000000, "lon": 17.98338700000000, "bs": 10, "bc": 55, "rs": 11, "rc": 71, "ys": 11, "yc": 44},{"id": "50cd4bb059f445a68fbf74ebe9d86fc1.11", "url": "https://lh3.googleusercontent.com/qqmLxXR5mOXH7zvY-u4_bYTJRKMCnsqfFPCA0GKPUgogzsrQZxn1dVpElypUmL1qsHpoySLHG00ozklEgm2Uc_dPcw", "name": "Jannica med dockvagnen", "lat": 59.31195800000000, "lon": 18.07757500000000, "bs": 6, "bc": 51, "rs": 12, "rc": 89, "ys": 7, "yc": 68},{"id": "51d115c7163644788ff0a84426d761eb.16", "url": "https://lh3.googleusercontent.com/YYfch2AZ9iVB4-SgowkZiuVUrgZ7rmLEJdZ5wG2Eg-rDmqyLSA1JaT02T-efczz3cEXPCdU0HTmAylQAt8HBkPLbyw", "name": "Wrestling Bears", "lat": 59.30000200000000, "lon": 18.05694900000000, "bs": 22, "bc": 27, "rs": 30, "rc": 27, "ys": 20, "yc": 21},{"id": "5219e1a3794b42e8916fa0bdc9787cdb.16", "url": "https://lh3.googleusercontent.com/-sFJmpj-QbWQm6ouhE6K8XXOdS2VCosYMzN7dJFNn8Q7MvoXLi6cPnnBBEjzt4_Ssdok3KhGB7WCJOeSMLD4nB4GMNHU", "name": "Solskensport", "lat": 59.34397900000000, "lon": 18.02907800000000, "bs": 17, "bc": 73, "rs": 9, "rc": 38, "ys": 4, "yc": 47},{"id": "52532d7b240b4f30915bc74fe19b6410.16", "url": "https://lh3.googleusercontent.com/kgORK5OZYaG4VOIZCF0efyH6OL9rVK4Y_dnLYWioQSBwuwCKDPBABe0W_AiHKmn1ctu2afvFxf4Q1YRuDUUpmfdnd2c", "name": "De tre årstiderna", "lat": 59.29088900000000, "lon": 18.03376800000000, "bs": 21, "bc": 30, "rs": 9, "rc": 9, "ys": 33, "yc": 31},{"id": "527c4ae06d95464ba13e7eb9352e3656.16", "url": "https://lh3.googleusercontent.com/k0sHExgYUsGUzaBloK1-Gxp7Yqpv74riJWIsbbI_Ks9H398jAJkSUEoI5ID-9fPYdxj_TS77kHlv-aKG5YxukrsW6O4", "name": "Solbergaskogens utegym", "lat": 59.28540300000000, "lon": 18.00586000000000, "bs": 2, "bc": 18, "rs": 21, "rc": 42, "ys": 23, "yc": 38},{"id": "52dcaa210e8c4b9c9f654a8f346d852c.11", "url": "https://lh3.googleusercontent.com/1IbvmlcNFde5NEBTKq1-FKZxF6E-zIvTL8zYGhmUezpnSyPsEbapkKSmvK0_6-W_QxbK-7AyKbFX_r2JLKO3yAdbsU0", "name": "No. 22 Facade", "lat": 59.33957300000000, "lon": 18.03122400000000, "bs": 16, "bc": 50, "rs": 17, "rc": 45, "ys": 10, "yc": 22},{"id": "52e2c61741d24e91bc3a6c06e0eeaf1a.16", "url": "https://lh3.googleusercontent.com/NcjR8TzylELqf_ATPgx7rsjnuNwolGZ76prGAWpXKYimmTI4Qs-9wiFpbB46ByrrZEk0tnlfoo9MNK9Hh3nmzA1GPA", "name": "Duvan", "lat": 59.33417600000000, "lon": 18.04202000000000, "bs": 11, "bc": 72, "rs": 10, "rc": 72, "ys": 7, "yc": 42},{"id": "53e200d740ab4004b3d7cbfecadbd091.16", "url": "https://lh3.googleusercontent.com/wcip8FYdmP6nYbzxPTBu3FhksXFOGot16MHIk5sxc_9Batv7wamksE_RfCOJ0wzqEXZgZYQ_Wz4J8bidPtBR2A43KVv1", "name": "Grodfontänen", "lat": 59.32409900000000, "lon": 18.00317900000000, "bs": 18, "bc": 55, "rs": 9, "rc": 38, "ys": 8, "yc": 58},{"id": "54143b17278c4eb987f1f961fffe18d1.16", "url": "https://lh3.googleusercontent.com/aJA72xPAUXgbxerkT0Uq_dK3SAQKK-WnZvWzAwYyOV6tfyMswwRv5Bc8Y2YaYPdfh3ilZHmQLep2XnA23cr_hlYSpxg", "name": "Lekplats Gideågränd 2", "lat": 59.28205800000000, "lon": 18.05383800000000, "bs": 14, "bc": 48, "rs": 22, "rc": 50, "ys": 12, "yc": 5},{"id": "565f50706875433dadb8d256dedbbbf2.16", "url": "https://lh3.googleusercontent.com/oedII9tEXRujOqycaMc4lMsn-xNWgecxKnJ04i2GqGXTotCFS03kIdr--5xDnWngj0mxaqhDKZIx9CNCgDZEKM9t5w", "name": "Roxens Lekhörna", "lat": 59.29593500000000, "lon": 18.05505100000000, "bs": 18, "bc": 71, "rs": 6, "rc": 59, "ys": 4, "yc": 43},{"id": "572bf80bfd7b4334b3bdddc9a0ad9654.16", "url": "https://lh3.googleusercontent.com/X73lPqbzVoTd403QjqGlyYXiUFRArM5wythdb4J5SMHXFhsdoL46s6PBjwY1Ne5kdNdAEkfCQJJevkCp2yvltnz7VJ4", "name": "Stålkonst", "lat": 59.34462300000000, "lon": 18.05053600000000, "bs": 3, "bc": 50, "rs": 7, "rc": 83, "ys": 12, "yc": 88},{"id": "57d67cb571e5469da39bde361f1f8de6.11", "url": "https://lh3.googleusercontent.com/dy6Fn08d_IVDt-GgkNmlzMrad9tgiyDtnp6gGlXyz3SBrXTniK0MA7YKU2TWd_tTp7OrOMC4nnylPrCc0AyugQcqdOo", "name": "Manlighetens ankare", "lat": 59.30744200000000, "lon": 17.98097800000000, "bs": 11, "bc": 65, "rs": 12, "rc": 74, "ys": 7, "yc": 29},{"id": "5830efa7685347e2848e4046d0b0af8a.11", "url": "https://lh3.googleusercontent.com/pp8fzitVbZ17oAkGKZhVRtC3MO-YTG1d4WbRdAitmvwyIgwzDYk_K5p1-EV5zNP-wqV0ealJtp12iDMLE8yBnvSSVFFb", "name": "Puck Statue", "lat": 59.30257200000000, "lon": 18.00745100000000, "bs": 17, "bc": 38, "rs": 9, "rc": 38, "ys": 14, "yc": 56},{"id": "596a2c237a274d019ed73389af7c2a0c.16", "url": "https://lh3.googleusercontent.com/bOjaACaE4I5sC2ebsHIbnImc2UqQHxX4Msxzd33b6QO9dHiGG-YFSxEUk75miwNOlGRZBDumRWSkSb_dMLb4XLaYB1YG", "name": "Thunderdome", "lat": 59.29854100000000, "lon": 17.99222900000000, "bs": 12, "bc": 49, "rs": 16, "rc": 57, "ys": 7, "yc": 49},{"id": "59c0c78616c44b03a5bc08b2f40763c4.16", "url": "https://lh3.googleusercontent.com/G9XlyrzQQd2M5rvdiWa13AuIiu8y-Lq6hL0wPXQmZH_pFT0uRlprO5fT7kjc_CDFZpPObe1OGb2kPUibvMpnI881yc4", "name": "Två Flickor", "lat": 59.26129400000000, "lon": 18.01214600000000, "bs": 5, "bc": 21, "rs": 11, "rc": 95, "ys": 8, "yc": 90},{"id": "59e954aa36ea41fba3348b489be41eda.16", "url": "http://lh3.googleusercontent.com/kJoHmwiqQLiwY0fzWQX1lBXzdS2GMenKAH5keQzSsI2iTz3tfgtaTHbhnn3wznXLJ3-_7Qx-_XdyKOPN924w_LLUuH3K", "name": "Twin playhouse towers", "lat": 59.29423300000000, "lon": 17.94016200000000, "bs": 9, "bc": 55, "rs": 14, "rc": 73, "ys": 6, "yc": 34},{"id": "5ae422db9ced4c5d9cdd20d902e236eb.16", "url": "https://lh3.googleusercontent.com/gzzZUSIprMvZ8Ihc4NKXqw3pvDZOIEFiqsAnSRdT6ARBS_TD_OYS20Rdcj8r3NFaagvRnFvefx0bodIHbfl2Qzw_0ns", "name": "Drömmars Sjö", "lat": 59.27807700000000, "lon": 18.01129100000000, "bs": 18, "bc": 54, "rs": 11, "rc": 49, "ys": 9, "yc": 35},{"id": "5c1ef678fff64eca90e0cfbf4d306852.16", "url": "https://lh3.googleusercontent.com/9zRrDXSdIiF1uqMc2UG-Y9lwXwb4cDWLHrIgY_FEBol0GoVng1FU4aRk2osMe5K_Gj4QelCdmalFYwb490e1KDrnwT0", "name": "Hagsätra IP", "lat": 59.26500400000000, "lon": 18.01998600000000, "bs": 14, "bc": 61, "rs": 4, "rc": 25, "ys": 15, "yc": 58},{"id": "5c5a15bc01bb47b09f7dad3349eed9b2.11", "url": "https://lh3.googleusercontent.com/yOBB1NANZmrCIGS7xl_98abv597rWEr6aTGyAcqhcOoLm-875kue8O_oikpr0nQdiFV_1JjOD_zae2AZJ1jqsJCYiQ", "name": "The Seahorse - Another Statue", "lat": 59.30844500000000, "lon": 17.98075600000000, "bs": 9, "bc": 35, "rs": 30, "rc": 46, "ys": 6, "yc": 19},{"id": "5d68ce08db344dd1a8d02940ea800ff6.16", "url": "https://lh3.googleusercontent.com/psbSH2H2FYKLVX_e1w2vmII8ZoIPu0LHGrH-TSETj-vLl3VpvRB42nnBSexzFLiAZpFDIScpkhfLBsHB5d7GnVd8XNw", "name": "Fountains at the Plaza", "lat": 59.33230700000000, "lon": 18.07085800000000, "bs": 8, "bc": 107, "rs": 6, "rc": 70, "ys": 6, "yc": 82},{"id": "5e2ed340e94b45ca9f86b211ea16ffe3.16", "url": "https://lh3.googleusercontent.com/m0ovAHFKKEzkcQ27fh8F1J1qlXX-wTBLBlmbKXQcHfN1XsFQHKfQhw6qOZRfmV1VJQ6VvPJcTeF6Aexlb2cRSBvHegmegVTEjX0PJgnK", "name": "Årstaberg Station", "lat": 59.30011200000000, "lon": 18.02925400000000, "bs": 10, "bc": 93, "rs": 7, "rc": 80, "ys": 6, "yc": 46},{"id": "6090ee81d9794d9ebd2642f3aaa01567.16", "url": "https://lh3.googleusercontent.com/DodK3uu5WH6aFYIdM-Zy11RGlgQtknEMl-tVI4_Y7Zh0fPBW56FMZzs7bfQGVI_In8InDmZ1vqDhmtnbgDBGRelLh_0", "name": "Musica", "lat": 59.35127100000000, "lon": 18.04897800000000, "bs": 22, "bc": 43, "rs": 14, "rc": 36, "ys": 10, "yc": 31},{"id": "61a11c93a29948bda7824e3c4be83230.16", "url": "https://lh3.googleusercontent.com/6oqbCYQnkCelqyT-IU5OOFp1fUrJDnqVKPbaSC6OR20Eqr3sdLMAKf__xyJyB2EzC83U6vDkVQLgjuhZWmQhlqAzmQA", "name": "Fish Crest", "lat": 59.31524100000000, "lon": 18.06168100000000, "bs": 7, "bc": 112, "rs": 9, "rc": 89, "ys": 4, "yc": 66},{"id": "61aa423b95df411da404dc324dbf8f9e.11", "url": "https://lh3.googleusercontent.com/iqZwUvkcusUXQ-RGIZQ9jYD2KnIk5TfIqLuE6NkWQIzex5KffhRoQ3Fm3vyYWKeSjW_2KQOW3EweWV7iL8j9udfitHEN", "name": "Vårfrukyrkan", "lat": 59.28534800000000, "lon": 17.96758900000000, "bs": 9, "bc": 105, "rs": 5, "rc": 75, "ys": 7, "yc": 64},{"id": "61ad141d56504089a8bff44d2777baac.16", "url": "https://lh3.googleusercontent.com/xDpP6OoBdCLi8lA6H9I4zP4u5ixfnUugNQQI0Oga5QrzkB60A2PsChdVMU0e7yRVjjXz9ZHf1wxkSOl5PhXFYe-Iuw", "name": "Sphinx", "lat": 59.29127500000000, "lon": 18.10793400000000, "bs": 16, "bc": 30, "rs": 20, "rc": 41, "ys": 15, "yc": 34},{"id": "63047c3e4d3947d187b7e65ce5fe9b1e.12", "url": "https://lh3.googleusercontent.com/nr8L3z7E1Gi_P3qcO__-Nq9FxHZ_V8DFQ0zzVzX9DrFWzQbzFh71JkXlSBnYeOpB6TlKjzNIDOzYqBiWae5vi35g1E8Q", "name": "Kristallvertikalaccent", "lat": 59.33256700000000, "lon": 18.06521300000000, "bs": 11, "bc": 93, "rs": 7, "rc": 73, "ys": 4, "yc": 54},{"id": "646d567e68c24ce0b097a099d049c38d.16", "url": "https://lh3.googleusercontent.com/OaLz0yqE-FhpzD-gxRgIJy0XQuY5Z8Co3s-yZjqKvtDJYzZMh40-urdhFsFp1f0Om92J4BDgm2_3ShCDTzl90wbGGw", "name": "Bredäng Station", "lat": 59.29476800000000, "lon": 17.93368500000000, "bs": 12, "bc": 98, "rs": 6, "rc": 62, "ys": 6, "yc": 59},{"id": "66cf6577c2ae4c63b09cb7046da3267e.16", "url": "https://lh3.googleusercontent.com/8r46MCyNI_IvFGdjrXQjoW1fD7_YZEgeVvPWXa36-7hglowlcRxikmto5vs5LIeDON_Wd-a0muqiYxa0-5Ee9RJ6ito", "name": "Cave in the Wall", "lat": 59.32692400000000, "lon": 18.07389400000000, "bs": 13, "bc": 59, "rs": 11, "rc": 44, "ys": 12, "yc": 46},{"id": "6830df18f4f2496180157e6a8ec31fc5.16", "url": "https://lh3.googleusercontent.com/4zh15u22Sd4vQpd4XiopxNWJcwwLMQP878FQH7cAfIunSr-JnqPakq2YxAP3OwpleV5YV_qf4zI4mhTwor_LlPiZkw0", "name": "Ånghästen Stockholm", "lat": 59.31394900000000, "lon": 18.05514000000000, "bs": 9, "bc": 62, "rs": 13, "rc": 45, "ys": 11, "yc": 62},{"id": "6840f9362abd4f548d9f67789e32c1ef.16", "url": "https://lh3.googleusercontent.com/1s_VtaLC26-z0c3Zv0-eUdQR0NWSJaus3XCNNMBd-eU0KITu3mJ-MWPkV0_DPwBfWbs5jTknY0pXqVPGWYjGRgoCHD0", "name": "Lagerkransen 14", "lat": 59.31761700000000, "lon": 18.05771400000000, "bs": 7, "bc": 110, "rs": 8, "rc": 116, "ys": 3, "yc": 32},{"id": "6873562685b34e3b836e0b448015d847.16", "url": "https://lh3.googleusercontent.com/8DQ1TNNbpsQ8o-8kCM65pjlZCV1AHnVvJj6EO4JYM30N9U0yQ4QrjHaa96BHB0kBPJ5d-JgXG_N90OemN5G3mZGdUw", "name": "Nike", "lat": 59.29248900000000, "lon": 17.93532100000000, "bs": 10, "bc": 82, "rs": 11, "rc": 84, "ys": 2, "yc": 8},{"id": "68964060caec432f899fff1a32f705ae.11", "url": "https://lh3.googleusercontent.com/zk3ehsfD7PJsImpwbIFOIegOOYVJIPTlQnGBfOGOpC5s9ImAUhxLDeMnshEQzSO6ThLzoIbZZHmh3fetQA-a4dJekA", "name": "Kungliga Tekniska Högskolan", "lat": 59.34681000000000, "lon": 18.07254700000000, "bs": 9, "bc": 54, "rs": 11, "rc": 61, "ys": 12, "yc": 51},{"id": "69223264b5bb485ebe58ecf2aa47a2af.16", "url": "https://lh3.googleusercontent.com/_ZN7nBkjMiLN-eg877RXv9oARXeRcXnZCVMAAdUlYABV747CA99TEU8yFTRY7dMNN9vGpZQhom6mQjv-j5cTbWsIVsmq", "name": "Lokatter", "lat": 59.34393300000000, "lon": 18.04088100000000, "bs": 9, "bc": 72, "rs": 6, "rc": 33, "ys": 12, "yc": 82},{"id": "69680273cbb74c4dba4f8d0db6647b77.16", "url": "https://lh3.googleusercontent.com/fUJxiuVdG1Wr3K8PpynmV8bb6NM2gMxeSWcIrXGs6oZOUQVH2w-uv1TEbh8wdVdejbsCnk0zrjXpHUaBu04hGaRaZusC", "name": "Rovfågel Med Finbrallor", "lat": 59.31876800000000, "lon": 18.04262100000000, "bs": 13, "bc": 32, "rs": 17, "rc": 29, "ys": 21, "yc": 42},{"id": "69b8b466c60049d290fd9516802e74f6.16", "url": "https://lh3.googleusercontent.com/-J5iXll_X9ECfZUmpHIQUjdi5MnmtckP4P44CCWCM8i-ZTYQPSZeh-THkcb59YEqgApR22wFHaoleJv1FF8t7MgmA9s", "name": "Högalidskyrkan", "lat": 59.31740700000000, "lon": 18.03697500000000, "bs": 15, "bc": 35, "rs": 12, "rc": 25, "ys": 19, "yc": 49},{"id": "69cc979c5ec7459ebb9f3dc6a6c083c0.16", "url": "https://lh3.googleusercontent.com/hoy9_TLL0L6JF-uer1MJDosUdIbV4vJCnDBGdxQCG2Jq7oHOkz7C_ULaCDTCmJEUpeEtGW7FFokfqDayv3Pe2qgDZMs", "name": "Stone Turtle", "lat": 59.29794500000000, "lon": 17.97815000000000, "bs": 8, "bc": 32, "rs": 18, "rc": 56, "ys": 11, "yc": 45},{"id": "69e829679b914831a7af54c62ea22afc.16", "url": "https://lh3.googleusercontent.com/E4c5OcsJvou_VQ6ptq0X2WcG98aWJJufYX4YGedqJ8n6yOqHVLEgTULAls5EqbOQZjQGFejDZQgZEdr73mim6XosgzQ", "name": "Litet Lejon", "lat": 59.32892800000000, "lon": 18.04317400000000, "bs": 14, "bc": 81, "rs": 7, "rc": 36, "ys": 6, "yc": 69},{"id": "6ac8972e9c784074a921e794441f5bc7.16", "url": "http://lh3.googleusercontent.com/gmqgpPHUAfG53UxzHvWADf0lWcdg2zMDLNwC0wii3BxQd7U3dmj4R1ti0OyLivM8IS_yKgzZVCNm54xuqZgzw5xrjOg", "name": "Pålsundsparken", "lat": 59.32016400000000, "lon": 18.03931000000000, "bs": 12, "bc": 43, "rs": 25, "rc": 47, "ys": 7, "yc": 20},{"id": "6acfe89e36554938a41fa6974d990935.16", "url": "https://lh3.googleusercontent.com/TGjzOnqQmkClCSY8rJeLXU5LqgAJJ2IHAA7Lj4CQ7kJgx7WzWu2lEkzIOduwucQSUsDRaxFDckg9BVOECvxbS_1_Sj5i", "name": "Green Umbrella", "lat": 59.35522800000000, "lon": 18.04795400000000, "bs": 20, "bc": 32, "rs": 25, "rc": 39, "ys": 10, "yc": 17},{"id": "6b21650c37184eb6aabe128379350f28.16", "url": "https://lh3.googleusercontent.com/vK-t6Ye6BjCbB8pOH-KW2jT2ll1Xns2VmT9YOX7fuJ6Fhim59WqV6BhI1squL4sZEIvBzoG16Wlk3G41FTtb8dGU7NQ", "name": "Klockstapeln På Västberga Begravningsplats", "lat": 59.28821800000000, "lon": 18.01856600000000, "bs": 19, "bc": 19, "rs": 25, "rc": 18, "ys": 36, "yc": 27},{"id": "6d44f46c30c34065b50868b63e24b886.16", "url": "https://lh3.googleusercontent.com/zcipivBT7XwgZOaKneFJLhaOoxeyahBg_thWZdvt518rRbtbZnB6Rcic1818I7Xk-vKIz-yi842YiAU8P3Uzy360-Q", "name": "Kampements Bojen", "lat": 59.34222100000000, "lon": 18.10892500000000, "bs": 19, "bc": 68, "rs": 6, "rc": 47, "ys": 7, "yc": 42},{"id": "6e19d19ba74d49c3852a66c1506d7e96.16", "url": "https://lh3.googleusercontent.com/QKvYStlCHrvmfcD1r1XQmYVDlJiogQnYaGhGc6iz9s3xF2T1S0ONIIol2obb5y7v35Z5M4rOSs236Z1Ety1ZLdw1Nqw", "name": "Iron Cross", "lat": 59.28620100000000, "lon": 17.92305800000000, "bs": 17, "bc": 36, "rs": 22, "rc": 37, "ys": 13, "yc": 30},{"id": "6f22f2eeb05f4c10a9c36555eda3b1db.11", "url": "https://lh3.googleusercontent.com/5VJYwZNC2npCn03sg0H8ZCqHRqxL4AhtbgrbO5cyOaBgXaP2iY9nLfDD6a1K4Q8aVeAZ0iz7sR1b6sW13kJwl5o9Rg", "name": "Kasper", "lat": 59.31514400000000, "lon": 18.07161600000000, "bs": 7, "bc": 83, "rs": 10, "rc": 76, "ys": 7, "yc": 67},{"id": "6f439edd8eb741938e68ba9a29f79dd8.16", "url": "https://lh3.googleusercontent.com/-GHtnh28v37YZWkW8L2uCX3d5Gm5ifWrvKD_5jVMwn32yqHe1Bme3BD4VqsSW02RTehH907HpwqCiRXqIT1yjYCkEJ0n", "name": "Svenska Kyrkan", "lat": 59.28492000000000, "lon": 18.08795800000000, "bs": 17, "bc": 49, "rs": 11, "rc": 41, "ys": 16, "yc": 34},{"id": "6f9aab0bc3a54b0d91a5253caa19fafe.16", "url": "https://lh3.googleusercontent.com/jZdNO6BicY2LWP5zM2l-9H9Rnd7gGPtLDhGjic-dMut665ukdSL0SrgMyDsRVDQBmzjtRSQQMwsK4EviFtiyQuutpOw", "name": "Dove", "lat": 59.30792200000000, "lon": 17.98435900000000, "bs": 21, "bc": 45, "rs": 14, "rc": 31, "ys": 13, "yc": 32},{"id": "6f9bcf287f4843e2a0ea68b9972ef532.16", "url": "https://lh3.googleusercontent.com/OqmmXCwuKf3dPR69ZgXcUhBBawSIa0LhPihT7Ehhk-VTUMdzIr1hr4LZ6sJsBsJVX9hl1326pl4hT0HSzFh_SeTClJY", "name": "Hybrid", "lat": 59.28742800000000, "lon": 18.00241900000000, "bs": 8, "bc": 88, "rs": 5, "rc": 34, "ys": 4, "yc": 62},{"id": "6fdecfc40c384fc589218a94e294c6f1.16", "url": "https://lh3.googleusercontent.com/ndTOXBPGGdlid_xkZdRBoL6ihJb9lezBNbcSy_akjCex2lXVdwIchRyNYHzsiTEPepXMvm-Ic5xKsxV-PAcPUHqyTi-I", "name": "Jesu Kristi Kyrka", "lat": 59.29190600000000, "lon": 17.99252100000000, "bs": 11, "bc": 46, "rs": 10, "rc": 31, "ys": 18, "yc": 55},{"id": "723b1cc439de474fb07e53fe8e5cc7de.16", "url": "https://lh3.googleusercontent.com/KvapzKhKVT0d46E80rmpCZQXnfGWRWLxWCeU__7pJkMs-L8saV5VlgxzRVTAoGHcs7LgllRPc_OpRUAzT1KqCR-rMQ", "name": "Sjöstadskapellet", "lat": 59.30305200000000, "lon": 18.10431000000000, "bs": 8, "bc": 78, "rs": 5, "rc": 17, "ys": 13, "yc": 84},{"id": "738a5f51891949e9af6163c8705a7541.16", "url": "https://lh3.googleusercontent.com/XTEDqyOhC0ZAm-Xuv0BWsBwlaLz5m_zIUJu0NB-0wESjuDD3enOiXvqwd_YPGCoQMcc32uf_VCb_UxmwF7hd3NWYag", "name": "Monument över yxman", "lat": 59.32797000000000, "lon": 18.02690500000000, "bs": 22, "bc": 50, "rs": 10, "rc": 33, "ys": 10, "yc": 38},{"id": "740fe900655241dd9c20561580539b33.16", "url": "https://lh3.googleusercontent.com/_OwI1lni7auph9Ugje7dJbQvbirC7T4UMw9iJlPn5q6XAHFFCbnTc6_NMz2ISWKs729IbUzhY4OGiL0AGUXMdj6Yamk", "name": "DLS - Katarina Frostenson", "lat": 59.29551300000000, "lon": 17.97827100000000, "bs": 15, "bc": 44, "rs": 11, "rc": 32, "ys": 18, "yc": 44},{"id": "745e9dae7a8a49e890ed366649bd54a1.16", "url": "http://lh3.googleusercontent.com/pTAdDsOK1I--55zUm8WSjePz9yMkBmJYv9lE7OkIuxhJUTMjcWRHVW3tiqVDC83Tr5UalBllu63oepe9Dww3PNTosO4", "name": "Ormkärrs Arena", "lat": 59.26118400000000, "lon": 18.00568400000000, "bs": 17, "bc": 15, "rs": 20, "rc": 33, "ys": 26, "yc": 35},{"id": "74f7c5ca6014427bbe140b6901478dc5.16", "url": "https://lh3.googleusercontent.com/vpaG6gRuIf7aC9eUIWOndo9NcA12Zq2GpG7GOAzskrsA60nblWS1y6KLPw7BscSjygByLDc0bFWPUXRysJClyXBMqPk", "name": "Frihamnen", "lat": 59.34139200000000, "lon": 18.12378800000000, "bs": 18, "bc": 32, "rs": 32, "rc": 34, "ys": 12, "yc": 11},{"id": "756586e1e049440c80b2b9fcfa6d872b.11", "url": "https://lh3.googleusercontent.com/1yu4IJ3O0hH0U1aqajAcGsyqgbxc-wQJHXzkqibxWDZJxd0bCEQa0WaJWszHmQRI-vLYWU9c8vwTBQxg7XYhPUkKVg", "name": "Osome-jo", "lat": 59.30403500000000, "lon": 17.97524900000000, "bs": 22, "bc": 36, "rs": 14, "rc": 37, "ys": 16, "yc": 32},{"id": "76084c4ed6ff4004a36b1828fde0219e.16", "url": "https://lh3.googleusercontent.com/CWyQCQSBY6ToEjsgBIev2eCXl6AHb7DotwerU-I-mYH7ORo-cPlHiM52H0QKU7uGlF_nJczF4Ji_BxSJGtmvYtpQBXUm", "name": "Älgen", "lat": 59.34183200000000, "lon": 18.07069600000000, "bs": 21, "bc": 45, "rs": 12, "rc": 32, "ys": 13, "yc": 39},{"id": "7779d2075a3940d6a54bb04a7ba24309.16", "url": "https://lh3.googleusercontent.com/kBsWvQQFBYvlpXHglQ8ktGZ_J5DFwbf4Adl-jluX4ZmWWpYs7M62_mNutv0O_x1lHOWBggvByHAkR44WpE_wbfHhi84", "name": "Den två ögda statyn", "lat": 59.34655400000000, "lon": 18.09286800000000, "bs": 5, "bc": 81, "rs": 6, "rc": 62, "ys": 5, "yc": 48},{"id": "789ae1fd12b54707b6b461a71ca998d9.16", "url": "https://lh3.googleusercontent.com/fCheP5X_IFg0b8UE0oDOmgBnj3z8Orbp6Y2_cdtcibFdT8u2Zjx_EXWaEBDNlDlvFib76nQA3Nf1r5a2zyKai5yDxyo", "name": "Kvarteret Stöveln JSV 251", "lat": 59.27986300000000, "lon": 17.99624000000000, "bs": 13, "bc": 50, "rs": 22, "rc": 51, "ys": 5, "yc": 9},{"id": "79450b1285834cd29f665339780f23df.16", "url": "https://lh3.googleusercontent.com/cs5JB8L_NAe_8G7jIKCwcmoE6XmtlLqAejSG1bFCmLYQLIWpSv3gNA1u-kKipo5KU0EFJ72AAzL6EhjSA1O4lNRBYw", "name": "Subway Art 2 at Skärmarbrink", "lat": 59.29584000000000, "lon": 18.08924700000000, "bs": 19, "bc": 26, "rs": 31, "rc": 34, "ys": 12, "yc": 20},{"id": "7e7b05319d5b4672aab903c4d29ce0e9.16", "url": "https://lh3.googleusercontent.com/4PpHaVbF5B7p5aaQ4P38zOfu4UhvFZalTeULnNGNXLOOpf7ef78M4qG5kwxCO9-Cuv5oJ3BRbCeY9KYBXRc59M6tOg", "name": "Panda med hatt", "lat": 59.34143800000000, "lon": 18.04464200000000, "bs": 14, "bc": 51, "rs": 11, "rc": 48, "ys": 12, "yc": 45},{"id": "7ec01f8f8e4f4d8ea54c7d3dd617c8e9.16", "url": "https://lh3.googleusercontent.com/uZpzgWQcuDMw-Ujnu0kHjKRdn7w4ZhwNkBiidHheDhkwU64XB9Pc1q4Q79WjpiFdAsuYUCDpDWWcQ_U0SGBt8cNhiNM", "name": "Spottkoppen", "lat": 59.33024200000000, "lon": 18.05812200000000, "bs": 4, "bc": 204, "rs": 3, "rc": 191, "ys": 3, "yc": 165},{"id": "7f1be73b6e144e39b0dd002b7aec6519.16", "url": "https://lh3.googleusercontent.com/-NexsZ3W1iqdUMH77VEMZWS6dnkEG1HeT7q--Y-25fj-07WpaH7Bf8XIDfCcL3jz1GXg0ZYtrdD-VttKOnCn6Opxag", "name": "Plockepinn", "lat": 59.29682400000000, "lon": 18.05965300000000, "bs": 15, "bc": 31, "rs": 28, "rc": 32, "ys": 17, "yc": 25},{"id": "826b4be8272445db83150472d43aab34.11", "url": "https://lh3.googleusercontent.com/3-lZoWhNKxBDIgnJU4520yRFoFdjv_w0tvCmoZ0rapm_1qs1KHHZUFVrcr3fGUX591S4b4ojU6XZlq6srT_hqIkH0A", "name": "Mer än bara vänner", "lat": 59.30294600000000, "lon": 18.09273800000000, "bs": 3, "bc": 26, "rs": 47, "rc": 35, "ys": 4, "yc": 12},{"id": "82e19775ede14e0ab415427dc518b64f.16", "url": "https://lh3.googleusercontent.com/IB53QooY3kwrTMsjoXtaG2q8wvvk88xZZ8hsm6GZRZCP_OAaaiWcvNNE-WXs0x0cNOLnGSoLZPosoeHNXz0nugPw-IU", "name": "Anchor", "lat": 59.32873300000000, "lon": 18.09245900000000, "bs": 14, "bc": 47, "rs": 14, "rc": 46, "ys": 13, "yc": 36},{"id": "82f751eb50454b0182b04192ba5e96bb.16", "url": "https://lh3.googleusercontent.com/GnUAMDA78fyjbXcUG0RWaxkwqm6cBT4kFiihQl77OBpOeuXNn09NYT0WIzbxvtLl1LbgKKZChlq3TqVltGTEKMaCVw", "name": "The Wall, Karbin", "lat": 59.28943100000000, "lon": 18.01737400000000, "bs": 17, "bc": 27, "rs": 23, "rc": 16, "ys": 27, "yc": 34},{"id": "83195e565e9c40b6aa148f8bdc275157.16", "url": "https://lh3.googleusercontent.com/kV_SJJMCxzSHQVqcwfrfTsMwEN1NV39LOvd6JTQ4mU4fLzYBqPBsQTWCjSpSxmNfxZDqv-ewhrop4m4MXtN6xZOgAFI", "name": "Hammarbyhöjden T-Bana", "lat": 59.29491400000000, "lon": 18.10208800000000, "bs": 20, "bc": 41, "rs": 14, "rc": 38, "ys": 15, "yc": 28},{"id": "84dfe16096bb459395ec506c29cd6bee.16", "url": "https://lh3.googleusercontent.com/bCzNEwH58HRGOuMKyonunhrCBYnB7CenY8NmjX-HW3ZOV9WzU5J5sEJlBS3ISyUUwo3x075p60oEtalXCPPSIpV_Lw", "name": "Fall Sculpture", "lat": 59.35357300000000, "lon": 18.05674400000000, "bs": 11, "bc": 14, "rs": 10, "rc": 18, "ys": 24, "yc": 21},{"id": "85a4ce837b3b3e69a161b9d86a22a29d.16", "url": "https://lh3.googleusercontent.com/4l_FydS3Q8F3LsPSqnXQNf7Cv6JNAJyVl2teJY9MbSPqQoKmzCq-W_H8sSfx8Ly9tWxHh97tY5IBWmrSZN_JabGIAvRqsU8Lp_PDcn0", "name": "The old goal", "lat": 59.26560100000000, "lon": 18.02708300000000, "bs": 7, "bc": 32, "rs": 6, "rc": 35, "ys": 22, "yc": 62},{"id": "85c806b207f243348da85135266d4e74.16", "url": "https://lh3.googleusercontent.com/VMGwko6KbeIE8qcvyClIxvPxo7YZYunjOdK9JHRDydkPpe-uz5lO5YX6OdjiiibN8q49eRDFbxtcu2Xhu3DHzx9J-YI", "name": "The Iron Star", "lat": 59.34459700000000, "lon": 18.06151000000000, "bs": 19, "bc": 71, "rs": 6, "rc": 48, "ys": 4, "yc": 41},{"id": "87ea35b384a344258b287c8ac2777494.16", "url": "https://lh3.googleusercontent.com/6W8QVbUejA8eLij45ov9cGfbHjkkTMU-FtDnmK_eL3yCZfw7HEgEO0NdGOwIvaFLRG8lP_WoUIOEGI1eNj58vf7uKRR_", "name": "Människans livsansikten", "lat": 59.28625700000000, "lon": 17.96516500000000, "bs": 9, "bc": 94, "rs": 9, "rc": 81, "ys": 4, "yc": 48},{"id": "88aed3a42a4946ceb13f1f41193b3659.16", "url": "https://lh3.googleusercontent.com/VFs0LxAYOGsNOE5ca7q8YXw1MlrqY1oZwNung8CuP7_xMjxV0PZLDJ2w8L59NepuD158l6Hpm7oEXHP-S204AmMP1xk", "name": "Eclipse på Gröna Lund", "lat": 59.32321400000000, "lon": 18.09705600000000, "bs": 10, "bc": 70, "rs": 7, "rc": 50, "ys": 11, "yc": 57},{"id": "894006457d4d472880e8240e3be7f8b3.16", "url": "https://lh3.googleusercontent.com/CxfW1evBiwlAOLuicT7S5iUg375-4TRej8Q6Tyd0a4HC6nUZUGkFQtV3FkBbuTbkh11aRXTjjg6SV1_Pc8L6LZhCILM", "name": "Den Blåa Sidans Väktare", "lat": 59.34037100000000, "lon": 18.07961000000000, "bs": 13, "bc": 41, "rs": 18, "rc": 39, "ys": 14, "yc": 38},{"id": "897c0efd30a741de80702c17167a08c3.11", "url": "https://lh3.googleusercontent.com/Yo8kPma5g6AVv_LpRcmnB03DDgC4d4RmytMU5-VGJ4EX0bVSWQU9qv99fOLzWkD1EQ75IMRCvIf9XkDruTYy6ytB4Q", "name": "Uppvaktningen och kärleken", "lat": 59.30212500000000, "lon": 18.10219000000000, "bs": 6, "bc": 38, "rs": 14, "rc": 75, "ys": 8, "yc": 62},{"id": "89cd3a491f574325b842fcc4fc6bb41e.16", "url": "https://lh3.googleusercontent.com/oA-UZiI23TTF39c7c4CtXJkP4N6mrlgO8E9KzwCxMr0CETlI_bo8oOHnG3FmEGGt76SZZNKqrIiHu9_r6TxB-W-eew", "name": "Stockholms centralstation", "lat": 59.33065100000000, "lon": 18.05756900000000, "bs": 5, "bc": 156, "rs": 3, "rc": 141, "ys": 4, "yc": 133},{"id": "8a64cbb275974810aa0bea9abe69add1.16", "url": "https://lh3.googleusercontent.com/k6O6W9FtZfrTrJ-ubXd-P7mpIZ8Mqo-JcExg744Uj71bZhmEG2AWLwBczPgmWXazjIgGkkiAWCZfnGdq5ipsuEpLtCQ", "name": "Från Här Till Evigheten", "lat": 59.26557200000000, "lon": 18.04319500000000, "bs": 15, "bc": 58, "rs": 6, "rc": 21, "ys": 13, "yc": 58},{"id": "8c1febc673264831adbf2c25af2fdfef.16", "url": "https://lh3.googleusercontent.com/V2pfei5394kU21YtcNL8oSxTRr_gvLPpHYARtJx6G9FvbmgbSdrCZSFXV4aFNihHFZRGBc5hPqnJuy38nDocRQ9V3rM", "name": "Vetenskapens Hus", "lat": 59.35267700000000, "lon": 18.05814300000000, "bs": 12, "bc": 45, "rs": 12, "rc": 57, "ys": 10, "yc": 53},{"id": "8c7ae49a921a4be0b9cc9f1a5c711975.16", "url": "https://lh3.googleusercontent.com/GoMy3rcZI3ewSVBrOebegu10xbH4gYE55DNbHxe-H-xSfo9atcUowdieZNXf3WN7VfnTryxrZWnSu730jGmXE7qMJA", "name": "Bird Glass", "lat": 59.30402100000000, "lon": 18.09422300000000, "bs": 10, "bc": 93, "rs": 7, "rc": 65, "ys": 5, "yc": 71},{"id": "8cee56b137504b68a6c3387739d4b26e.16", "url": "https://lh3.googleusercontent.com/eusP5CIq9WhEC7fGM8rn_81qtO3xYJ5aL-ffzL5T3IVd-d-lblBHe6rdhmiUduSBgWQvOnKkR5hiwct-LKcmNWUeHNM", "name": "Dalatrappan", "lat": 59.33576700000000, "lon": 18.05143400000000, "bs": 7, "bc": 105, "rs": 6, "rc": 92, "ys": 6, "yc": 98},{"id": "8cf4059e3e3b495bac577ca7c3193d41.16", "url": "https://lh3.googleusercontent.com/-0n43m-gAEGF0FgWgrpAZnsPIn9064cracJMeZGi7qt9znI-YyYo-sbHTMGzC0WpxC-AvaHVK3-_6MDqsVP1whu5", "name": "Metallkrumelur", "lat": 59.31214000000000, "lon": 18.02336600000000, "bs": 6, "bc": 98, "rs": 9, "rc": 105, "ys": 4, "yc": 44},{"id": "8d1ef5f0742b4dab83825ff4e6dd2e4b.16", "url": "https://lh3.googleusercontent.com/1PPTcsPEP84l-XTYUZqIBw4FCdvYv1WmLmu-Sqa-luaV_5yaySCEBHJTjSbtOfjR2hEIZv2gpBzY1JVCXBk8GlMYjIe3", "name": "Lekplats Läggestavägen 30", "lat": 59.26475200000000, "lon": 18.05380400000000, "bs": 21, "bc": 37, "rs": 19, "rc": 9, "ys": 22, "yc": 37},{"id": "8da21f350b5d459f8b17c3293d67a172.16", "url": "https://lh3.googleusercontent.com/i3_zC-j6FTUX-GjcUsYaoN5rDvPoPoZrMMkVcbyWpelMNp1j4UuIkWgXiSqUTf_APAlv2Q1xLeUNb3ADwPvy_YSaDb-T", "name": "The Anchor", "lat": 59.31969500000000, "lon": 18.07686100000000, "bs": 14, "bc": 45, "rs": 17, "rc": 50, "ys": 10, "yc": 31},{"id": "8dd0d36c26c947afa79f078db0b78ab0.11", "url": "https://lh3.googleusercontent.com/BiUEt7Oadv9JxPEkxztgZVKM2ySLxna9_eBWxPLsCeVWtMLMdLj0me8O3pFxd1k1ZcgfiegbW0ia8TW4tXX6mVSexPw", "name": "Faces", "lat": 59.29504400000000, "lon": 18.07041900000000, "bs": 19, "bc": 18, "rs": 62, "rc": 18, "ys": 19, "yc": 17},{"id": "8e3d215f5d83449681663d80d47c6733.16", "url": "https://lh3.googleusercontent.com/ETi8G20HNu6Ni6-Z3iU5MLvCxguBj-03PvqxaTcSt1z_pwBt4EoX03BOrIfGI6VMVm2zdZ0MDJkKJc19hlr6ZkiA7R4", "name": "Era", "lat": 59.31532400000000, "lon": 18.05623100000000, "bs": 10, "bc": 35, "rs": 19, "rc": 46, "ys": 14, "yc": 40},{"id": "8fe5eee93b7a493fb4335d6eb4196263.16", "url": "https://lh3.googleusercontent.com/UV15OjOxKDZVZreWJyRMPnb1Z6_Wv3TUM530WC_IImFg4V8T8P1rdDGdv2J9gvE8T04LE3O8HCg1mv1JZluB9YGs98R6", "name": "Grodan", "lat": 59.31536700000000, "lon": 18.07390600000000, "bs": 8, "bc": 90, "rs": 10, "rc": 71, "ys": 6, "yc": 61},{"id": "907d782aea00429e8bd113f2a6c6730e.16", "url": "https://lh3.googleusercontent.com/SsD1F_RnDSfddKqdJace7U28MLNiWSr5FbSZ1ZWQp3UN5dAhl2S59KvxLi11IaPe0zVBPAxuIn1ZHBXs5J9a6OfS_w", "name": "Älvsjöbadet", "lat": 59.26879700000000, "lon": 18.01284900000000, "bs": 23, "bc": 12, "rs": 24, "rc": 12, "ys": 59, "yc": 21},{"id": "90daea1d9c6f43d7904c76e128e844d0.16", "url": "https://lh3.googleusercontent.com/LqJsMr1r4K0bR4zJW80wXj0kxsRPWInVjF_w1qK5KXJI21GzJE_O4LjYS-rWpxG1GBo8hfufLA4jCMO3mPr4gKHOYg", "name": "Triangelkyrkan", "lat": 59.28491900000000, "lon": 18.08689800000000, "bs": 14, "bc": 50, "rs": 8, "rc": 37, "ys": 17, "yc": 46},{"id": "9251016b67384ab7a6443ae52c678eaf.16", "url": "https://lh3.googleusercontent.com/cybIMg3zKu2BEkhEK9OCxYQvovnm8ZvFZG-Hgjl86V-J1mG5EY2BPvpKDHX_y96lruVOBvslprb2reIZg93mXLDbDyrn", "name": "Seated Boy", "lat": 59.29240400000000, "lon": 17.96920300000000, "bs": 19, "bc": 50, "rs": 8, "rc": 33, "ys": 16, "yc": 34},{"id": "926b7238039945a1b56f255fd21e126f.16", "url": "https://lh3.googleusercontent.com/N4mkEr5dn9GvsHinaM4NIxZS6XlqmvKa3FqJRSh8YUm-U_WH6wyEYTTYC8rFZhJyrHO5IJjaRwFcA3A6LH15Lwa6E_s", "name": "Karolina Widerström", "lat": 59.33393400000000, "lon": 18.03716800000000, "bs": 17, "bc": 54, "rs": 7, "rc": 23, "ys": 12, "yc": 61},{"id": "9435869548314e59b1dd605ac9f387d0.16", "url": "https://lh3.googleusercontent.com/q6xjX2FqI0l1wuAKChyROnQi85Z0wwhu5Bt1kmuv-Ky8_Rg60AvRrobIF_L7V3WxQjdNpHZlPrcANO0ooIkGn0Th4dw", "name": "Happy Octopus", "lat": 59.29385200000000, "lon": 17.96998600000000, "bs": 17, "bc": 46, "rs": 11, "rc": 26, "ys": 18, "yc": 40},{"id": "943e2c754e764d29854892d14f0f9354.16", "url": "https://lh3.googleusercontent.com/jfTm8QWyfU9wnXNwy46Mlcd8eJI4ymicIP9bA-2o-vYEBYSnL77CaVq1eKuQwSv25GSyhzSGkHpg8awWwdFkUqWx81w", "name": "Älvsjöskogen", "lat": 59.27088900000000, "lon": 17.99756600000000, "bs": 13, "bc": 53, "rs": 15, "rc": 46, "ys": 12, "yc": 38},{"id": "946031591d464a2d88512b1297a12996.11", "url": "https://lh3.googleusercontent.com/-tGvqJC4n4M8RpTZaOfgCcuDrK47YXBlijUCttPIR2xYOdixu1mbROXhio7Wc6vw2QfGLkL49XnqpmRdUB6_IUzFrw", "name": "Duo Statues Stockholm", "lat": 59.32016300000000, "lon": 18.06778700000000, "bs": 16, "bc": 59, "rs": 9, "rc": 46, "ys": 11, "yc": 42},{"id": "958758dac41b45acad1579540c68b3d2.11", "url": "https://lh3.googleusercontent.com/dPF7OBheLSZCW2Qn4XEBP6G5DSH3NY_m3mSHIjOcFEQ4cboVkvttj024FUlyyDP9oJwAkJLKQKLB_XQHA2IbqkDMhw", "name": "Dansen Kring Granen", "lat": 59.32477400000000, "lon": 18.01045800000000, "bs": 10, "bc": 94, "rs": 3, "rc": 40, "ys": 9, "yc": 88},{"id": "972d76586daf4fe2812153222c2616a9.16", "url": "https://lh3.googleusercontent.com/3p6ah4r1F3uUDbSvPsOzinkxYVqI6eMSyOnhIBUbRuhuuwJk4QiOYhguOQgkTE9bcnZzaNdH5Tq6yiIryfiAZlg48O0", "name": "Wings", "lat": 59.32781400000000, "lon": 18.07780900000000, "bs": 16, "bc": 47, "rs": 15, "rc": 41, "ys": 14, "yc": 31},{"id": "983fef8edffe47feafc673f2cdd6284d.11", "url": "https://lh3.googleusercontent.com/0jLkqzgBw72wNPc2SrwradOvj7L5KQ5WyaQUVV56kAMOV_wmDS8e0rX7DsomR1PWKeRapksMSdHlxl7pOphmGLOBnjts", "name": "Sankt Erik", "lat": 59.33266700000000, "lon": 18.04740100000000, "bs": 11, "bc": 67, "rs": 4, "rc": 54, "ys": 14, "yc": 62},{"id": "98a089ae35b34eee925c14a2cb42365c.16", "url": "https://lh3.googleusercontent.com/0b-TyL2_ksPSq-7TSaenP7ymkR74otiki8gmT87BGEaSYM_OSQI84Ppl67Fox07RgiStOo7bMT5AXT8AiNOnQLbtKQ", "name": "Cinema Sture", "lat": 59.33900500000000, "lon": 18.06791100000000, "bs": 6, "bc": 88, "rs": 4, "rc": 52, "ys": 10, "yc": 95},{"id": "98bc894cc9274efb8280a3108634a89c.16", "url": "https://lh3.googleusercontent.com/XUxVhS9rdeLfAc7vu1XlifUoebvr_3vXSD_n7-32zsnBJHUEhlec8hwD7OW4XvepGDtURJ96MVvRU1Y9CD2j6HRrhNU", "name": "Palmfeltsvägen 73-77", "lat": 59.28814200000000, "lon": 18.07194000000000, "bs": 13, "bc": 26, "rs": 31, "rc": 39, "ys": 12, "yc": 23},{"id": "9aac4962a48849fbba915724cfafb035.16", "url": "http://lh3.googleusercontent.com/mdzPNQU0ioV-6NFZiCpgLRsoARBF77n0govDbw-p-CuM6DbuRceDkhkNEfPZEKy4DbyPqTLHGewWXWpNz_6tVP7XVw", "name": "Kaniner", "lat": 59.32723900000000, "lon": 18.10700700000000, "bs": 23, "bc": 38, "rs": 17, "rc": 31, "ys": 14, "yc": 29},{"id": "9e3e3bdedb7a4f898443217cce8dfca8.16", "url": "https://lh3.googleusercontent.com/1pAoyaRwoUInnGJPHOSSphbTtUalSbg4PIs8YplLr2qTodcHkV04BYELwtD8UKsoHMARJAG_9b6ZbhglOxeP3uPatb8", "name": "Wasa at Styrmansgatan", "lat": 59.33199000000000, "lon": 18.08502700000000, "bs": 15, "bc": 37, "rs": 17, "rc": 30, "ys": 16, "yc": 46},{"id": "9ea48ec12bf44c38b49cf1ca6cd2b0e3.16", "url": "https://lh3.googleusercontent.com/wDraOrUiLeP63eGAkXRF59Is3CWjQublG3s6j3R0hyxBh4jZ9LxJzDH_rnQOt5o_zvsNYYZ6Su19aGwR8WWBUPAbWom5", "name": "Tornet På Svandammsplan", "lat": 59.30039900000000, "lon": 18.00405800000000, "bs": 14, "bc": 80, "rs": 6, "rc": 44, "ys": 7, "yc": 59},{"id": "9ebc609c6fc44886991b80ac44842333.16", "url": "https://lh3.googleusercontent.com/3BMahJlc8dKCvhCORsM2BBZ4S-mktx9iPY-hQJWy3suotKKftC1DLjko8avoZDdgiPLJotcsg1IrpOe-r0AmVD6oY7cP", "name": "Lekplats Nåttarövägen 13", "lat": 59.26585900000000, "lon": 18.02990400000000, "bs": 17, "bc": 23, "rs": 7, "rc": 34, "ys": 30, "yc": 38},{"id": "9f0fc352c2214a81a882e1170e8b3d9c.16", "url": "https://lh3.googleusercontent.com/apCRV7xmzRzHdRSMThiLVjOBLb9YOpg9M9Y_eB6vcchjTqJ8VZt3gRql3u5g_DGwYh1ipFxVn_sbUJBTD42AU115Wg", "name": "Brewdog Bar Stockholm", "lat": 59.33624700000000, "lon": 18.03409400000000, "bs": 12, "bc": 66, "rs": 9, "rc": 48, "ys": 10, "yc": 53},{"id": "a0ce8d6cb09a438b89a1cf6c9b0377db.16", "url": "https://lh3.googleusercontent.com/djcFdhRAtm3HykxWuhiMmj-qNm4nmSQfQweJAuxKIpmb4tX43-05aFf8jPnQx3ws4U4gS75dNFIeOWNvLN5qhJsI5Q", "name": "Glashusfontänen", "lat": 59.30338900000000, "lon": 18.10354800000000, "bs": 15, "bc": 62, "rs": 10, "rc": 27, "ys": 11, "yc": 54},{"id": "a0f0cd9bb2bf46feae2333de1233eda1.16", "url": "https://lh3.googleusercontent.com/OklrglLNQBRs57v5mE3zhxn4M2j_9lAFp6Bng1BkH54MEMBJBQmb_OpfPNaDInQsAhlXhK8ceyeq55GbIgg5e3a1TZg", "name": "Three Wise Frogs", "lat": 59.30438500000000, "lon": 18.00704300000000, "bs": 11, "bc": 79, "rs": 8, "rc": 50, "ys": 7, "yc": 69},{"id": "a1698d872e0f4b6ba576027808c72928.16", "url": "https://lh3.googleusercontent.com/5a_8esQHND4i23iDohQiCU5rR5lfmSIu3VQsoralKqaqrPNCqh59nOQ0bBC9CHnE1zFJ71rdQ6pb_GxUDL7KtGMe", "name": "Västra Stallet", "lat": 59.33404500000000, "lon": 18.08936100000000, "bs": 15, "bc": 44, "rs": 13, "rc": 30, "ys": 15, "yc": 50},{"id": "a17b9fa1329641a8b48262d3340d2480.16", "url": "https://lh3.googleusercontent.com/LiHCEDNbB0KSEGwbXrFXkwcJlZEgIS9H0XOsRjMK7s49ODnpyirpHz9qcYNpnZ6qCT6q5uc-xqXtxYf_Y2Xl6lkLLw", "name": "Nordiska Museet", "lat": 59.32928600000000, "lon": 18.09424700000000, "bs": 22, "bc": 35, "rs": 17, "rc": 27, "ys": 14, "yc": 37},{"id": "a2c4eb8ce1d04973b82db4d896cc6655.16", "url": "https://lh3.googleusercontent.com/qe9_vnfMWxr8GPesIK_OAQJpYbtM8Q1ziiTzlDNtZOaD0VyDAQbm2Q4vLmnznc1THq8dRO5qSg0DPKAz5hrHtaWqGA", "name": "Trapped in luminescence", "lat": 59.29002800000000, "lon": 18.09252500000000, "bs": 5, "bc": 81, "rs": 4, "rc": 91, "ys": 8, "yc": 132},{"id": "a3c280a78914463ca37e4eadd8d22014.16", "url": "https://lh3.googleusercontent.com/TwgH7vzCFPl8pYtOL77xqIFVNQPQmd2v6MyXaxNCsTJj4jOYWDzfm3ayXj441q0vfWyr-4vr0iT5qoZvB944H-x61kk", "name": "Konserthuset", "lat": 59.33489000000000, "lon": 18.06269000000000, "bs": 7, "bc": 108, "rs": 6, "rc": 96, "ys": 6, "yc": 68},{"id": "a3eba623ff1c4396a8689fc1ca57dc23.16", "url": "https://lh3.googleusercontent.com/MpOy8ZsXCKekDV05-gyUVF_-vfRLqJmPsXD6_RVgM3qX3B2xqENFRtuKpGtYqyLnQtfL9QZNuw9TgNdceJ6eVxtwZrPn", "name": "Mosaic Waterfall", "lat": 59.27681400000000, "lon": 17.88922600000000, "bs": 18, "bc": 46, "rs": 11, "rc": 42, "ys": 11, "yc": 48},{"id": "a3fe094e0e2d428295fec37e2515088a.16", "url": "https://lh3.googleusercontent.com/g2GtlELA-Qoxiwx5vLjigHdK9r9GHvwwnVSGTihsg_FjY7wRLjuizi8_lO-KUvh58Sf-EvW6VNr-cv3nC2aLq6CdWvo", "name": "Morgon", "lat": 59.32603800000000, "lon": 18.06814700000000, "bs": 12, "bc": 60, "rs": 9, "rc": 49, "ys": 12, "yc": 52},{"id": "a44cea70aa6648709367026157de2b8c.16", "url": "http://lh3.googleusercontent.com/7lhG_bBvDJEbqH7yOxVe5HwU-YzeiM6Ax9Sn5WJTdg8b1dYENVjYwFLOaAitWYojcL44290dGVdv7WzwY0jCWbaMuUdm", "name": "Grått I Grått", "lat": 59.29679100000000, "lon": 18.07547100000000, "bs": 17, "bc": 40, "rs": 12, "rc": 39, "ys": 17, "yc": 38},{"id": "a4ddddca88454c0f8a489d024b4b0dee.16", "url": "http://lh3.googleusercontent.com/5Gw3lEDt0UM33-jRT2CHyOF5c7IfGGYqymP6wHLPigTeOxKsOJB2VN0f6PknaZnD8AR5IGbWLgOSpTl4k90PIk2558o", "name": "Blomdekoration", "lat": 59.34851300000000, "lon": 18.04884400000000, "bs": 8, "bc": 33, "rs": 18, "rc": 61, "ys": 8, "yc": 50},{"id": "a5237d85a0a94c16bb868276b4dbb4e0.16", "url": "https://lh3.googleusercontent.com/PR73WxM7MQm5_cO7rYV-AFO82CDseOfiIfocGnbLkJFYD6rHo0q2oG7WvGIzX28-ijJrB6IP_1dww9-VnhUoTgPY_coM", "name": "Klätterkanan", "lat": 59.29484400000000, "lon": 17.99729800000000, "bs": 3, "bc": 57, "rs": 9, "rc": 91, "ys": 8, "yc": 95},{"id": "a595eed81e324a8fb089e3d27d421cb0.16", "url": "https://lh3.googleusercontent.com/bjGbncuGHKn_LcJFey813Hwqhrr-b-83rgH94YygoqEpc4brUdfyHUDnud4DbF2Q6VS-C0jxZjYUWEU3iRArbDUMvMEj", "name": "Kronobergsväggen", "lat": 59.33477400000000, "lon": 18.03458800000000, "bs": 7, "bc": 66, "rs": 9, "rc": 79, "ys": 7, "yc": 85},{"id": "a597864f9a5c4396a909c772e58b5c74.16", "url": "https://lh3.googleusercontent.com/d-g1xvw6WwDr1baZFAmHqEBjrPsyb-ot26bDRFbG13QrnkPhe7w0_BAR2ubNt_i7YY0n_sqZZQ18WwnOzGIVWDXySSo", "name": "Kristinehovs Malmgård", "lat": 59.31828700000000, "lon": 18.04109200000000, "bs": 15, "bc": 60, "rs": 9, "rc": 22, "ys": 13, "yc": 53},{"id": "a678634f97744e34943024f54a647c31.16", "url": "https://lh3.googleusercontent.com/bREK8DK4sx85XWwPL06xEufF-tx-UiNbCO1YBqwwm0eaGv9nqQObpquetCquBxv2uhh2B4UOFx-DvimqH2NnLIUv1X9n", "name": "S:t Görans Sjukhus", "lat": 59.33360200000000, "lon": 18.02378900000000, "bs": 18, "bc": 51, "rs": 13, "rc": 44, "ys": 8, "yc": 44},{"id": "a70244ae2df44cd39797a2d84d23282a.16", "url": "https://lh3.googleusercontent.com/-iyPhX-XgOrShklZH1hQ4OxTkf9tq35S2P0jDy0G9ahwbK6ZAllpN8z4N0FrbJILoJgBeVP7O9nxVIQRBL3TZH4IGrA", "name": "Entrance Art", "lat": 59.33855800000000, "lon": 18.00946000000000, "bs": 7, "bc": 122, "rs": 5, "rc": 96, "ys": 4, "yc": 106},{"id": "a7c1774ca1d04361a5a3288c3451824f.11", "url": "https://lh3.googleusercontent.com/Zdi7wkB7RQXp7VSvnUFG-s0by5EuJXl1NyX-HVSwOoWpWNkJt3RMDKYSI3VivoZw3CLsecAfAcST4506Z-nCE4s-2Xgu", "name": "Nacka Skoglund Memorial", "lat": 59.31128500000000, "lon": 18.07992600000000, "bs": 16, "bc": 79, "rs": 5, "rc": 69, "ys": 6, "yc": 36},{"id": "a8a8cc19bf67400d8e3eed29af558c77.11", "url": "https://lh3.googleusercontent.com/drkJFAmka_yesWavKtv4R4d6YWF9cqEbxVZ5hfo3Gz6wzGEqFxsKPYUTiL3rOdmGHIYTjVZjFVPRS76htwxjoZE4nQ", "name": "Torso Statue", "lat": 59.31805600000000, "lon": 18.08411900000000, "bs": 23, "bc": 33, "rs": 21, "rc": 24, "ys": 25, "yc": 23},{"id": "a8c9e8b85a4e46aab1ee1abae3bc5330.11", "url": "https://lh3.googleusercontent.com/CMZMj0cYyFqrOuI2hUiYqxLvYChGnYnkR6dWDXtQgsTIcnED92ifKZiOzLHOQtghqx6q5RAt4jtcv4Mntig5PXMhVks", "name": "Fontändamm", "lat": 59.30581600000000, "lon": 17.99785900000000, "bs": 10, "bc": 46, "rs": 12, "rc": 43, "ys": 13, "yc": 65},{"id": "a9569ed2780d442095d72109f7a98ac1.16", "url": "https://lh3.googleusercontent.com/8e29538z2ffAPQ4u8Hzve-6UflRuMfjAhKkzxnrs8GX37PZst6_7D8uCoQxZfjOVDxEtm7NEatgA8F1CIrP4NiL5PXg", "name": "Rasunda", "lat": 59.29775400000000, "lon": 18.07176200000000, "bs": 21, "bc": 32, "rs": 25, "rc": 26, "ys": 24, "yc": 20},{"id": "aac8b0452b1840dd88ac5497a74348f4.16", "url": "https://lh3.googleusercontent.com/K3ZYegIoumtkyNgcviV5I1LILp3PMtWEz35pHDXjtYn9cdbugY2UD37XXMh-h76sq6jGz5D4tDEGCc373Jjd5tVEXw", "name": "Västertorps Historia 2/7", "lat": 59.29193900000000, "lon": 17.97378200000000, "bs": 13, "bc": 57, "rs": 6, "rc": 12, "ys": 17, "yc": 57},{"id": "ab2edfa3768249a2aeeb725f97b27443.16", "url": "https://lh3.googleusercontent.com/Jipwze-FQRbCGs15y1fVOOJqs9faNLnz-EMfZrPR1qGDRvfv_MI2eRLywFxb6eYXWA8eh_muXawJIAinsox9bSQwAg", "name": "Graphic Leaves", "lat": 59.29677700000000, "lon": 18.00030100000000, "bs": 7, "bc": 62, "rs": 6, "rc": 31, "ys": 16, "yc": 74},{"id": "ab73e7b13a064e13a5051323c5d0a1ec.16", "url": "https://lh3.googleusercontent.com/jDk3zt2zrsHSY7pxB5PnUNqo2bujHgsmJ_irHNotkS2hXf12Uf9uXfhO3CJtwl7BEOAklE9e6ZHTnGhkURihRlFWR-0", "name": "Mötande Havet", "lat": 59.33822000000000, "lon": 18.08746900000000, "bs": 13, "bc": 56, "rs": 14, "rc": 31, "ys": 13, "yc": 49},{"id": "ac8fcaae62ac44a8b47602d95e50709f.16", "url": "https://lh3.googleusercontent.com/u7xQt4RwbYI3M2PGWVwjcLG_xr2y5MDZOP20e20RN-2uSMSQeg0UOuHr07Vfv_SiaxC4Rg0yFAbrcA9llzju9_q1ay5I", "name": "Äpple", "lat": 59.33365800000000, "lon": 18.01990500000000, "bs": 15, "bc": 58, "rs": 12, "rc": 49, "ys": 8, "yc": 46},{"id": "acfe34b381f24d21bb85c60976a71275.16", "url": "https://lh3.googleusercontent.com/YF9U8M5hYdjKfS5KXz7gVwpUe_M-UaGWDnC6uulBd-U6m2b3nxexumy7g7jJgWrKSpWAw25HEgSjyXQrHbPbzJfp3rxd", "name": "Mingel", "lat": 59.35072300000000, "lon": 18.07217400000000, "bs": 16, "bc": 81, "rs": 5, "rc": 47, "ys": 7, "yc": 48},{"id": "ad0773898268425fb2583a9b204b066a.16", "url": "https://lh3.googleusercontent.com/su40oNHv7CJqFStf_ZL4NbrPugstwHRy9QRrADh6yHuk-v2OqTmf04mC54E1fYqk3sylQ_al9H1rlBtSQBR-VWqh8w", "name": "Älvsjö kyrkoklocka", "lat": 59.27637300000000, "lon": 17.99389000000000, "bs": 14, "bc": 66, "rs": 13, "rc": 66, "ys": 11, "yc": 1},{"id": "ad7da7f8bc314dbaa30c1d145d75dbca.16", "url": "https://lh3.googleusercontent.com/ln2C9gUFEvj0jfzb1CyvaPwQGPe4h1mjFyI1Yh3nrkvuFQMQtplAP47EvzPTf1R0fU3VM6yqa1WEHAERkEuUQNn8lES4", "name": "Wonder", "lat": 59.27917300000000, "lon": 17.90654800000000, "bs": 11, "bc": 76, "rs": 12, "rc": 80, "ys": 1, "yc": 7},{"id": "ae488f210c744b0e98935821ed51ee7d.16", "url": "https://lh3.googleusercontent.com/tD3B95QepHPkVg2TlROEn8R3d7TCo3IjisYDQ_U57PDKMhqdv5A34-1OVjrxq07csQ6aUGcPG4oBdqFU-CK0LUBH1Utv", "name": "Smiling Buddha", "lat": 59.30112000000000, "lon": 17.98996900000000, "bs": 13, "bc": 48, "rs": 21, "rc": 49, "ys": 5, "yc": 15},{"id": "ae66b4c349ca462cacabe01f3e1a0031.11", "url": "https://lh3.googleusercontent.com/NeAiH22tkgXENby4fqzLew0Qt6rdW9HRG19d9BbbkzFl6qWbibGqkyEnxzuPwg5ImP3Jg_a6hMz_FyDJGfUj_e4ZU1c", "name": "Gullmarsplan Bus Terminal", "lat": 59.29774400000000, "lon": 18.08177500000000, "bs": 7, "bc": 95, "rs": 7, "rc": 83, "ys": 6, "yc": 91},{"id": "ae76621ba006498eb29bfcf0bb5f6ea5.11", "url": "https://lh3.googleusercontent.com/QPTCI0d6RdKmbEGIXmTM0sTvbxND05s_tl6HXlMLfMXerA4fRZmSxm3Fw0W1GeG5ECq1oEysQCpQwYMv-1zK5BMVuQ", "name": "Seglats", "lat": 59.30490200000000, "lon": 18.08882700000000, "bs": 6, "bc": 44, "rs": 10, "rc": 70, "ys": 11, "yc": 78},{"id": "af4ca087df33460a901febefb418683b.11", "url": "https://lh3.googleusercontent.com/bVFP_zg10jRZsFCw60DzQX1WTjsI3FXGJwSCPInhcl6365LimITepStgGE54743DaaZr3pcQ5tfxakglRRtFhHj3mPrq", "name": "Engelbrektskyrkan", "lat": 59.34387500000000, "lon": 18.06804400000000, "bs": 15, "bc": 57, "rs": 13, "rc": 59, "ys": 8, "yc": 22},{"id": "afdfeab3c3b64c05976ebd2d47ee6f29.16", "url": "https://lh3.googleusercontent.com/-m7wm3WWazSKhAWCD6oBM415KQwjV2LHE4tAeJ0HEEY8gOgRBbJckVxxeJz6Y8QqvT-hA2a8xoYGsmDW9NJf477wSA", "name": "Zinkens IP", "lat": 59.31641900000000, "lon": 18.05064400000000, "bs": 16, "bc": 45, "rs": 16, "rc": 40, "ys": 14, "yc": 34},{"id": "b05962f1585748358fe7360346c4017e.16", "url": "https://lh3.googleusercontent.com/E6-gyTemiNI7JFKsDy66hf3xE_Ri9xjTVEzPdSAsWLK6U_k4P14cJzQFSBfUDiVetUBvduWViF8gpS-R7cB0Ri_x2Cdh", "name": "Systrarna", "lat": 59.29466600000000, "lon": 17.97055700000000, "bs": 21, "bc": 40, "rs": 10, "rc": 26, "ys": 16, "yc": 44},{"id": "b080a8722c3c484bb55fe8bc177c3501.16", "url": "https://lh3.googleusercontent.com/cMvvfFoKqt6BHlnvUDrPHy4qQeB5IdKXADmgqTJuNcV823FaiIq05Pq0UfuH-e11Hlgl6WwdXivdHaCxOb45rCziakw", "name": "Här Och Nu, Mitt I Livet", "lat": 59.30552200000000, "lon": 18.08178700000000, "bs": 11, "bc": 58, "rs": 11, "rc": 47, "ys": 11, "yc": 60},{"id": "b0f62ae8a4324d33bb35f0e6c79357ca.16", "url": "https://lh3.googleusercontent.com/xXoIZ6MIvhiM_UiwTMnlptZIrODOzKsXj41242wPvevWRCiM8C9sK2J3ggUAcq-4afheXKn93ZyWjEEbuT_1KrhSFhG3", "name": "Stockholm Waterfront Congress", "lat": 59.32943700000000, "lon": 18.05709300000000, "bs": 5, "bc": 195, "rs": 3, "rc": 153, "ys": 3, "yc": 128},{"id": "b150217084234f00b7eb96c9a28a48ed.16", "url": "https://lh3.googleusercontent.com/G6G5WmG2pq1zl0RVLCjFaD2Ojh0OGyB7mbcj1C8dhilxb2yP1vw9373rNzAixIn9LyP34rAADZsf8PxFoTmn6E_nW8Ho", "name": "Långbro gård", "lat": 59.27995800000000, "lon": 17.99206100000000, "bs": 16, "bc": 31, "rs": 33, "rc": 36, "ys": 8, "yc": 15},{"id": "b243ad0b3c744762a7fd74dbe736d711.16", "url": "https://lh3.googleusercontent.com/g38pCbdY3H44WxVvl1_8EabkM4HppE2MGTwRi4DzbOgEbM9XFSIFJs-HrUG4CjJBegDE6RVO1slOZ6jvcJDphdKQBUY", "name": "Hagsätra Kapell", "lat": 59.26160100000000, "lon": 18.01486400000000, "bs": 13, "bc": 47, "rs": 6, "rc": 38, "ys": 15, "yc": 61},{"id": "b2c81a87c1f545d48ce7ca0037b8edaa.16", "url": "https://lh3.googleusercontent.com/eLv-FBmWaNTDLaG0Xw3jCgw1daSC8JA_E1suCYmlcV5rFWLAxk8x0pLXg8Ae4M4gaMK4XLbIXHM9Z6mYFOpcpxbQfIBK", "name": "Stoned", "lat": 59.34739300000000, "lon": 18.04558000000000, "bs": 22, "bc": 53, "rs": 9, "rc": 44, "ys": 7, "yc": 31},{"id": "b3a7a49f7aa44bc38eed747955f0afc6.16", "url": "https://lh3.googleusercontent.com/UQb-BsJ0rfLOC8NqLfdAJeNZJjicNr-bD-M3OMcqbEuY8cqqSmvQDOHo_ZOMj-dHSJNSqNJ7WY57-agiH-SjwMLscauY", "name": "Livgardet K1", "lat": 59.34758900000000, "lon": 18.09280300000000, "bs": 22, "bc": 29, "rs": 23, "rc": 28, "ys": 23, "yc": 24},{"id": "b43c87203cea474a96f35d2ecb0fe21d.11", "url": "https://lh3.googleusercontent.com/CA2z1ybgcrBBjOsAe1rZWlToasYCtTA4rK7gO9T-b6zBkXN-SuEdeWarscHpza-eK78jbrrm-bu7NIP6_3fXlw4fGg", "name": "Remembering Willy Brandt", "lat": 59.29505800000000, "lon": 18.10731100000000, "bs": 12, "bc": 31, "rs": 22, "rc": 52, "ys": 10, "yc": 28},{"id": "b4c9df8d990e464491df8a14f3f3d835.16", "url": "https://lh3.googleusercontent.com/0NgcSlg06a14tbtfhGaNmeMeQv7SZrV-lbEI-2hmgeLrRBdxcs4XJecKMiO04IJ0_KPD9W8ed8lZplb5Xl4UsBzgWo2Z", "name": "Löv", "lat": 59.27772500000000, "lon": 18.06732500000000, "bs": 22, "bc": 37, "rs": 18, "rc": 29, "ys": 18, "yc": 27},{"id": "b4f3d2e766734bdfa4e076161e8e91e3.16", "url": "https://lh3.googleusercontent.com/WjhSbE4xqNKUbR5TJ06X1VJzDKav9G5hafdlkef5J1__VieC3cQcvksptnlMO5Ii-W7s-tHq-CIKBvsKpnn4mU5BYyo", "name": "Ihopkrupen", "lat": 59.34534800000000, "lon": 18.06325500000000, "bs": 9, "bc": 88, "rs": 9, "rc": 88, "ys": 6, "yc": 25},{"id": "b5143d236b4e4ec08be9ffe76a4108d2.11", "url": "https://lh3.googleusercontent.com/3EDwn6nv_dbIYGrjk_RhPbALUpRu1wtAzwkOLGaHSPeiwOTw5YCddJcjPvWDCB7abT_CBeXSvxEBx0Jf_NnqrR_Kuh-o", "name": "Tanto cats", "lat": 59.31111100000000, "lon": 18.05000000000000, "bs": 23, "bc": 36, "rs": 13, "rc": 18, "ys": 22, "yc": 32},{"id": "b5478447792d420dad33c3c74023c034.16", "url": "https://lh3.googleusercontent.com/xMs868aMyhX19WjRZuENF2-ojTgQNLr16YVVpVH2RR3lF_xTHYSYqOSkicQI0ektheAYdnTTa5KW5bq8lQMCZll5db19", "name": "Främmande växtlighet", "lat": 59.27482200000000, "lon": 18.05763400000000, "bs": 19, "bc": 50, "rs": 11, "rc": 30, "ys": 12, "yc": 41},{"id": "b678eedd645c45a796355800ae3da5f9.11", "url": "https://lh3.googleusercontent.com/_uiE9CovZXSC32aUmxJrgVYTUE1BMhu7F3wCziW07i1hlq5DslYk6VGZCA5tj9aQDvtHYD6ZXWCaSYHEaMcZC1qNXw", "name": "Månhästar", "lat": 59.30358400000000, "lon": 17.99339100000000, "bs": 15, "bc": 13, "rs": 13, "rc": 31, "ys": 34, "yc": 34},{"id": "b7ce70cbf1774e2495a6f7172fed22bb.16", "url": "https://lh3.googleusercontent.com/fBLh0YPjpXi5n-fM7ckQAx_52m0qxBQnxnVZA5Mwvf3gj552PGoPQOeEu0_s36vsrP9zBw7TRkyNiLrFVo5G7kYU8dM", "name": "Bruna lekplatsen", "lat": 59.28357200000000, "lon": 18.04761500000000, "bs": 5, "bc": 52, "rs": 12, "rc": 103, "ys": 3, "yc": 84},{"id": "b8cb414595e0478ea213131b27be33a9.16", "url": "https://lh3.googleusercontent.com/vT6oTlh77TdtcXdkeN3VtmtKJAirC9mdGFdhEkJ58xPxAx0_KQzX3V8WSs-GpLSCmJIktNr3t-ztDTLAgN5iErbYuV8", "name": "Stående figur", "lat": 59.31214100000000, "lon": 18.07462800000000, "bs": 7, "bc": 96, "rs": 9, "rc": 103, "ys": 3, "yc": 54},{"id": "b90f273a22984499a0591ff69c655177.16", "url": "https://lh3.googleusercontent.com/bYKmHiy51U_kjZVosn7whWcfs-AlFhjXPdQofnlK4sxIcNPnST40FRqB6RdDZyMfGJowtKZ69zw12A75EJl8KZ_bUFg", "name": "Djur i Cirkel", "lat": 59.27391600000000, "lon": 18.02430700000000, "bs": 17, "bc": 70, "rs": 7, "rc": 29, "ys": 6, "yc": 61},{"id": "b9809f18a1424d84b7c4ae79eaf91a6f.16", "url": "https://lh3.googleusercontent.com/_G1R5Wx4YYk2IWpWJ21O5ls1CDSsnYWEPXeM98bXztxmzXR8EkRj243l-YgPWo4p8RPWMVc0LDDBnz6VbayF7ml1NSE", "name": "KB Sphere", "lat": 59.33792700000000, "lon": 18.07261300000000, "bs": 19, "bc": 69, "rs": 6, "rc": 41, "ys": 7, "yc": 37},{"id": "b9a8217e036a4f5c976753498afe8cb5.16", "url": "https://lh3.googleusercontent.com/RRxdBCFr-QkxmdsfsGRArXe_Tg6wKgsFJOskWIvxk0iocRuLFqES7kp1LHCaAXBYZE8mkblZdJTsShQddkA8Jn_3n08", "name": "Melodi", "lat": 59.29932000000000, "lon": 18.04209600000000, "bs": 7, "bc": 65, "rs": 8, "rc": 74, "ys": 10, "yc": 76},{"id": "b9c2dd39e30e4d0792a20ff99ca850f1.16", "url": "https://lh3.googleusercontent.com/CNWAbrJhAH61AXPKBl1TtBoh46lfcsPZxNthfGuVIzYBLhhG1LnzXs3AEVD-Az1kN-wvG1XixJH7yahHf-Of9uzsqQ", "name": "Barn Med Fisk", "lat": 59.32766400000000, "lon": 18.05521500000000, "bs": 12, "bc": 64, "rs": 7, "rc": 52, "ys": 10, "yc": 68},{"id": "b9df5ff7653642559ce228d00bbcb92d.16", "url": "https://lh3.googleusercontent.com/PH02DxJWHyPkbIqo5o74Is8BCxblYuzo8y8E0JsHy5NonCQwh7Ggw4Tz6DU_yf2cPROVuhdozY9JFMk9HqrRkOGMQ5E", "name": "Vit Pusselbit", "lat": 59.33884000000000, "lon": 18.10032400000000, "bs": 12, "bc": 49, "rs": 18, "rc": 55, "ys": 10, "yc": 27},{"id": "ba9e0b6914594b539dd15c05d3fc8a9c.16", "url": "https://lh3.googleusercontent.com/52oe0YTbPjG7kHADCygy1yYDgXC4AbHuMjFMYuU6BBdl419_U_wPSjRWKkjcmqH7D735ObpVdnIRRN6hVAtnsZBQGeA", "name": "Bugs in Stone", "lat": 59.29958400000000, "lon": 18.07671700000000, "bs": 9, "bc": 47, "rs": 28, "rc": 45, "ys": 4, "yc": 26},{"id": "bbd17030453842f6b3e2d056eb4b258a.16", "url": "https://lh3.googleusercontent.com/6Tvh1oXvq3S5wwBdhb7T9V6RT9PpnM68Xr7Pm97smeB1p8SgMTcSkiwRB8E4kEI4DeL6FuYRO6NJYAze4blgISxRfw4", "name": "Maria Magdalena Kyrka", "lat": 59.31902900000000, "lon": 18.06672400000000, "bs": 16, "bc": 46, "rs": 16, "rc": 45, "ys": 9, "yc": 32},{"id": "bc8010890519456a8c2ddaadcf494d6f.16", "url": "https://lh3.googleusercontent.com/uIbdo9B3LWQ0usYZrsU1tpV7ud6DtNdvhAMyt0oqlJCSbX7amayGbpRzq67Pjyw9sRCGkGl82zryQCJ6w1yD0uMwhCdn", "name": "Älvsjöskogen Södra", "lat": 59.26064900000000, "lon": 17.99684700000000, "bs": 24, "bc": 29, "rs": 7, "rc": 11, "ys": 30, "yc": 34},{"id": "bc8d735394e84b70a297a90b9c683333.16", "url": "https://lh3.googleusercontent.com/lB3B0KWAxi5fphe7HvEBE1gm_NlMYYn71rCnPllohKqV-Kl4SfvlIRJjupIFKcFd76dQ82KwHP4D2NFmm1Spj7R8p2BW", "name": "Hantverkare", "lat": 59.32685700000000, "lon": 18.01287900000000, "bs": 14, "bc": 59, "rs": 11, "rc": 63, "ys": 8, "yc": 31},{"id": "bca29baad02b472b8771a9b557a04c36.11", "url": "https://lh3.googleusercontent.com/4tvAUshxku4j6h45fdqGzqEaOweInSYTGa3JoagZhaDIjmU3O0yCdBv-X534IoB0ZZh-HWbFYteHQ8qFjFJeWOtiCg", "name": "Söder Torn", "lat": 59.31497500000000, "lon": 18.06949800000000, "bs": 19, "bc": 74, "rs": 4, "rc": 46, "ys": 5, "yc": 44},{"id": "bcba9c919cc44e28bfc9f3e087fee4d7.16", "url": "https://lh3.googleusercontent.com/241Rxj3R0yvqf04Qw9W-yFT-Mgf8HDFRRTtgIGzX7A4di94bbH8rRQTsmBFZbYr8XhreIymnn3Z2u8vD2u7uTNdaVw", "name": "Önskeringens Parklek", "lat": 59.26351700000000, "lon": 18.03730700000000, "bs": 1, "bc": 44, "rs": 1, "rc": 34, "ys": 21, "yc": 83},{"id": "bce16a7f0def4852a0e12e0e1fa836a0.11", "url": "https://lh3.googleusercontent.com/nV-RC87d5tMTMYXc8w6Yd6rJgEO0T6iY80-R8D0vhNtWg_7Sel07UrnvDDczgHt3DVfRyrq1iDWXk7XMHKwV4jsFlp8", "name": "Karlaplan fontän", "lat": 59.33783600000000, "lon": 18.09022700000000, "bs": 11, "bc": 56, "rs": 18, "rc": 46, "ys": 8, "yc": 46},{"id": "bf27dd16b7a24a819ab8d1cccbf8bbfd.16", "url": "https://lh3.googleusercontent.com/_d9GUaWFyagxJmUexdSS4EFlXDEMt_1sIWcMdRCUpTraZRxyFA9dSFu4M8i1E916JQPwmBaWNxozft7xzI3D8UTjp3Y", "name": "Screamager", "lat": 59.32685700000000, "lon": 18.04306000000000, "bs": 9, "bc": 66, "rs": 9, "rc": 70, "ys": 9, "yc": 69},{"id": "bf354e5c1bc649d8ad8b94c93b7baf39.16", "url": "https://lh3.googleusercontent.com/CmSH3wfrLfcLduDSxhG9VU_kl0CssZIDJAeqTv8pIpHeATbwlKe6BR61pAw0-oAHeMKcoUW9L2YnekGN3PweQ7O5PmA", "name": "Kaninen", "lat": 59.31607800000000, "lon": 18.06131400000000, "bs": 8, "bc": 88, "rs": 10, "rc": 72, "ys": 6, "yc": 61},{"id": "bf80e51df09b4672bcbc722fad08ad98.16", "url": "https://lh3.googleusercontent.com/jLZCIwKo0NZbz_kzCJoFanl4bcQmP110hQHtbyp174lzh-61z_Y3pgzy08sSinc0utcxJQVHpNWkhIViEfVv9ZBCmg", "name": "Finska Filadelfia", "lat": 59.29859300000000, "lon": 18.01310600000000, "bs": 16, "bc": 55, "rs": 12, "rc": 25, "ys": 12, "yc": 53},{"id": "c0391a10413d4b8dab3f55511aa9910e.16", "url": "https://lh3.googleusercontent.com/a-oyIeinSmnq-4tk_wpjsqQatBrDBS6r6qTQeDjHJ-cN0_yHAIkEHygb_PZ0ALKeJDVumTlcQwNqHDidzOL6PXRq_go", "name": "Stadshuset", "lat": 59.32709600000000, "lon": 18.05357600000000, "bs": 17, "bc": 59, "rs": 9, "rc": 50, "ys": 7, "yc": 56},{"id": "c04073bdc04c4ba89d20856670293a23.16", "url": "https://lh3.googleusercontent.com/sHXRQDbXslB5vQE6qzW9MGHLsB-0KQy-Slm45-8vHHQi159bh8qEuCRc3jlgUkFffVlPjM-Whn2Upi8p2wW5KWH-ElY", "name": "Orange Blobs", "lat": 59.30906600000000, "lon": 18.04870800000000, "bs": 9, "bc": 45, "rs": 7, "rc": 44, "ys": 19, "yc": 58},{"id": "c0f47e57c4254e6683c977d4d7793063.16", "url": "https://lh3.googleusercontent.com/VhXl2A-pUPkJBxTF3h-W7jkNEafgerky8tWfF8iYYT3gjbSe8mxdfWCBpeT-Aq5ngCfvmJDm40LWIDNnQRPWlD8JzQ", "name": "Hot Lips På Skåpet", "lat": 59.31995300000000, "lon": 18.02882800000000, "bs": 23, "bc": 28, "rs": 23, "rc": 29, "ys": 21, "yc": 23},{"id": "c206db7810dd4024b9a0d90d01b15c21.16", "url": "https://lh3.googleusercontent.com/Vf66um8nPuIMQSBQkzQB3zgC0ds5GGPguYjSEieKSJvO6NG7J4LstnyHWrc7sGw87JxdHHTAueXnX8bQnhSePXkhA0Q", "name": "Villa Årsta", "lat": 59.29983400000000, "lon": 18.03160800000000, "bs": 14, "bc": 62, "rs": 16, "rc": 56, "ys": 5, "yc": 15},{"id": "c2bc828b37904a1590f1996472bea7a8.16", "url": "https://lh3.googleusercontent.com/qJraGPoEWIQMs1ApCBth_XLt9H83tKIfK85i4C3UH2pmGCVZi2_KSpw-7WElk0gwsU-E_sosqYHh9e5yQStpxmWQJg", "name": "Årstaskogen - Årsta holmar naturreservat", "lat": 59.29861900000000, "lon": 18.06121500000000, "bs": 15, "bc": 34, "rs": 20, "rc": 40, "ys": 15, "yc": 31},{"id": "c603f4b98c2a4e76ae5161690831eba5.16", "url": "https://lh3.googleusercontent.com/bORagej13nb0NTxJ14r6Pk5ZRLAlUfU-y7XEF_3MwHYnQ8kY898VCegzNxEsbU0Wk0_kXZOPuO4rKmLQl2n7kMgQcKA", "name": "Abstract Boat", "lat": 59.30148100000000, "lon": 18.01230000000000, "bs": 8, "bc": 105, "rs": 5, "rc": 70, "ys": 7, "yc": 80},{"id": "c659d563919f4180968ae40335559515.16", "url": "https://lh3.googleusercontent.com/6SWowA7qou1FzOr_htElN_iH_NrNT4JO11o6SPJsWlGqniffByD2sGEeKuigspWqK5MUfiv9SFo7Dp11-HRIMTaMg68Y", "name": "Lastbilsparken", "lat": 59.27189000000000, "lon": 18.01770400000000, "bs": 25, "bc": 21, "rs": 23, "rc": 25, "ys": 28, "yc": 25},{"id": "c7bcad67f8f641c58849243285e1a9d8.11", "url": "https://lh3.googleusercontent.com/0R5GIv2baVk09ODFF7JC5Gw6UVJWuqVcay8CNbK-nmbZGaiWON9GJ_rdWDklTNeUDFaMPuunEeHM9qcTZojgZvRn_-SM", "name": "Handstående", "lat": 59.32861100000000, "lon": 18.01655600000000, "bs": 8, "bc": 76, "rs": 11, "rc": 84, "ys": 5, "yc": 60},{"id": "c89a4010005c485ab6df661567fd10f3.16", "url": "https://lh3.googleusercontent.com/76A80DJhHj2HkFpQB4iD-zj7pt8PpY_jDnL0iHVExEDMC0XPo4UWFWE3tqAmWRlG4Drne-jxWfKqZloDZbvJU8oRGP0", "name": "Kvinnoskulptur", "lat": 59.29520700000000, "lon": 18.08978500000000, "bs": 20, "bc": 29, "rs": 15, "rc": 24, "ys": 22, "yc": 35},{"id": "c8c550b8f84a425580effdb6090317a0.16", "url": "https://lh3.googleusercontent.com/xAaV8ChajbiGOX18kbtGKAbKtxuXLCuuLeYwHWxllh8ExPHs2Kt_gWmhqaTlP1cTn-f70ThThiPhcW8hp4eBxiYFbbg", "name": "Garagevägens lekplats", "lat": 59.29343100000000, "lon": 18.09627200000000, "bs": 7, "bc": 87, "rs": 5, "rc": 79, "ys": 8, "yc": 102},{"id": "ca0d0bf3bd14416f933449573ce560ce.16", "url": "https://lh3.googleusercontent.com/BLjWNX0CQm2Xm_lyvnc3ucCtuBcUXqxpYVDpCRtcMyHXvd3LBL7-NzuekecB6_LpsmBFQCZ9OFB-OdWX5qKMDwV8EHc", "name": "Fiskarflickan", "lat": 59.32932100000000, "lon": 18.03939000000000, "bs": 15, "bc": 52, "rs": 5, "rc": 36, "ys": 14, "yc": 60},{"id": "ca3561627ca44b7d9e20bcc1b7313a0c.16", "url": "https://lh3.googleusercontent.com/6jgmcQfM7z8GB7iifPIXZ_OE8Jh6Nb6bVN8DnV7FYJuD3UsjKRTrjuya4NyBH83mKgOL04DdGvd5Y59nUNrj7jBLBfE", "name": "Stockholms Gräns", "lat": 59.26237700000000, "lon": 17.98599600000000, "bs": 18, "bc": 45, "rs": 7, "rc": 9, "ys": 21, "yc": 42},{"id": "ca618f626ce74426ab5ead000bc9e147.11", "url": "https://lh3.googleusercontent.com/a4brQspeHZuzcr5KIOqmx7Wy8mSanjObBiYflqBCNH3q7naJx7RVo6Ts147MeqxTSEbnb5qNLEIo6fcohJAJdhn-bWs", "name": "Arbetaren", "lat": 59.33927300000000, "lon": 18.03974700000000, "bs": 19, "bc": 48, "rs": 11, "rc": 38, "ys": 11, "yc": 47},{"id": "ca80f480f909485dadc7926f3b67ab30.16", "url": "https://lh3.googleusercontent.com/r40XEE1ffXnrg5hgEnPMgfkiIdCTIUD0lOks0epJBoXWDKgWmu3DtQRAil6_jIDOY5zmhO-hmTSz8rTHHOTEnpE_0dYN", "name": "Silverträdet", "lat": 59.34030400000000, "lon": 18.01117000000000, "bs": 10, "bc": 45, "rs": 19, "rc": 55, "ys": 8, "yc": 36},{"id": "cb90c63cda2c491d8f31dbda174ce206.16", "url": "https://lh3.googleusercontent.com/Rh7G5yIXMoQHdnLUzNmrwgEc-Xf--7DxOQz3BkL7mgTCsI2W0wJhOXGOR5zW_7mLGuV9RKRq8uCUKlqMlvDoUe-aBd0", "name": "Globen Stenfigur", "lat": 59.29246600000000, "lon": 18.08301000000000, "bs": 5, "bc": 102, "rs": 7, "rc": 91, "ys": 7, "yc": 85},{"id": "cd2083af4961452b859410188e26d47c.16", "url": "https://lh3.googleusercontent.com/VSMM7rUECLOGd230yLv3dW_5_6PhGiDFNR554Silux1XdDeYkPXqNbaoe3IQf4DVoIL5r2_sgZUFNIEf5hqD7vkdzZI", "name": "Vårflodenparkens Plaskdamm", "lat": 59.28577300000000, "lon": 18.06081200000000, "bs": 16, "bc": 28, "rs": 31, "rc": 32, "ys": 17, "yc": 22},{"id": "d02ecc7e0dd84e38bfcca4f0957b604a.16", "url": "https://lh3.googleusercontent.com/XGGiB1Dwd3H36SfTDBL_VloQ3dGLKRDg_JDurULaP7_hpp0V3kaulB5zsxzp6FzgWB0toZvZoSDMy3KiKKrNo79MzA", "name": "Välkommen till Älvsjöskogen", "lat": 59.26138100000000, "lon": 17.99139800000000, "bs": 23, "bc": 37, "rs": 13, "rc": 6, "ys": 24, "yc": 37},{"id": "d0f6ad651fe44e9584b31e1b308f0757.11", "url": "https://lh3.googleusercontent.com/hNtVyqYeuqvZOetwSta3d9NCKy4CYY_Gi3qqhX-p6ZA1BwV5iBwjCXPVSa2HilkEH2XEUm2H-h_7PNWn70eOJyfKWYg", "name": "Moa Martinsons Torg", "lat": 59.33959200000000, "lon": 18.00524000000000, "bs": 5, "bc": 55, "rs": 4, "rc": 61, "ys": 13, "yc": 95},{"id": "d24195f85a384a2d8f20aee5e6462acc.16", "url": "https://lh3.googleusercontent.com/VbrdLNKTxgCTd_9K2WAPpydmVHsYUuqbh-hOSt1F9aTOszCjEBaxiamXeptJ18jZTrAqL3bqUik2bAlvYHGEvwBnDA", "name": "Gravfält", "lat": 59.27706900000000, "lon": 18.03449600000000, "bs": 24, "bc": 15, "rs": 44, "rc": 19, "ys": 32, "yc": 18},{"id": "d39ccd7dcdc1494aa1cf5293c8b3a1de.16", "url": "https://lh3.googleusercontent.com/gaWDJhSgOGzzRWxfnPp86s8WzW0tE1_Pxfj6oxZi-3EQsoeZaRXf-wNAtLhDclr8hwey16-EWmNSR_BnK94Q7IzKKxE", "name": "Enskede Gård", "lat": 59.28849900000000, "lon": 18.06641900000000, "bs": 4, "bc": 10, "rs": 65, "rc": 26, "ys": 4, "yc": 17},{"id": "d3dd2d58489430589835dc8c5253a067.16", "url": "https://lh3.googleusercontent.com/B0nUgQG9bHHT6_YwjnyXVkW7NYlnJfq42Rk5J8MGXqtiDlyKHxnGYuZ4TCY1n4gxKQ6HyW9CgyDNSvHPKEYnSOnYBblkxV2LLfcWxrW6", "name": "Anslagstavla i Ormkärr", "lat": 59.26192700000000, "lon": 18.00220800000000, "bs": 14, "bc": 40, "rs": 9, "rc": 37, "ys": 17, "yc": 55},{"id": "d4ab3ced724f4b3192ed3bf8125171f0.16", "url": "https://lh3.googleusercontent.com/HfHi-SaMp1HdphWZ7QMZN267_Bd9ufShzrUXsed7AIzqNyS50tjj1z6e8sCPlRmFeo75afTA_fTPkREFvf6-pU0fUg", "name": "Hägerstensåsen T- Bana", "lat": 59.29564900000000, "lon": 17.97938300000000, "bs": 15, "bc": 48, "rs": 12, "rc": 47, "ys": 12, "yc": 45},{"id": "d5e103d76a2d4119b45dcb6de318eefb.16", "url": "https://lh3.googleusercontent.com/q0BEPotjz9LYvI2xInW1eY_zcI1PZTcfxrXpNGAJAY1n6mQXEu2cY1OvEb3ZQ-DFdoTTg_SrB_dZsefbbv4gFCe7LzU", "name": "Ahlgrens Bilar", "lat": 59.34831700000000, "lon": 18.07337900000000, "bs": 15, "bc": 52, "rs": 13, "rc": 44, "ys": 11, "yc": 41},{"id": "d664ab455e534c4b95eb87ebc3e01f75.16", "url": "https://lh3.googleusercontent.com/ZUnDhW3Ts4TxGaRc_6hZaN4z6usf9aMrd3xHC4a2I2nIvYPwIgC9s3KkRwdD1V92RHfeJelVZyTeDWtJkBgl1YTqUG0", "name": "Small house on sticks", "lat": 59.29014900000000, "lon": 17.94488100000000, "bs": 22, "bc": 33, "rs": 32, "rc": 12, "ys": 24, "yc": 31},{"id": "d77a3431917c4b6f9a501cd1a68ee223.16", "url": "https://lh3.googleusercontent.com/PuAZv1tvFybZ2StHupegxhsifeXpEu1NfvmRMzVNSrCVXmckYtxVpgDDHsHCuiZMSWOhCBUIS47FGil-B4mV_R1J_6zU", "name": "Rainbow Statue, Lindhagensplan 1", "lat": 59.33137700000000, "lon": 18.02088300000000, "bs": 22, "bc": 46, "rs": 13, "rc": 36, "ys": 10, "yc": 34},{"id": "d7d320805de94fed9b7abfed45ebcca0.16", "url": "https://lh3.googleusercontent.com/CQ79TAJmsSQNID-oIbnhuwe9okQhNylr4qkpQ-cm3QkIpbHTFFJHCLQqCryj3z6OkAhH8pXFeOOiZvC9CfjCi0JyzwJ-", "name": "Expeditionshuset", "lat": 59.33509600000000, "lon": 18.05153200000000, "bs": 13, "bc": 58, "rs": 8, "rc": 51, "ys": 9, "yc": 65},