[{"id": "03f1c8d21d51452482d03a4b01834ee8.16", "url": "https://lh3.googleusercontent.com/eGLAUZ0pUvlTQ8iFH1bO_aVcfuE5iCxzgZpf_gvie2BkAGi5Zb9I3K7ej18QPdhD8G6BmaAGBwD_mI3fkeGktDimiI8", "name": "Gravfältet Vid Glia", "lat": 59.35010500000000, "lon": 17.93723800000000, "bs": 101, "bc": 7, "rs": 60, "rc": 3, "ys": 64, "yc": 8},{"id": "083d0c11d3c73be4b338241da7c0a16f.16", "url": "https://lh3.googleusercontent.com/DaLIcWuYOwBO7upYIz5XbTfE-PVuZw2onK6pJ5mM9b7f9c7oLSwZWrpPp_Cs8x90UnNyn1oef6nG7SiXk-Wbt-L-f_dIVXXwICKJPZY", "name": "Igelbäcken Gångbro", "lat": 59.41198400000000, "lon": 17.90029500000000, "bs": 222, "bc": 2, "rs": 224, "rc": 3, "ys": 52, "yc": 4},{"id": "0856d78c0ce04c2b93eeba8bb3f29861.16", "url": "https://lh3.googleusercontent.com/ec2M88rCbRzvWB0EWuBfxnUqb48CJwhLiXTK-RPo21fuPm1MTIu2QWHCt6qBPYmK8hJAQ2uH7xSvEmRdiwRssL7B3w", "name": "Växternas Invandring", "lat": 59.33629200000000, "lon": 17.91454800000000, "bs": 78, "bc": 12, "rs": 8, "rc": 8, "ys": 63, "yc": 6},{"id": "0d0ca9874e7848f0978f960666555921.16", "url": "https://lh3.googleusercontent.com/Y9XAeUttcTl2oE66pYmmDZNEqRcAxN9C-s4d2RmP-fsr6ukte5kxESTySiW-0ASNhVW5GmCFAADvUU8PmwApxpQvIUo", "name": "Kärleksstigen", "lat": 59.32789200000000, "lon": 18.13767600000000, "bs": 108, "bc": 8, "rs": 56, "rc": 7, "ys": 10, "yc": 6},{"id": "12425cc63615420aab7e73a002528be6.16", "url": "http://lh3.googleusercontent.com/RDFiDcSuBRxqhvOAbeUpivQPVGHR7Zoj2a-eIuduVboVQr8rJwNtx4t3hQa0C43lzT0Y-o64CRr-fHUYLr2NW-cuflg", "name": "Utescenen", "lat": 59.25536100000000, "lon": 18.03931700000000, "bs": 83, "bc": 7, "rs": 61, "rc": 10, "ys": 21, "yc": 8},{"id": "1989f8e32a6941ebb09ef9604e92f174.16", "url": "https://lh3.googleusercontent.com/aZuVhYJlLmmrDJ-eHZA6pvPpFphhrEq3yVSmNHLq--eQi-VjrcSPUhm8Z3IUg9OpN0vsq3OIL1VI_TndSIysBpZAww", "name": "Venus Milo", "lat": 59.32267800000000, "lon": 18.14487100000000, "bs": 86, "bc": 11, "rs": 26, "rc": 9, "ys": 30, "yc": 6},{"id": "19c73d02858f45b48be42f6ce090948c.16", "url": "https://lh3.googleusercontent.com/0e2M9u9MwRko2t-a_9icshAK4DIOv8CjpTRLbvcxCXI-5BFUeFj729mfFHjyjMvLyPo4q4WB58Y136QSdRFIdBth2Ew", "name": "Fort Lingon", "lat": 59.38708100000000, "lon": 17.80175000000000, "bs": 85, "bc": 15, "rs": 3, "rc": 4, "ys": 8, "yc": 11},{"id": "2392583c7ad24254b662c41a37d3907e.16", "url": "https://lh3.googleusercontent.com/jQRBSo7UcM0FvkW7hXDEWU-ViLIkmzcedGaq5S11LKTINzkhO1xNQ9IpWO3h4Ps8VAfwpO8RdhGFpV-s6e-WAeuo7Q8", "name": "Flaten", "lat": 59.25360300000000, "lon": 18.14551900000000, "bs": 90, "bc": 5, "rs": 95, "rc": 3, "ys": 76, "yc": 8},{"id": "3be79c649e403e85ae632254882ed9f2.16", "url": "https://lh3.googleusercontent.com/-9blLOmCEA6gYNB2K323ZFi4j9-_8DrBfn_oIbpZN9thGhUYJeFvpDuXN0CUUheHJlfTbysaD3wnjYxOBUGeFXyqQWGk0tksLNG6JVYh", "name": "Sätra varv", "lat": 59.29603600000000, "lon": 17.90836800000000, "bs": 0, "bc": 0, "rs": 0, "rc": 0, "ys": 0, "yc": 0},{"id": "3f412eb2a6434ae69cd6b25a25ac28f6.16", "url": "https://lh3.googleusercontent.com/DaAZ1KhLTjUAwxJZ0xxl62B9pAlBtrhe2OwesYuWtnYZanVxUc9ciwKJyXUQKe63Hz7cwaWFJK6IdnafaJmDPaBa_CeO", "name": "Bäckravinen", "lat": 59.24189100000000, "lon": 18.15840000000000, "bs": 126, "bc": 8, "rs": 40, "rc": 6, "ys": 21, "yc": 6},{"id": "5aa4e0d11a6a439791b69b25d8543578.16", "url": "https://lh3.googleusercontent.com/JcaTMkRtN7aVStS4cwJVALEYMHVWgjtTOclE77Qy-7K8J_mXBbVw7ogHRXyY1E2bA-QEE9ZMmxVrqqFgD8UusYv7lBU", "name": "Järva Kilstråk Mitt På Ängen", "lat": 59.39848600000000, "lon": 17.92593900000000, "bs": 87, "bc": 5, "rs": 196, "rc": 1, "ys": 153, "yc": 5},{"id": "5b3db887f8064b7281d0cff36326bfb3.16", "url": "https://lh3.googleusercontent.com/yBPaqlgzrx0cK4T0Cxw4N6e1k_fk7w_5bMPdao22Fs8Q-TN6jX86wJrZDnts5YUMLD2VFoK7pqMwfWt1qGhnifkjOmXD", "name": "Skärholmens Gårds fontänstaty", "lat": 59.28334000000000, "lon": 17.88904900000000, "bs": 91, "bc": 11, "rs": 32, "rc": 10, "ys": 5, "yc": 3},{"id": "5cf2bb1ae6e545ba9b033a4928a90948.16", "url": "http://lh3.googleusercontent.com/bYS2e_uF3Incs4qoBjzLseqdssL2xPlTn32c0nCzfSX1UpL3jLMZ5RrA0wzLkTd0uEc0-YUomZaE111TSHCBF7NIjw", "name": "Old Skijump Tower", "lat": 59.35894000000000, "lon": 18.07629000000000, "bs": 0, "bc": 0, "rs": 156, "rc": 3, "ys": 377, "yc": 2},{"id": "747b5d6ef8ea34d09ac8ab6fbd8355b0.16", "url": "https://lh3.googleusercontent.com/zJpe024yeRhW7ag4edUC1Vu5YQulcYdw-kwVgSPNaM7q-WPz6dNhStPNmDULdy5qmZGJmQVgG5Dzg46hUjvq2JV4tPKKSSHDuVkHrSpr", "name": "Vägvisare Drevvikens Strandstig", "lat": 59.24046300000000, "lon": 18.15304700000000, "bs": 140, "bc": 1, "rs": 46, "rc": 1, "ys": 362, "yc": 3},{"id": "77054e0c79a631519508f01834fc5934.16", "url": "https://lh3.googleusercontent.com/gQTtdxkV3BP48iI6Iz1WccVlBXP0hDFpZZu0keRhg-YxP3hUYRKQFdnDIuVz-4oYgOi4BmnxoT__5G1MZwYWVhGUoro4zN6fvOit1Z4J", "name": "Bromsten sport field", "lat": 59.38033400000000, "lon": 17.92779800000000, "bs": 87, "bc": 9, "rs": 65, "rc": 4, "ys": 85, "yc": 4},{"id": "77d1835b30ce4ef08566580d60273a72.16", "url": "https://lh3.googleusercontent.com/f69w_lVchNuSoOXFCBciqQ7PqY9knMXeA_GxSYBJ4qRq4A9ilfldNH3j1tHV9j_5R5IPEi2b7vrkCNm5tdDDjm9QqQ", "name": "Giraffkran", "lat": 59.32020600000000, "lon": 18.09871400000000, "bs": 85, "bc": 7, "rs": 26, "rc": 4, "ys": 76, "yc": 9},{"id": "7cc3a1cfa78341dbb02b42249b3599dd.16", "url": "http://lh3.googleusercontent.com/F-D4Py9DAdrin1Ote8Uug1TbnomqIP1mIhzWiLqsFZ--UT9Sr4qTVG1HnTfpKFXZTrrWJhIAig_Jg-z72wHSil6u20c", "name": "Boplats & Gravfält", "lat": 59.42570800000000, "lon": 17.90097000000000, "bs": 0, "bc": 0, "rs": 0, "rc": 0, "ys": 1077, "yc": 1},{"id": "8578e7f6752032be97e19a9e065f5f6d.16", "url": "https://lh3.googleusercontent.com/e9N_4WILNx9Is9V8ymbFcAMNDXf2jlVY0Xbz8JrfPRmTXMnzwTlFETlnDFyEvzp50PRZ_7QsNOHWQBCC08yGerAzzbvVfT7DAVDLd4sgRg", "name": "Sälg", "lat": 59.33155000000000, "lon": 18.15168200000000, "bs": 127, "bc": 5, "rs": 91, "rc": 5, "ys": 0, "yc": 0},{"id": "871ad7901af543169641aa5fdf1fe0da.16", "url": "https://lh3.googleusercontent.com/xOuVgZ9OsIZv6CnMF4VdVfBo_zxMiPe8xZaGUHmW65phXyNet23x07LCsi7fKDYePAC7mzyEGLRxrpjmdEZoNNRIRg", "name": "Hipp Hipp Hurra", "lat": 59.32011600000000, "lon": 18.11435600000000, "bs": 102, "bc": 8, "rs": 44, "rc": 4, "ys": 66, "yc": 5},{"id": "8a98b183f64e4a6b883c5628eaf2dd79.16", "url": "https://lh3.googleusercontent.com/GW8P24E-QGux5K_HCpSGsS-ja6fVGmjw9ODwnIy9_4BkEdgLWgzI7ngCKVz3d2Ug_CtVH-10XLz4zT1FvGGgdcfgWvfM", "name": "Häradsvägen", "lat": 59.42488600000000, "lon": 17.90616500000000, "bs": 94, "bc": 5, "rs": 48, "rc": 5, "ys": 88, "yc": 7},{"id": "926a91b25a383c2d93a1c7daa32a1002.16", "url": "https://lh3.googleusercontent.com/zyNpYGcPD5hZRWBZDyrimNA_bjUbcUIUVKGYLyXmlxtNp2dX8eAx50QhrH_Y3PDKMA1GgvFUL_B-tYNQCMwmJ7tI3qlMqnatwONsHCQy", "name": "Lilla Skuggan", "lat": 59.36704300000000, "lon": 18.08932900000000, "bs": 69, "bc": 5, "rs": 66, "rc": 6, "ys": 0, "yc": 0},{"id": "96d2f00553774372ac2e741fb536759b.16", "url": "https://lh3.googleusercontent.com/FVavZ3PsCHtvSZGX1eRee3WXVY-RGrzvztk3HCUKPVliB0Yev6KEcNo6fGzTUIcVwGTmXSTsTplQRBK-1Es16CXMdN9w", "name": "Tusculum", "lat": 59.28301400000000, "lon": 17.88327400000000, "bs": 912, "bc": 1, "rs": 198, "rc": 2, "ys": 19, "yc": 2},{"id": "99d7f88b869b4ef5b254bc747eb7d53d.16", "url": "https://lh3.googleusercontent.com/-T-ZXMUQnr-3icfZNLA_JHhrFfhao1RnV4Q5B1sZ5IAhrsWtEKaT2B9QOUYvPUsv3M85ZbmPFFs9ZuBmWnb_h3260HfZ", "name": "Husby gravfält", "lat": 59.40789100000000, "lon": 17.91643500000000, "bs": 99, "bc": 11, "rs": 12, "rc": 8, "ys": 27, "yc": 5},{"id": "9e6049c4c1fc4eb6b1a61bfa07d8b9ea.16", "url": "https://lh3.googleusercontent.com/7uJsij7ob7d5xJx1TKNPpueiQ8Y7vFYA-SB0f1vxNOsDGwWMK6X426Lxlfy-geRzLTz1B917S9171rf_XmF06ooMYfI", "name": "Two Horsemen Without Men", "lat": 59.27632500000000, "lon": 17.88521000000000, "bs": 86, "bc": 9, "rs": 28, "rc": 8, "ys": 54, "yc": 6},{"id": "a399708db69e4cbb89d1bd532a08bf31.16", "url": "https://lh3.googleusercontent.com/bbi2R2MVq2qvmkEDZeTkMUF-8RqWEWX-oyWg9DJ2enqUOyxe77D8OBjiKaoeamVtaG9ndvRkBfLdDS_hnUxpdU_Qgw", "name": "Concrete Artwork", "lat": 59.33493000000000, "lon": 18.13549700000000, "bs": 103, "bc": 8, "rs": 77, "rc": 7, "ys": 9, "yc": 3},{"id": "b025a6111395416580ce370f64dd7164.16", "url": "https://lh3.googleusercontent.com/W1MOyMp_HMxqVciZFqHoK0X86MqYJWQ84jlwiQxmIJFZvRrlv5ELxjt7S6YHWWq8tpSS9xwrEt1zMPYMnPgr1qXTp3E", "name": "Laxholmsbacken Lekplats och Sandlåda", "lat": 59.27394400000000, "lon": 17.87512100000000, "bs": 82, "bc": 10, "rs": 44, "rc": 10, "ys": 32, "yc": 4},{"id": "b5329485d09839f7b0203140cf1898a0.16", "url": "https://lh3.googleusercontent.com/xBZeie5XiAYmEp_DLCY446HDlFU37km8-cA2sDizqAt-K3PpjPXpP-L4yP4fVqIQNyWX2luzAoKSglRBZZGX539j_ym7n5W4lJJDSBVYfQ", "name": "Ärvinge Groddamm", "lat": 59.39665600000000, "lon": 17.93159800000000, "bs": 123, "bc": 6, "rs": 104, "rc": 5, "ys": 23, "yc": 3},{"id": "b7e99fb3c56a36429a24ee44e39b0b63.16", "url": "https://lh3.googleusercontent.com/OKPz8pUGERQYmGyS-_vRWLJXUCCx0AZFIuEm_7Gx6wu0LtOT-zxGzZd9EYe3OIvZC8FvY2eoEJEhVtNzEQ69nDtXryGmkumtzaridC0", "name": "Lekparken i skrubba koloniområde", "lat": 59.24370500000000, "lon": 18.17930700000000, "bs": 97, "bc": 6, "rs": 71, "rc": 5, "ys": 35, "yc": 3},{"id": "c25a88bab36b467faeca9e382981a2b0.16", "url": "https://lh3.googleusercontent.com/34u18hz0HTcKS96zAN4AWxYw-_fzSXI1YIzCbIoramUv1wkUX2jSsj2o8cjbH_hFdApVJbJ8hYmFBFKHfchPk4VgewI", "name": "Minneslund", "lat": 59.23528500000000, "lon": 18.18519700000000, "bs": 92, "bc": 2, "rs": 354, "rc": 2, "ys": 267, "yc": 1},{"id": "c6e05e02159a46dcb8df0c70f325410d.16", "url": "https://lh3.googleusercontent.com/krxSlffkHfnzg5JlOiJNdLreJ1Q_jiYg3HV8hk-tGFzaj_rKVJstqjyXRSkcfE7cVofuATH7uTr68JQD3xCcFTFiJq8j", "name": "Frihetens Port", "lat": 59.32203700000000, "lon": 18.13347700000000, "bs": 157, "bc": 6, "rs": 64, "rc": 5, "ys": 24, "yc": 3},{"id": "c9c90714dde5343289e005f74e5e24eb.16", "url": "https://lh3.googleusercontent.com/ZQ9ObJPMem8Pw1VRFGCq6NcTQcKufphsEhJFqY4qj8vHVWrmPpN2A21-1Izdw7GkrniWyQi6iMtYwqePgr4b_dv8cZk", "name": "Lekplats", "lat": 59.38020200000000, "lon": 17.86724000000000, "bs": 159, "bc": 7, "rs": 9, "rc": 4, "ys": 13, "yc": 2},{"id": "d47af58a1a11441f9b579b599c43a6bf.16", "url": "https://lh3.googleusercontent.com/aUyStNjdxU8O6Yyny14mZ_J56NmaZDxeuoHSMAZifkck4QMG_XRH35p8KcHCwCvVrskCiNZLrPbMab0fZ6OpitkYc0A", "name": "Gebers Totempåle", "lat": 59.24444800000000, "lon": 18.13714700000000, "bs": 0, "bc": 0, "rs": 1029, "rc": 1, "ys": 0, "yc": 0},{"id": "e46aa3e11c394acf81f852ded43b5dd1.11", "url": "https://lh3.googleusercontent.com/D5ac7cO9QRXlDZ1RY2OUDaekztUJm8-HwUV3sUt7U6s1t4Hi58_yNZuExQwd_XG6U5PdP5k72TZhEx844lbWxWsWG1o", "name": "Solvalla Radartorn", "lat": 59.36340000000000, "lon": 17.93775200000000, "bs": 1012, "bc": 1, "rs": 0, "rc": 0, "ys": 142, "yc": 1},{"id": "e5ecf7cf594e40ab9210cddb16bf7dbc.16", "url": "http://lh3.googleusercontent.com/FWbdXtSRU9_fA28SNJzYlg2FzTggjWiI48H2A-YR2mshs9heL-t50cJA-Wy6dnSuVKhG2zC-BIAq9ADM1wVOAhmG3jU", "name": "Playground at Varpholmsgränd", "lat": 59.28015500000000, "lon": 17.89643100000000, "bs": 79, "bc": 10, "rs": 29, "rc": 10, "ys": 27, "yc": 8},{"id": "e6ffc166ba67417db27ed47ea31beef5.16", "url": "https://lh3.googleusercontent.com/J1d4F-0KuquZVBJ2fAyMK4DgYsRbayKafURRjg_B8zgdzpe8_nzf743dV5yYCLlqdi-It4aAaWyff5McAn1ZeK_VCEo", "name": "Padelverket", "lat": 59.27280500000000, "lon": 18.00438200000000, "bs": 88, "bc": 8, "rs": 72, "rc": 6, "ys": 40, "yc": 6},{"id": "f5be0b4c56554ab2ac4ac07e139133b3.16", "url": "https://lh3.googleusercontent.com/65wnT8PJUJZe5U3ZAkl4xJ12XM1cAI6u7g1kt3nq1stNSKwbFEhzemWZra_vSs5v_6i7R2_5Kx65eDtLdZNZLhtwFGw", "name": "Johannesdals Gård", "lat": 59.27841100000000, "lon": 17.87351100000000, "bs": 169, "bc": 6, "rs": 43, "rc": 3, "ys": 57, "yc": 4},{"id": "fbc7d1f91b7244c8aee0a9e921c91819.16", "url": "https://lh3.googleusercontent.com/4reAOMM8mjfb_L-t6hFFd3n0v6vAXqsD4_OfQgj24gRYXmdegYij5rYWacr2SKL8y2mBK061JU4JJWI85A59asN9z54", "name": "Runstenen i Eneby", "lat": 59.35928000000000, "lon": 17.91240800000000, "bs": 94, "bc": 9, "rs": 55, "rc": 8, "ys": 59, "yc": 2},{"id": "fe64dfc0492f4dc58da2bc53ea7af12b.16", "url": "https://lh3.googleusercontent.com/UpQg5HNVPsCFM-epL2VGaO8EDhlWej2RJJ2rRQBS4C-a1heK_Mp8I-BkahFgr1nM4oIrwiWlATfwmac5QOTxT0EwGw", "name": "Stekelhotell", "lat": 59.34860900000000, "lon": 17.93218800000000, "bs": 334, "bc": 2, "rs": 301, "rc": 2, "ys": 142, "yc": 1}]
