[{"id": "03f1c8d21d51452482d03a4b01834ee8.16", "url": "https://lh3.googleusercontent.com/eGLAUZ0pUvlTQ8iFH1bO_aVcfuE5iCxzgZpf_gvie2BkAGi5Zb9I3K7ej18QPdhD8G6BmaAGBwD_mI3fkeGktDimiI8", "name": "Gravfältet Vid Glia", "lat": 59.35010500000000, "lon": 17.93723800000000, "bs": 101, "bc": 7, "rs": 60, "rc": 3, "ys": 64, "yc": 8},{"id": "05a6dd2338d8424cb63af726329147dd.16", "url": "https://lh3.googleusercontent.com/q80PgeGuYejHG3RzqhyOC9-ok8jco_swIExCKLGTYMhppC8y5BTVxZI63L7uyF8xw97YOis2LiTQ3UqH1j-1eSfFRHU", "name": "Fladder", "lat": 59.27125300000000, "lon": 17.89694700000000, "bs": 83, "bc": 12, "rs": 33, "rc": 4, "ys": 24, "yc": 12},{"id": "083d0c11d3c73be4b338241da7c0a16f.16", "url": "https://lh3.googleusercontent.com/DaLIcWuYOwBO7upYIz5XbTfE-PVuZw2onK6pJ5mM9b7f9c7oLSwZWrpPp_Cs8x90UnNyn1oef6nG7SiXk-Wbt-L-f_dIVXXwICKJPZY", "name": "Igelbäcken Gångbro", "lat": 59.41198400000000, "lon": 17.90029500000000, "bs": 222, "bc": 2, "rs": 224, "rc": 3, "ys": 52, "yc": 4},{"id": "0856d78c0ce04c2b93eeba8bb3f29861.16", "url": "https://lh3.googleusercontent.com/ec2M88rCbRzvWB0EWuBfxnUqb48CJwhLiXTK-RPo21fuPm1MTIu2QWHCt6qBPYmK8hJAQ2uH7xSvEmRdiwRssL7B3w", "name": "Växternas Invandring", "lat": 59.33629200000000, "lon": 17.91454800000000, "bs": 78, "bc": 12, "rs": 8, "rc": 8, "ys": 63, "yc": 6},{"id": "0aee7ba86a2445e997805a1a00500dbd.16", "url": "https://lh3.googleusercontent.com/NHRl8RbmyuinYut0EvpdtFE1mei9ZSWH1qQp6oPlyGAaKuswpGupZrJoU1HMIDg0-RY1HJ0zaAmJSY4qHj6FBugPOdk", "name": "Posing Cat", "lat": 59.34283400000000, "lon": 17.90778500000000, "bs": 92, "bc": 13, "rs": 20, "rc": 9, "ys": 9, "yc": 7},{"id": "0d0ca9874e7848f0978f960666555921.16", "url": "https://lh3.googleusercontent.com/Y9XAeUttcTl2oE66pYmmDZNEqRcAxN9C-s4d2RmP-fsr6ukte5kxESTySiW-0ASNhVW5GmCFAADvUU8PmwApxpQvIUo", "name": "Kärleksstigen", "lat": 59.32789200000000, "lon": 18.13767600000000, "bs": 108, "bc": 8, "rs": 56, "rc": 7, "ys": 10, "yc": 6},{"id": "19c73d02858f45b48be42f6ce090948c.16", "url": "https://lh3.googleusercontent.com/0e2M9u9MwRko2t-a_9icshAK4DIOv8CjpTRLbvcxCXI-5BFUeFj729mfFHjyjMvLyPo4q4WB58Y136QSdRFIdBth2Ew", "name": "Fort Lingon", "lat": 59.38708100000000, "lon": 17.80175000000000, "bs": 85, "bc": 15, "rs": 3, "rc": 4, "ys": 8, "yc": 11},{"id": "1ea641a2a548463fb424a005cf82686d.16", "url": "https://lh3.googleusercontent.com/tDi56_iu6sOyN3GBfRT47LiVqxoxeQk3RM3DOW1VewniLXgIvaeZTXMsv-tK0e2-EYTtQHVN_21_njoeFhLbQk5Wv4M", "name": "Bahnhof Mobile Server Hall", "lat": 59.40973600000000, "lon": 17.95283700000000, "bs": 205, "bc": 6, "rs": 31, "rc": 4, "ys": 35, "yc": 2},{"id": "2392583c7ad24254b662c41a37d3907e.16", "url": "https://lh3.googleusercontent.com/jQRBSo7UcM0FvkW7hXDEWU-ViLIkmzcedGaq5S11LKTINzkhO1xNQ9IpWO3h4Ps8VAfwpO8RdhGFpV-s6e-WAeuo7Q8", "name": "Flaten", "lat": 59.25360300000000, "lon": 18.14551900000000, "bs": 90, "bc": 5, "rs": 95, "rc": 3, "ys": 76, "yc": 8},{"id": "29ce21c928ae4958960028a23491c1b5.16", "url": "https://lh3.googleusercontent.com/eI9GkVuHMVWpcbBRmiFM4t6nuotMIRF34KL8xDdzlxBoCBPx43MOococL6C0vC_bDGAZqeCpKZkJkLO2iv8obOQhxQc", "name": "Gravfält Flysta", "lat": 59.36499000000000, "lon": 17.90753600000000, "bs": 104, "bc": 9, "rs": 31, "rc": 4, "ys": 29, "yc": 9},{"id": "38a7e51cc6ba4cd883c56e3805b8b90e.16", "url": "https://lh3.googleusercontent.com/TFol29rwpGLeBqY8ZjYxCn7s1-_hsMG4CIcx4Gf9hXrR55a3bXcnXDtg8yttejtGRYlVxZ6wnRNPue4PJ7TqfTP31Ok", "name": "Vattentorn vid Fagersjötoppen", "lat": 59.25370000000000, "lon": 18.06341300000000, "bs": 475, "bc": 2, "rs": 241, "rc": 1, "ys": 75, "yc": 3},{"id": "3f412eb2a6434ae69cd6b25a25ac28f6.16", "url": "https://lh3.googleusercontent.com/DaAZ1KhLTjUAwxJZ0xxl62B9pAlBtrhe2OwesYuWtnYZanVxUc9ciwKJyXUQKe63Hz7cwaWFJK6IdnafaJmDPaBa_CeO", "name": "Bäckravinen", "lat": 59.24189100000000, "lon": 18.15840000000000, "bs": 126, "bc": 8, "rs": 40, "rc": 6, "ys": 21, "yc": 6},{"id": "43db512fa8734a95b32c4c8a64e7e5a4.16", "url": "https://lh3.googleusercontent.com/S819Z4gMQeZ90yVCKy1XAao-SUFb4FLOqbZYZOSoI2tpbnaxl-pSAhbgNZCWBztElqxMH5GIodT59FXZQ1F-9qv2qaY", "name": "Old Windmill", "lat": 59.32000300000000, "lon": 18.11603900000000, "bs": 264, "bc": 4, "rs": 26, "rc": 1, "ys": 90, "yc": 4},{"id": "5aa4e0d11a6a439791b69b25d8543578.16", "url": "https://lh3.googleusercontent.com/JcaTMkRtN7aVStS4cwJVALEYMHVWgjtTOclE77Qy-7K8J_mXBbVw7ogHRXyY1E2bA-QEE9ZMmxVrqqFgD8UusYv7lBU", "name": "Järva Kilstråk Mitt På Ängen", "lat": 59.39848600000000, "lon": 17.92593900000000, "bs": 87, "bc": 5, "rs": 196, "rc": 1, "ys": 153, "yc": 5},{"id": "5b3db887f8064b7281d0cff36326bfb3.16", "url": "https://lh3.googleusercontent.com/yBPaqlgzrx0cK4T0Cxw4N6e1k_fk7w_5bMPdao22Fs8Q-TN6jX86wJrZDnts5YUMLD2VFoK7pqMwfWt1qGhnifkjOmXD", "name": "Skärholmens Gårds fontänstaty", "lat": 59.28334000000000, "lon": 17.88904900000000, "bs": 91, "bc": 11, "rs": 32, "rc": 10, "ys": 5, "yc": 3},{"id": "5cf2bb1ae6e545ba9b033a4928a90948.16", "url": "http://lh3.googleusercontent.com/bYS2e_uF3Incs4qoBjzLseqdssL2xPlTn32c0nCzfSX1UpL3jLMZ5RrA0wzLkTd0uEc0-YUomZaE111TSHCBF7NIjw", "name": "Old Skijump Tower", "lat": 59.35894000000000, "lon": 18.07629000000000, "bs": 0, "bc": 0, "rs": 156, "rc": 3, "ys": 377, "yc": 2},{"id": "77054e0c79a631519508f01834fc5934.16", "url": "https://lh3.googleusercontent.com/gQTtdxkV3BP48iI6Iz1WccVlBXP0hDFpZZu0keRhg-YxP3hUYRKQFdnDIuVz-4oYgOi4BmnxoT__5G1MZwYWVhGUoro4zN6fvOit1Z4J", "name": "Bromsten sport field", "lat": 59.38033400000000, "lon": 17.92779800000000, "bs": 87, "bc": 9, "rs": 65, "rc": 4, "ys": 85, "yc": 4},{"id": "7cc3a1cfa78341dbb02b42249b3599dd.16", "url": "http://lh3.googleusercontent.com/F-D4Py9DAdrin1Ote8Uug1TbnomqIP1mIhzWiLqsFZ--UT9Sr4qTVG1HnTfpKFXZTrrWJhIAig_Jg-z72wHSil6u20c", "name": "Boplats & Gravfält", "lat": 59.42570800000000, "lon": 17.90097000000000, "bs": 0, "bc": 0, "rs": 0, "rc": 0, "ys": 1077, "yc": 1},{"id": "8578e7f6752032be97e19a9e065f5f6d.16", "url": "https://lh3.googleusercontent.com/e9N_4WILNx9Is9V8ymbFcAMNDXf2jlVY0Xbz8JrfPRmTXMnzwTlFETlnDFyEvzp50PRZ_7QsNOHWQBCC08yGerAzzbvVfT7DAVDLd4sgRg", "name": "Sälg", "lat": 59.33155000000000, "lon": 18.15168200000000, "bs": 127, "bc": 5, "rs": 91, "rc": 5, "ys": 0, "yc": 0},{"id": "886d889ab08944368fc68d2e73d6050a.16", "url": "https://lh3.googleusercontent.com/NIOyLXPiWlXR4AbJTr984ZSQZl2gLXT9zMtflR-MafPv-pIAcr6PYfaYViaw3IoLhmOItoKpCdgphETft8Q0X3COSA", "name": "Sätra Reservoaren", "lat": 59.28951200000000, "lon": 17.90532200000000, "bs": 439, "bc": 3, "rs": 31, "rc": 3, "ys": 0, "yc": 0},{"id": "8a98b183f64e4a6b883c5628eaf2dd79.16", "url": "https://lh3.googleusercontent.com/GW8P24E-QGux5K_HCpSGsS-ja6fVGmjw9ODwnIy9_4BkEdgLWgzI7ngCKVz3d2Ug_CtVH-10XLz4zT1FvGGgdcfgWvfM", "name": "Häradsvägen", "lat": 59.42488600000000, "lon": 17.90616500000000, "bs": 94, "bc": 5, "rs": 48, "rc": 5, "ys": 88, "yc": 7},{"id": "926a91b25a383c2d93a1c7daa32a1002.16", "url": "https://lh3.googleusercontent.com/zyNpYGcPD5hZRWBZDyrimNA_bjUbcUIUVKGYLyXmlxtNp2dX8eAx50QhrH_Y3PDKMA1GgvFUL_B-tYNQCMwmJ7tI3qlMqnatwONsHCQy", "name": "Lilla Skuggan", "lat": 59.36704300000000, "lon": 18.08932900000000, "bs": 69, "bc": 5, "rs": 66, "rc": 6, "ys": 0, "yc": 0},{"id": "96d2f00553774372ac2e741fb536759b.16", "url": "https://lh3.googleusercontent.com/FVavZ3PsCHtvSZGX1eRee3WXVY-RGrzvztk3HCUKPVliB0Yev6KEcNo6fGzTUIcVwGTmXSTsTplQRBK-1Es16CXMdN9w", "name": "Tusculum", "lat": 59.28301400000000, "lon": 17.88327400000000, "bs": 912, "bc": 1, "rs": 198, "rc": 2, "ys": 19, "yc": 2},{"id": "99d7f88b869b4ef5b254bc747eb7d53d.16", "url": "https://lh3.googleusercontent.com/-T-ZXMUQnr-3icfZNLA_JHhrFfhao1RnV4Q5B1sZ5IAhrsWtEKaT2B9QOUYvPUsv3M85ZbmPFFs9ZuBmWnb_h3260HfZ", "name": "Husby gravfält", "lat": 59.40789100000000, "lon": 17.91643500000000, "bs": 99, "bc": 11, "rs": 12, "rc": 8, "ys": 27, "yc": 5},{"id": "a399708db69e4cbb89d1bd532a08bf31.16", "url": "https://lh3.googleusercontent.com/bbi2R2MVq2qvmkEDZeTkMUF-8RqWEWX-oyWg9DJ2enqUOyxe77D8OBjiKaoeamVtaG9ndvRkBfLdDS_hnUxpdU_Qgw", "name": "Concrete Artwork", "lat": 59.33493000000000, "lon": 18.13549700000000, "bs": 103, "bc": 8, "rs": 77, "rc": 7, "ys": 9, "yc": 3},{"id": "b5329485d09839f7b0203140cf1898a0.16", "url": "https://lh3.googleusercontent.com/xBZeie5XiAYmEp_DLCY446HDlFU37km8-cA2sDizqAt-K3PpjPXpP-L4yP4fVqIQNyWX2luzAoKSglRBZZGX539j_ym7n5W4lJJDSBVYfQ", "name": "Ärvinge Groddamm", "lat": 59.39665600000000, "lon": 17.93159800000000, "bs": 123, "bc": 6, "rs": 104, "rc": 5, "ys": 23, "yc": 3},{"id": "b7e99fb3c56a36429a24ee44e39b0b63.16", "url": "https://lh3.googleusercontent.com/OKPz8pUGERQYmGyS-_vRWLJXUCCx0AZFIuEm_7Gx6wu0LtOT-zxGzZd9EYe3OIvZC8FvY2eoEJEhVtNzEQ69nDtXryGmkumtzaridC0", "name": "Lekparken i skrubba koloniområde", "lat": 59.24370500000000, "lon": 18.17930700000000, "bs": 97, "bc": 6, "rs": 71, "rc": 5, "ys": 35, "yc": 3},{"id": "c25a88bab36b467faeca9e382981a2b0.16", "url": "https://lh3.googleusercontent.com/34u18hz0HTcKS96zAN4AWxYw-_fzSXI1YIzCbIoramUv1wkUX2jSsj2o8cjbH_hFdApVJbJ8hYmFBFKHfchPk4VgewI", "name": "Minneslund", "lat": 59.23528500000000, "lon": 18.18519700000000, "bs": 92, "bc": 2, "rs": 354, "rc": 2, "ys": 267, "yc": 1},{"id": "c6e05e02159a46dcb8df0c70f325410d.16", "url": "https://lh3.googleusercontent.com/krxSlffkHfnzg5JlOiJNdLreJ1Q_jiYg3HV8hk-tGFzaj_rKVJstqjyXRSkcfE7cVofuATH7uTr68JQD3xCcFTFiJq8j", "name": "Frihetens Port", "lat": 59.32203700000000, "lon": 18.13347700000000, "bs": 157, "bc": 6, "rs": 64, "rc": 5, "ys": 24, "yc": 3},{"id": "d47af58a1a11441f9b579b599c43a6bf.16", "url": "https://lh3.googleusercontent.com/aUyStNjdxU8O6Yyny14mZ_J56NmaZDxeuoHSMAZifkck4QMG_XRH35p8KcHCwCvVrskCiNZLrPbMab0fZ6OpitkYc0A", "name": "Gebers Totempåle", "lat": 59.24444800000000, "lon": 18.13714700000000, "bs": 0, "bc": 0, "rs": 1029, "rc": 1, "ys": 0, "yc": 0},{"id": "e5ecf7cf594e40ab9210cddb16bf7dbc.16", "url": "http://lh3.googleusercontent.com/FWbdXtSRU9_fA28SNJzYlg2FzTggjWiI48H2A-YR2mshs9heL-t50cJA-Wy6dnSuVKhG2zC-BIAq9ADM1wVOAhmG3jU", "name": "Playground at Varpholmsgränd", "lat": 59.28015500000000, "lon": 17.89643100000000, "bs": 79, "bc": 10, "rs": 29, "rc": 10, "ys": 27, "yc": 8},{"id": "e9d3330f7c0c4335b80655085c1ec661.16", "url": "https://lh3.googleusercontent.com/z9bcz5jWOPRi7OHzC7IJgiNWiQgkHwzOAGav7QTQVD7A4NjXLgpkrbWWdq68r9cX4p-6TnLmjbF8Z6Xk_WI1xTtMyK8", "name": "Den Blå Älgen", "lat": 59.37135000000000, "lon": 17.83975400000000, "bs": 88, "bc": 15, "rs": 9, "rc": 9, "ys": 5, "yc": 6},{"id": "ea5b183f004a4643b4aac2696128168f.16", "url": "https://lh3.googleusercontent.com/SSL7AtNvFfi_l96R7fQTwYhnQ8-ho1vLLPk7dGmpLFJHqIrPan0slHFUHCt1Dn8OqqPQ8NyYRXryvgrLGcJB5OUOzHs", "name": "Landskapet", "lat": 59.24703200000000, "lon": 18.14641300000000, "bs": 56, "bc": 5, "rs": 69, "rc": 7, "ys": 96, "yc": 5},{"id": "f0563367171b412c82b4ea867bdb2132.11", "url": "https://lh3.googleusercontent.com/Aysgt4vpBLvFkjnRLkTw7GDW6m7Iw_lIRVOll-mD8ZqEqLLhuG_AdZZSNesYxGhYiXQ7XW1pr_xs0XsM7OfmHmqV0Q", "name": "Åsnan", "lat": 59.40667600000000, "lon": 17.92021000000000, "bs": 81, "bc": 11, "rs": 49, "rc": 8, "ys": 22, "yc": 7}]
