[{"id": "03a8d0f6820c45a799f30353121201b7.16", "url": "https://lh3.googleusercontent.com/yFVM9r-hjRHQcoLw3IwujKXZTOkuvQrd5oNNEuh2AR7VLatYsKY_fqGOfjwUNeiMcTRZ3A7zANowhHqb05QVkpeRKPA", "name": "Boplats Vid Ängen", "lat": 59.24429800000000, "lon": 18.14186400000000, "bs": 0, "bc": 0, "rs": 291, "rc": 1, "ys": 0, "yc": 0},{"id": "07bc172c8ca04496aaad629d6b429963.16", "url": "http://lh3.googleusercontent.com/TS_EPheUYi4qenMi0MpQg_us6xlpO01xY3u1Z_cQWz5-dJ_MOUrkx1r8JLmkzyf4nnj_ibiwY6LWxHXgskXMue5JM7w", "name": "Enskede Gårds Koloniträdgårdar", "lat": 59.28959200000000, "lon": 18.06462900000000, "bs": 4, "bc": 11, "rs": 52, "rc": 21, "ys": 4, "yc": 14},{"id": "09d689d9a3e04f9aa5914a4a4e84ef13.16", "url": "https://lh3.googleusercontent.com/MiV5yC5pwbGIHiZROeC8o-fJ_6dlJlS6Eue3xgtJttvNb4RoNOrxS5B1AlyiD2aa7kDkH2q9G0hKBSgoqwlek1iYEOG_", "name": "Gärdet Subway Station Elevator Entrance", "lat": 59.34692300000000, "lon": 18.09969500000000, "bs": 5, "bc": 3, "rs": 2, "rc": 4, "ys": 5, "yc": 5},{"id": "09e21b7317604bdcb9840cfcf02767be.16", "url": "https://lh3.googleusercontent.com/qo_0GTkMNvCCw92-w-H7m0V8ZZlXOYezxtCpxHy8yYMREbc5Q-RhNojFLHXrFwhieWpEFBby0hB4q1uM7io1kCmKEkWo", "name": "Varning för stora barn", "lat": 59.30292400000000, "lon": 18.09168700000000, "bs": 3, "bc": 26, "rs": 28, "rc": 38, "ys": 7, "yc": 19},{"id": "0efb8f282d8e4dff9c23445828520bf5.16", "url": "https://lh3.googleusercontent.com/8FhsDREJBnL6Y4GCD88Eo4sUMVrkTmfA-bT6-oNdDzOVbk970BIsVWbR9vvVRs6jQ3puGAT6bTFS-w2UDM4bOqei2cU", "name": "Stegrande Häst", "lat": 59.38181200000000, "lon": 17.81071600000000, "bs": 3, "bc": 28, "rs": 5, "rc": 27, "ys": 22, "yc": 49},{"id": "107ceeef083146b09c773ff7c413e782.16", "url": "https://lh3.googleusercontent.com/YDitM8kGt3eXgVh_0JK_RlE3qhQ6aw9Y1tZ3rwtiUjiFwvmOxc0m2NKqWaIy-iMDSKk-6j2Vhjw7cuOWMxdOtFSqRMp5", "name": "Rinkerhövdingen", "lat": 59.38452500000000, "lon": 17.93146200000000, "bs": 4, "bc": 12, "rs": 25, "rc": 31, "ys": 13, "yc": 35},{"id": "20c47396fad3459fbf2888f52a675ccc.16", "url": "https://lh3.googleusercontent.com/hIwvfYK2YAuPssoVagMoLOU4LcakDOzHNFIZ3k4tHCHY0TXbT7S7u0va_Iz9qoKgZjr20sf4F32OURPdwgtyJvj7aeh2vmeblIq7VsDnLg", "name": "Tigers", "lat": 59.28374900000000, "lon": 18.04247000000000, "bs": 4, "bc": 49, "rs": 15, "rc": 66, "ys": 3, "yc": 38},{"id": "2457be009ae2457cab42693e96a150a6.16", "url": "http://lh3.googleusercontent.com/EwJJMJQGcbx6eHtQLxxbOdEdJmLuhHUmD5NAfn-LgVX1cYph2p_2UKZjAjUI2RdkdfUFkohaCWk0UR2qPgVW8Dhfhn4", "name": "Lekplats Ekebergabacken", "lat": 59.24974600000000, "lon": 18.10285700000000, "bs": 3, "bc": 45, "rs": 23, "rc": 46, "ys": 9, "yc": 3},{"id": "375fe272cc02447e86b613dbed0bb375.16", "url": "http://lh3.googleusercontent.com/Yu-AAAi8gHHIk6lyZ3zgfUfeWgwW_-RacdTalPnBoheIDZ1-m6PQSeA9-o4e8GJC57XJXnJxvtoJihbIgH3TEpmnlCE", "name": "Klätterställningen i Önskeringen", "lat": 59.26413800000000, "lon": 18.03722200000000, "bs": 2, "bc": 10, "rs": 1, "rc": 22, "ys": 35, "yc": 35},{"id": "4d4613ec6a01469ca19e9046df56519c.16", "url": "https://lh3.googleusercontent.com/BQloytZKZOWhHrRKzfui45HPIl8hHfJULXwjigUMjKXJfmMohcJmTbgO1OV9_ElhF6_B5BvFLvi3tICmV7JApXQ5M1E", "name": "Lekplats Grimstagatan 106", "lat": 59.35610000000000, "lon": 17.87386300000000, "bs": 2, "bc": 26, "rs": 22, "rc": 27, "ys": 0, "yc": 1},{"id": "527c4ae06d95464ba13e7eb9352e3656.16", "url": "https://lh3.googleusercontent.com/k0sHExgYUsGUzaBloK1-Gxp7Yqpv74riJWIsbbI_Ks9H398jAJkSUEoI5ID-9fPYdxj_TS77kHlv-aKG5YxukrsW6O4", "name": "Solbergaskogens utegym", "lat": 59.28540300000000, "lon": 18.00586000000000, "bs": 1, "bc": 13, "rs": 20, "rc": 29, "ys": 27, "yc": 25},{"id": "572bf80bfd7b4334b3bdddc9a0ad9654.16", "url": "https://lh3.googleusercontent.com/X73lPqbzVoTd403QjqGlyYXiUFRArM5wythdb4J5SMHXFhsdoL46s6PBjwY1Ne5kdNdAEkfCQJJevkCp2yvltnz7VJ4", "name": "Stålkonst", "lat": 59.34462300000000, "lon": 18.05053600000000, "bs": 3, "bc": 40, "rs": 8, "rc": 60, "ys": 12, "yc": 58},{"id": "5c74f18e34d534a48a0dbda1fac2272f.16", "url": "https://lh3.googleusercontent.com/ORURtJa_fLxvRytuxKIxZBZNFLeqgh-PH3DZrE27J-gUSMqiflfqfFBPBjSixMG_fe30iwOtpl-D2PSiouXU5R1zIjZJHbed4F_3LLGT", "name": "Hundrastgården", "lat": 59.23495300000000, "lon": 18.11512100000000, "bs": 4, "bc": 21, "rs": 8, "rc": 21, "ys": 0, "yc": 0},{"id": "6dd878c0d987408aa406496815f23937.16", "url": "https://lh3.googleusercontent.com/uUpuHTOv5zPrNCGN_NOb4_pWGvUjdicna3XvT5l8TrcMATTEJ9pE0j5XErzkhOv3Yf5U6RBonioaWt1dtGBvPYb9nP8", "name": "Pelare", "lat": 59.36498000000000, "lon": 18.05863800000000, "bs": 2, "bc": 25, "rs": 26, "rc": 45, "ys": 1, "yc": 12},{"id": "7779d2075a3940d6a54bb04a7ba24309.16", "url": "https://lh3.googleusercontent.com/kBsWvQQFBYvlpXHglQ8ktGZ_J5DFwbf4Adl-jluX4ZmWWpYs7M62_mNutv0O_x1lHOWBggvByHAkR44WpE_wbfHhi84", "name": "Den två ögda statyn", "lat": 59.34655400000000, "lon": 18.09286800000000, "bs": 4, "bc": 45, "rs": 4, "rc": 39, "ys": 4, "yc": 26},{"id": "7ec01f8f8e4f4d8ea54c7d3dd617c8e9.16", "url": "https://lh3.googleusercontent.com/uZpzgWQcuDMw-Ujnu0kHjKRdn7w4ZhwNkBiidHheDhkwU64XB9Pc1q4Q79WjpiFdAsuYUCDpDWWcQ_U0SGBt8cNhiNM", "name": "Spottkoppen", "lat": 59.33024200000000, "lon": 18.05812200000000, "bs": 4, "bc": 148, "rs": 3, "rc": 134, "ys": 3, "yc": 117},{"id": "826b4be8272445db83150472d43aab34.11", "url": "https://lh3.googleusercontent.com/3-lZoWhNKxBDIgnJU4520yRFoFdjv_w0tvCmoZ0rapm_1qs1KHHZUFVrcr3fGUX591S4b4ojU6XZlq6srT_hqIkH0A", "name": "Mer än bara vänner", "lat": 59.30294600000000, "lon": 18.09273800000000, "bs": 3, "bc": 21, "rs": 40, "rc": 28, "ys": 4, "yc": 10},{"id": "9a20371a565a4bb094801fc28e6cf282.16", "url": "https://lh3.googleusercontent.com/BCiH5bEkvi8Yeh3Gd5y5I2L5zfjWZnfFhEvKywHXGm2kNWou_OWCepEdBZ0tg37QauzmEG1HdujjHDnaRoY_SDbGy0dR", "name": "Gravfält, Stensträng Och Skålgropssten", "lat": 59.43589700000000, "lon": 17.90423700000000, "bs": 0, "bc": 0, "rs": 0, "rc": 0, "ys": 0, "yc": 0},{"id": "9a7e171db3564cf7802ac8c728c4b98c.16", "url": "https://lh3.googleusercontent.com/jT_xZ2EI0z-O4JYkFymJ5Ut-Z5zZCzAF03XQyI_IvBOyh69IOPuqRBJVI0LXsEjbd5HHDstLN1VD5HLxhBwUFVcv3g", "name": "Postiljonen", "lat": 59.24213700000000, "lon": 18.09149000000000, "bs": 3, "bc": 79, "rs": 6, "rc": 94, "ys": 5, "yc": 80},{"id": "a5237d85a0a94c16bb868276b4dbb4e0.16", "url": "https://lh3.googleusercontent.com/PR73WxM7MQm5_cO7rYV-AFO82CDseOfiIfocGnbLkJFYD6rHo0q2oG7WvGIzX28-ijJrB6IP_1dww9-VnhUoTgPY_coM", "name": "Klätterkanan", "lat": 59.29484400000000, "lon": 17.99729800000000, "bs": 3, "bc": 44, "rs": 8, "rc": 72, "ys": 8, "yc": 78},{"id": "abb64e43277540d5bb37a67ad7170ed1.16", "url": "https://lh3.googleusercontent.com/AMXuT-7QAn7WIjYblRPl_laahJUopsDiVY9y9lyx91bppz4Pm3GKevdb0-lpnA7rmwLX5V1Fx5G39wg8H6doCUfeIN0", "name": "Paviljongen University", "lat": 59.36499200000000, "lon": 18.06003300000000, "bs": 3, "bc": 36, "rs": 1, "rc": 15, "ys": 22, "yc": 48},{"id": "b7ce70cbf1774e2495a6f7172fed22bb.16", "url": "https://lh3.googleusercontent.com/fBLh0YPjpXi5n-fM7ckQAx_52m0qxBQnxnVZA5Mwvf3gj552PGoPQOeEu0_s36vsrP9zBw7TRkyNiLrFVo5G7kYU8dM", "name": "Bruna lekplatsen", "lat": 59.28357200000000, "lon": 18.04761500000000, "bs": 4, "bc": 41, "rs": 11, "rc": 81, "ys": 3, "yc": 65},{"id": "bcba9c919cc44e28bfc9f3e087fee4d7.16", "url": "https://lh3.googleusercontent.com/241Rxj3R0yvqf04Qw9W-yFT-Mgf8HDFRRTtgIGzX7A4di94bbH8rRQTsmBFZbYr8XhreIymnn3Z2u8vD2u7uTNdaVw", "name": "Önskeringens Parklek", "lat": 59.26351700000000, "lon": 18.03730700000000, "bs": 1, "bc": 34, "rs": 1, "rc": 26, "ys": 19, "yc": 64},{"id": "c0fed2ce2e41407786361b702961796b.16", "url": "http://lh3.googleusercontent.com/94FYAibAcLrCx7ElGeckjvT3olh5a54Ul3gAMIFglV3z20cgX9U6OAGpkioOK-GvOBnHJ9H2x-CKSoExX4eYeIEQn-M1", "name": "Lekplats Nordmarksvägen 70", "lat": 59.23424400000000, "lon": 18.10846700000000, "bs": 3, "bc": 13, "rs": 45, "rc": 25, "ys": 6, "yc": 17},{"id": "d2af40f1852640d0b40d036b064ff8e7.16", "url": "https://lh3.googleusercontent.com/IoJKfWA1_WvOS2DKFPCxneGXyH8cRQv51hzstJ8WGzwjRPdI-AYgoMqugbSMJAekG71wgrRHMUE_Da-9UMUqktHgQmE", "name": "Vertical Landscape", "lat": 59.35591200000000, "lon": 18.08747800000000, "bs": 3, "bc": 96, "rs": 9, "rc": 108, "ys": 2, "yc": 19},{"id": "d39ccd7dcdc1494aa1cf5293c8b3a1de.16", "url": "https://lh3.googleusercontent.com/gaWDJhSgOGzzRWxfnPp86s8WzW0tE1_Pxfj6oxZi-3EQsoeZaRXf-wNAtLhDclr8hwey16-EWmNSR_BnK94Q7IzKKxE", "name": "Enskede Gård", "lat": 59.28849900000000, "lon": 18.06641900000000, "bs": 3, "bc": 7, "rs": 61, "rc": 18, "ys": 4, "yc": 12},{"id": "ddeb2ff3606a457aaa45a4cc94f295e4.11", "url": "http://lh3.googleusercontent.com/7omTAhSmck98Jdo8jb7HRRb8QfIOX5tfmslVOipVFWVCvf3RSIc91-m_NPuISz4E_tgPUUWJO5Si9fPhYTomIPSHayGo", "name": "Bromsten, Stockholm", "lat": 59.37863900000000, "lon": 17.91864400000000, "bs": 3, "bc": 16, "rs": 24, "rc": 38, "ys": 8, "yc": 29},{"id": "f483077c2f75408eb482f0487a9c8c33.16", "url": "https://lh3.googleusercontent.com/qo6Lnb--OqI67dpk3hZwrTVE8dJajso0KU6X0epqyiFyxT2Tilhu9Fh95tnt3P_CMAUapNMaz8lDN2SXLGoeZ8RgcmID", "name": "Orionteatern", "lat": 59.30827300000000, "lon": 18.09003000000000, "bs": 3, "bc": 40, "rs": 16, "rc": 67, "ys": 2, "yc": 47},{"id": "f74d171bac56480a8105ecf5c6e39af7.16", "url": "https://lh3.googleusercontent.com/4FXTQa1ERskTODrFaNXh9A-xt7ccZmCcuPEjsZzAZlkt_SwEqK0h61EE6VtwkerIZG9FioqdTT2CkE0aCn9HxDveqAc", "name": "Idlångens Lekplats", "lat": 59.29251000000000, "lon": 18.05584500000000, "bs": 4, "bc": 43, "rs": 20, "rc": 53, "ys": 1, "yc": 15}]
