[{"id": "03f1c8d21d51452482d03a4b01834ee8.16", "url": "https://lh3.googleusercontent.com/eGLAUZ0pUvlTQ8iFH1bO_aVcfuE5iCxzgZpf_gvie2BkAGi5Zb9I3K7ej18QPdhD8G6BmaAGBwD_mI3fkeGktDimiI8", "name": "Gravfältet Vid Glia", "lat": 59.35010500000000, "lon": 17.93723800000000},{"id": "0c0593747943341faadca7726523e8d0.16", "url": "https://lh3.googleusercontent.com/tmDsJxBvy6jiPHb4PqW7y9meBpdBhg1AwzWMhiWThZnoAWcz58kJp_PPkzuEN40nhFE5UZVQO3Gn6VFSXOb2-TKNUKo", "name": "Småbjörkens lekplats", "lat": 59.38104600000000, "lon": 17.92475500000000},{"id": "0d0ca9874e7848f0978f960666555921.16", "url": "https://lh3.googleusercontent.com/Y9XAeUttcTl2oE66pYmmDZNEqRcAxN9C-s4d2RmP-fsr6ukte5kxESTySiW-0ASNhVW5GmCFAADvUU8PmwApxpQvIUo", "name": "Kärleksstigen", "lat": 59.32789200000000, "lon": 18.13767600000000},{"id": "0fede1fe97fa41b889f21865910bc213.16", "url": "http://lh3.googleusercontent.com/dkjF1BoU3_VmUOYFjFWkgulcCWuOakDIK_2BH2iB5aetFI3_sCzELBhRjrFYIpgRwZAGunNew6DDzegAR9NSAzxfCw", "name": "Varvsarbetarhuset", "lat": 59.29606100000000, "lon": 17.91073600000000},{"id": "1435a9e1998c43cb9602a55b651366a8.16", "url": "https://lh3.googleusercontent.com/jss8VDxvhmVOy0ipFabliRSWevGwuidHFY0ehiRNTKpKUTJD-lxWicF_sIbG7g8IXzc6Ns3S6Wj2pkRsHmVjea-w1g", "name": "Flock III", "lat": 59.39064000000000, "lon": 17.90408700000000},{"id": "144017a7aa9a394584d35f55df407f8e.16", "url": "https://lh3.googleusercontent.com/NsSMAnaQkTHp-i8Zm797kHnQ7uVddOTZKiAQYz6ooOcb30xCP_iaxTXneiJdc7oyuU4zuWLaUDkVZs2asoVrXd3LADxrmZ_sQDPEsAny", "name": "Pollineringsträdgård Kyrkhamn", "lat": 59.39166500000000, "lon": 17.77335700000000},{"id": "1ea641a2a548463fb424a005cf82686d.16", "url": "https://lh3.googleusercontent.com/tDi56_iu6sOyN3GBfRT47LiVqxoxeQk3RM3DOW1VewniLXgIvaeZTXMsv-tK0e2-EYTtQHVN_21_njoeFhLbQk5Wv4M", "name": "Bahnhof Mobile Server Hall", "lat": 59.40973600000000, "lon": 17.95283700000000},{"id": "35d95e98d0d9493585deceab94f0e964.16", "url": "https://lh3.googleusercontent.com/nqx2hTGoeXMVHeIIBnCXmHb2D1yCV9xO1J7cZd-18PxCO4LnOHx36QeGuYqvRwpCRnBBdZEuNNPJ1tdFF1CtU6sdGXA", "name": "Second Bridge over small water, Hjulsta", "lat": 59.39301000000000, "lon": 17.88720000000000},{"id": "382ef5a4d7c642e78e499ddd6f8dabf0.16", "url": "https://lh3.googleusercontent.com/6h6uqkDy5nxdccg5iM0ceEK2uNBGiOmVXwwGXUfn7uXZvm5lXGZiCElvQRnlIekakDyyl7sE_q4xNnCpiL9fBjmsmtQ", "name": "Wooden Horses", "lat": 59.40845300000000, "lon": 17.89812700000000},{"id": "38a7e51cc6ba4cd883c56e3805b8b90e.16", "url": "https://lh3.googleusercontent.com/TFol29rwpGLeBqY8ZjYxCn7s1-_hsMG4CIcx4Gf9hXrR55a3bXcnXDtg8yttejtGRYlVxZ6wnRNPue4PJ7TqfTP31Ok", "name": "Vattentorn vid Fagersjötoppen", "lat": 59.25370000000000, "lon": 18.06341300000000},{"id": "3be79c649e403e85ae632254882ed9f2.16", "url": "https://lh3.googleusercontent.com/-9blLOmCEA6gYNB2K323ZFi4j9-_8DrBfn_oIbpZN9thGhUYJeFvpDuXN0CUUheHJlfTbysaD3wnjYxOBUGeFXyqQWGk0tksLNG6JVYh", "name": "Sätra varv", "lat": 59.29603600000000, "lon": 17.90836800000000},{"id": "445097a1465743a0b6ee72b594b2d5ff.16", "url": "https://lh3.googleusercontent.com/JqY521-h4hGB0CJzNCVu6K6VSw_au4XlYUsgfFdLYpsX0nQun4SBTwgeIv-DtOSfg9teybqfYJREtFwDBB5xrOEyv2Y", "name": "Lekplatsen Nyckelpigsparken", "lat": 59.36251700000000, "lon": 17.90821600000000},{"id": "5c42f8ccb7be47a6a334c5a5a5405afa.16", "url": "https://lh3.googleusercontent.com/Xoo5Rl-dwdwBNeoZCftA3brdgPAgO1f9lRVLjLeGmvyIm0mf7bfuyZjdPjjmaDZUKO2jqNSc5Sn8sLAmCpxfBS4PgtA", "name": "Flatens Historia", "lat": 59.25388700000000, "lon": 18.14276300000000},{"id": "6e7ccaa7b2614c2385fcd3cd17a4b80d.16", "url": "https://lh3.googleusercontent.com/742kvpppJDPFBNVcvG6ZF_A11h6vmUWPrQkz00bDD4rl28dAGYdVn1k29dZosuHsdMpDK_LDX30EEuoOHtqHhV0-WlHP", "name": "Svart Katt, Ingen Vit Katt", "lat": 59.28257900000000, "lon": 17.91607300000000},{"id": "709c0719e9d7465abaebf5c2d0f941da.16", "url": "https://lh3.googleusercontent.com/1mbxgWxETgV5Tjj7kPs85-qcpUsg0rD7fLZqZNhJVfSeVnVj9ru-e6u5OmnxpNW-_R4i3ssvFu8E1K_1PGAC_DbFuwQ", "name": "Thielska Galleriet", "lat": 59.32179900000000, "lon": 18.14810700000000},{"id": "789db356a9ba4949b406e0631777e5ca.16", "url": "https://lh3.googleusercontent.com/R4x-gS4U-k3gRuyF-mNIOGQXa1wD-XZq63c1VI-pgcG57vhogd9NJgtqo2lpqDF3WPKC1qoTZ_UNE0P8XbmW-4GzFtM", "name": "Gungor och klättertorn", "lat": 59.37795000000000, "lon": 17.86850200000000},{"id": "886d889ab08944368fc68d2e73d6050a.16", "url": "https://lh3.googleusercontent.com/NIOyLXPiWlXR4AbJTr984ZSQZl2gLXT9zMtflR-MafPv-pIAcr6PYfaYViaw3IoLhmOItoKpCdgphETft8Q0X3COSA", "name": "Sätra Reservoaren", "lat": 59.28951200000000, "lon": 17.90532200000000},{"id": "a399708db69e4cbb89d1bd532a08bf31.16", "url": "https://lh3.googleusercontent.com/bbi2R2MVq2qvmkEDZeTkMUF-8RqWEWX-oyWg9DJ2enqUOyxe77D8OBjiKaoeamVtaG9ndvRkBfLdDS_hnUxpdU_Qgw", "name": "Concrete Artwork", "lat": 59.33493000000000, "lon": 18.13549700000000},{"id": "a9f79984d701445e907855492c7ef4c2.16", "url": "https://lh3.googleusercontent.com/xl6d0nlD0TZvZjiYrYZt2kvyOGIzGNZjfOjVAQRr8bZ7M7VWXg-7g6JiCSPLMOfH6Sr43QASxQrziGZfAmeesUVnpEI", "name": "Kyrksjölötens Naturreservat", "lat": 59.34494700000000, "lon": 17.92552300000000},{"id": "ab9e0316df1b45bd9357103d8555b61b.16", "url": "https://lh3.googleusercontent.com/RXBXjh7xf-CUBSBQjOcHK-rYAJxCb0o73H7WnZhsnqdkFqkjxtVuDlY4-rIP-oX751BhUOVhiO-vUf_PHURag8PBlJs", "name": "Mellangårdens IP", "lat": 59.38160600000000, "lon": 17.88005100000000},{"id": "ac9ba5a8b42648d7888c66b708c89a75.16", "url": "https://lh3.googleusercontent.com/8dLCViM06l7RQ9TRkUud5IKlWT-AQjbFwijKxEffMnoB3n15q-rgT4PTj-_70JIlTu5dD_pb06VD6M4Es6eGzbFljYlq", "name": "Yxmannen", "lat": 59.32276700000000, "lon": 18.15534000000000},{"id": "b7e99fb3c56a36429a24ee44e39b0b63.16", "url": "https://lh3.googleusercontent.com/OKPz8pUGERQYmGyS-_vRWLJXUCCx0AZFIuEm_7Gx6wu0LtOT-zxGzZd9EYe3OIvZC8FvY2eoEJEhVtNzEQ69nDtXryGmkumtzaridC0", "name": "Lekparken i skrubba koloniområde", "lat": 59.24370500000000, "lon": 18.17930700000000},{"id": "c03e770bcaac49f6ab2e880fb803ecdd.16", "url": "https://lh3.googleusercontent.com/-J7_PaSXL3KL28ca2Sl2EQaV67-Px1ZnLiTI5euK5s9-K6BNdJNUimQakQW63Ms5tAhNnHpzBVX0wSPK7VQfk09Y-gw", "name": "Tidens väg - Kolkärr", "lat": 59.40222900000000, "lon": 17.89527400000000},{"id": "cdc8cf66cb5f4738a3c7dd3b4c30af30.16", "url": "http://lh3.googleusercontent.com/7Xx0cIAko4_Bkm1deJAHg8gVZh2bjMBOVfUG12gtl_LlFjlB0AMo5-7yklfchz6Nw-H2jDsHQ21WEVtxMkuf5kph0xw", "name": "Ett Stort Mynt", "lat": 59.27098700000000, "lon": 17.88551900000000},{"id": "cde1a64aaeff49d4a236215439735200.16", "url": "https://lh3.googleusercontent.com/yzW1YYtiUKrPGooWKKoMLMhLJXHJ4GgK0Y_Rkh3JPmldnB-Ry7yFn4FpbTcw1Jyyoyet3XH9z9hrouzrobCr83p_KdPq", "name": "Kista Gårds Koloniträdgårdsförening", "lat": 59.40191200000000, "lon": 17.92786600000000},{"id": "d824b3e21aa54484a9f7f23d27fe53ce.16", "url": "https://lh3.googleusercontent.com/-CKJu1qQ3CLvIRZAtc1l4w5GVgBXP3RCk8AkeTrryfW6rWKIJRySnmIR7T4-0MPZF5U5CxE-Jg3sM0-9bgTmkiox0iLj1xkQNgq6gMbb", "name": "Ekelunds Torp", "lat": 59.29236100000000, "lon": 17.90795600000000},{"id": "e5ecf7cf594e40ab9210cddb16bf7dbc.16", "url": "http://lh3.googleusercontent.com/FWbdXtSRU9_fA28SNJzYlg2FzTggjWiI48H2A-YR2mshs9heL-t50cJA-Wy6dnSuVKhG2zC-BIAq9ADM1wVOAhmG3jU", "name": "Playground at Varpholmsgränd", "lat": 59.28015500000000, "lon": 17.89643100000000},{"id": "e6ffc166ba67417db27ed47ea31beef5.16", "url": "https://lh3.googleusercontent.com/J1d4F-0KuquZVBJ2fAyMK4DgYsRbayKafURRjg_B8zgdzpe8_nzf743dV5yYCLlqdi-It4aAaWyff5McAn1ZeK_VCEo", "name": "Padelverket", "lat": 59.27280500000000, "lon": 18.00438200000000},{"id": "f33c5b1ecd0f33ac80db47bbd613cfe4.16", "url": "https://lh3.googleusercontent.com/PJxcpd1_q0umzUuKDvtTHmDnULLtDfR2em7fOvNBrrIw8nRCsDyzwjuv4oLXQtHB3LfrBwt9rlSi621UYXyngeyJrmmc", "name": "Lambarö lastbrygga", "lat": 59.36597700000000, "lon": 17.81311200000000},{"id": "f4870a3dd0a54ba289a14f209d339d1a.16", "url": "https://lh3.googleusercontent.com/PiWv91n1pPJ-btb9VLDAbVPwUTxk9SJpyu0ic-1k61aKA26xJn5X0Usi6WIgU_ES9PpuLcDN99AmOuC1pJ8XDwUiY6w", "name": "Storholms Lekplats", "lat": 59.27320100000000, "lon": 17.89133200000000},{"id": "f5be0b4c56554ab2ac4ac07e139133b3.16", "url": "https://lh3.googleusercontent.com/65wnT8PJUJZe5U3ZAkl4xJ12XM1cAI6u7g1kt3nq1stNSKwbFEhzemWZra_vSs5v_6i7R2_5Kx65eDtLdZNZLhtwFGw", "name": "Johannesdals Gård", "lat": 59.27841100000000, "lon": 17.87351100000000},{"id": "fbc7d1f91b7244c8aee0a9e921c91819.16", "url": "https://lh3.googleusercontent.com/4reAOMM8mjfb_L-t6hFFd3n0v6vAXqsD4_OfQgj24gRYXmdegYij5rYWacr2SKL8y2mBK061JU4JJWI85A59asN9z54", "name": "Runstenen i Eneby", "lat": 59.35928000000000, "lon": 17.91240800000000},{"id": "fe64dfc0492f4dc58da2bc53ea7af12b.16", "url": "https://lh3.googleusercontent.com/UpQg5HNVPsCFM-epL2VGaO8EDhlWej2RJJ2rRQBS4C-a1heK_Mp8I-BkahFgr1nM4oIrwiWlATfwmac5QOTxT0EwGw", "name": "Stekelhotell", "lat": 59.34860900000000, "lon": 17.93218800000000}]
