[{"id": "03a8d0f6820c45a799f30353121201b7.16", "url": "https://lh3.googleusercontent.com/yFVM9r-hjRHQcoLw3IwujKXZTOkuvQrd5oNNEuh2AR7VLatYsKY_fqGOfjwUNeiMcTRZ3A7zANowhHqb05QVkpeRKPA", "name": "Boplats Vid Ängen", "lat": 59.24429800000000, "lon": 18.14186400000000, "bs": 0, "bc": 0, "rs": 291, "rc": 1, "ys": 1193, "yc": 1},{"id": "083d0c11d3c73be4b338241da7c0a16f.16", "url": "https://lh3.googleusercontent.com/DaLIcWuYOwBO7upYIz5XbTfE-PVuZw2onK6pJ5mM9b7f9c7oLSwZWrpPp_Cs8x90UnNyn1oef6nG7SiXk-Wbt-L-f_dIVXXwICKJPZY", "name": "Igelbäcken Gångbro", "lat": 59.41198400000000, "lon": 17.90029500000000, "bs": 153, "bc": 4, "rs": 168, "rc": 4, "ys": 42, "yc": 5},{"id": "0fede1fe97fa41b889f21865910bc213.16", "url": "http://lh3.googleusercontent.com/dkjF1BoU3_VmUOYFjFWkgulcCWuOakDIK_2BH2iB5aetFI3_sCzELBhRjrFYIpgRwZAGunNew6DDzegAR9NSAzxfCw", "name": "Varvsarbetarhuset", "lat": 59.29606100000000, "lon": 17.91073600000000, "bs": 94, "bc": 8, "rs": 74, "rc": 7, "ys": 46, "yc": 3},{"id": "1989f8e32a6941ebb09ef9604e92f174.16", "url": "https://lh3.googleusercontent.com/aZuVhYJlLmmrDJ-eHZA6pvPpFphhrEq3yVSmNHLq--eQi-VjrcSPUhm8Z3IUg9OpN0vsq3OIL1VI_TndSIysBpZAww", "name": "Venus Milo", "lat": 59.32267800000000, "lon": 18.14487100000000, "bs": 83, "bc": 12, "rs": 35, "rc": 10, "ys": 30, "yc": 6},{"id": "1ea641a2a548463fb424a005cf82686d.16", "url": "https://lh3.googleusercontent.com/tDi56_iu6sOyN3GBfRT47LiVqxoxeQk3RM3DOW1VewniLXgIvaeZTXMsv-tK0e2-EYTtQHVN_21_njoeFhLbQk5Wv4M", "name": "Bahnhof Mobile Server Hall", "lat": 59.40973600000000, "lon": 17.95283700000000, "bs": 195, "bc": 7, "rs": 31, "rc": 4, "ys": 35, "yc": 2},{"id": "21112805facb4eb8823130d73a54dea6.16", "url": "https://lh3.googleusercontent.com/k-inupGbxQSaxDDRpOqjpD65l187FNgjfw3IwQ29BfTQJ8BP17wnqGSeXNo9IoSo8thyPVIjAX2EfBz6bzRRvAE6Kb0", "name": "Scen", "lat": 59.40682800000000, "lon": 17.91966100000000, "bs": 69, "bc": 13, "rs": 44, "rc": 10, "ys": 19, "yc": 7},{"id": "21b6648112ec493a87e734979070e7d9.16", "url": "https://lh3.googleusercontent.com/zRJu5YGtCYDmK3FlN6Lr2caAUvbstUc8SH9lObnNFf1NKZ833Fxphjde88cGuDmX-cdMZCYAB-bkOQdX-dFmf8_GeqAq_PaeTqO0VfQ", "name": "Gravfält Och Stensträngar", "lat": 59.42834800000000, "lon": 17.89806500000000, "bs": 315, "bc": 1, "rs": 206, "rc": 1, "ys": 472, "yc": 2},{"id": "23532b7f0ed5408c80cfdfc3de05ec13.16", "url": "https://lh3.googleusercontent.com/mwz8GrcVgWxUW_t1HCYR77MtN-adSQfLtZu-insu3tMiYv8oDXES3V9l0-Pjxu45CLnSSs0Evnf3X0XCdQCdRTZQHH-P", "name": "Finngården", "lat": 59.32663200000000, "lon": 18.10956900000000, "bs": 50, "bc": 10, "rs": 59, "rc": 9, "ys": 22, "yc": 10},{"id": "35d95e98d0d9493585deceab94f0e964.16", "url": "https://lh3.googleusercontent.com/nqx2hTGoeXMVHeIIBnCXmHb2D1yCV9xO1J7cZd-18PxCO4LnOHx36QeGuYqvRwpCRnBBdZEuNNPJ1tdFF1CtU6sdGXA", "name": "Second Bridge over small water, Hjulsta", "lat": 59.39301000000000, "lon": 17.88720000000000, "bs": 156, "bc": 6, "rs": 111, "rc": 3, "ys": 69, "yc": 4},{"id": "382ef5a4d7c642e78e499ddd6f8dabf0.16", "url": "https://lh3.googleusercontent.com/6h6uqkDy5nxdccg5iM0ceEK2uNBGiOmVXwwGXUfn7uXZvm5lXGZiCElvQRnlIekakDyyl7sE_q4xNnCpiL9fBjmsmtQ", "name": "Wooden Horses", "lat": 59.40845300000000, "lon": 17.89812700000000, "bs": 127, "bc": 8, "rs": 64, "rc": 5, "ys": 40, "yc": 4},{"id": "3f412eb2a6434ae69cd6b25a25ac28f6.16", "url": "https://lh3.googleusercontent.com/DaAZ1KhLTjUAwxJZ0xxl62B9pAlBtrhe2OwesYuWtnYZanVxUc9ciwKJyXUQKe63Hz7cwaWFJK6IdnafaJmDPaBa_CeO", "name": "Bäckravinen", "lat": 59.24189100000000, "lon": 18.15840000000000, "bs": 126, "bc": 8, "rs": 40, "rc": 6, "ys": 21, "yc": 6},{"id": "4aca8e60c53f4734bd883061f33889b8.11", "url": "https://lh3.googleusercontent.com/rLUL6h2oGTJhSAtXk0qjqheC1wg8VDXNRseRcFlofoaFw4HabnPdRo3pDUwLVAnyCXKaiDhWkTQwv8wZImOp1j6k4lM", "name": "Bussolyckan i Måbødalen", "lat": 59.40024000000000, "lon": 17.92548300000000, "bs": 48, "bc": 8, "rs": 40, "rc": 6, "ys": 62, "yc": 7},{"id": "4ddd3aca723045b2bec7d763d9ca0b56.16", "url": "https://lh3.googleusercontent.com/iKaytDHaIvtRjpXg8AdGX6I9ko7-g6Lz9ndhtgswd-8OMg6py4b27RqF15qhuWatrWdPP60WwsMrhXo4pQtUVedW-94", "name": "Tidens väg – South Start/Finish", "lat": 59.40187400000000, "lon": 17.89649800000000, "bs": 202, "bc": 5, "rs": 31, "rc": 4, "ys": 70, "yc": 5},{"id": "5185a454c7554d64bb9e5fc479001f3f.16", "url": "https://lh3.googleusercontent.com/7UOI63ZFCC6moNIeCBbvbvSDsY0UfaOjRBPax2v6S3eTlWpYfs9Bm8zqAnIlnMwVFgrZkunp56ms6I_KILEEborZYE0", "name": "Jättelokor", "lat": 59.34737600000000, "lon": 17.86546100000000, "bs": 80, "bc": 14, "rs": 26, "rc": 12, "ys": 14, "yc": 11},{"id": "5b3db887f8064b7281d0cff36326bfb3.16", "url": "https://lh3.googleusercontent.com/yBPaqlgzrx0cK4T0Cxw4N6e1k_fk7w_5bMPdao22Fs8Q-TN6jX86wJrZDnts5YUMLD2VFoK7pqMwfWt1qGhnifkjOmXD", "name": "Skärholmens Gårds fontänstaty", "lat": 59.28334000000000, "lon": 17.88904900000000, "bs": 94, "bc": 12, "rs": 29, "rc": 11, "ys": 5, "yc": 3},{"id": "77054e0c79a631519508f01834fc5934.16", "url": "https://lh3.googleusercontent.com/gQTtdxkV3BP48iI6Iz1WccVlBXP0hDFpZZu0keRhg-YxP3hUYRKQFdnDIuVz-4oYgOi4BmnxoT__5G1MZwYWVhGUoro4zN6fvOit1Z4J", "name": "Bromsten sport field", "lat": 59.38033400000000, "lon": 17.92779800000000, "bs": 87, "bc": 9, "rs": 65, "rc": 4, "ys": 85, "yc": 4},{"id": "7cc3a1cfa78341dbb02b42249b3599dd.16", "url": "http://lh3.googleusercontent.com/F-D4Py9DAdrin1Ote8Uug1TbnomqIP1mIhzWiLqsFZ--UT9Sr4qTVG1HnTfpKFXZTrrWJhIAig_Jg-z72wHSil6u20c", "name": "Boplats & Gravfält", "lat": 59.42570800000000, "lon": 17.90097000000000, "bs": 0, "bc": 0, "rs": 0, "rc": 0, "ys": 1077, "yc": 1},{"id": "871ad7901af543169641aa5fdf1fe0da.16", "url": "https://lh3.googleusercontent.com/xOuVgZ9OsIZv6CnMF4VdVfBo_zxMiPe8xZaGUHmW65phXyNet23x07LCsi7fKDYePAC7mzyEGLRxrpjmdEZoNNRIRg", "name": "Hipp Hipp Hurra", "lat": 59.32011600000000, "lon": 18.11435600000000, "bs": 92, "bc": 10, "rs": 47, "rc": 5, "ys": 64, "yc": 6},{"id": "8a98b183f64e4a6b883c5628eaf2dd79.16", "url": "https://lh3.googleusercontent.com/GW8P24E-QGux5K_HCpSGsS-ja6fVGmjw9ODwnIy9_4BkEdgLWgzI7ngCKVz3d2Ug_CtVH-10XLz4zT1FvGGgdcfgWvfM", "name": "Häradsvägen", "lat": 59.42488600000000, "lon": 17.90616500000000, "bs": 94, "bc": 5, "rs": 48, "rc": 5, "ys": 88, "yc": 7},{"id": "926a91b25a383c2d93a1c7daa32a1002.16", "url": "https://lh3.googleusercontent.com/zyNpYGcPD5hZRWBZDyrimNA_bjUbcUIUVKGYLyXmlxtNp2dX8eAx50QhrH_Y3PDKMA1GgvFUL_B-tYNQCMwmJ7tI3qlMqnatwONsHCQy", "name": "Lilla Skuggan", "lat": 59.36704300000000, "lon": 18.08932900000000, "bs": 101, "bc": 6, "rs": 62, "rc": 7, "ys": 0, "yc": 0},{"id": "96d2f00553774372ac2e741fb536759b.16", "url": "https://lh3.googleusercontent.com/FVavZ3PsCHtvSZGX1eRee3WXVY-RGrzvztk3HCUKPVliB0Yev6KEcNo6fGzTUIcVwGTmXSTsTplQRBK-1Es16CXMdN9w", "name": "Tusculum", "lat": 59.28301400000000, "lon": 17.88327400000000, "bs": 912, "bc": 1, "rs": 198, "rc": 2, "ys": 19, "yc": 2},{"id": "99d7f88b869b4ef5b254bc747eb7d53d.16", "url": "https://lh3.googleusercontent.com/-T-ZXMUQnr-3icfZNLA_JHhrFfhao1RnV4Q5B1sZ5IAhrsWtEKaT2B9QOUYvPUsv3M85ZbmPFFs9ZuBmWnb_h3260HfZ", "name": "Husby gravfält", "lat": 59.40789100000000, "lon": 17.91643500000000, "bs": 101, "bc": 12, "rs": 13, "rc": 9, "ys": 23, "yc": 6},{"id": "a399708db69e4cbb89d1bd532a08bf31.16", "url": "https://lh3.googleusercontent.com/bbi2R2MVq2qvmkEDZeTkMUF-8RqWEWX-oyWg9DJ2enqUOyxe77D8OBjiKaoeamVtaG9ndvRkBfLdDS_hnUxpdU_Qgw", "name": "Concrete Artwork", "lat": 59.33493000000000, "lon": 18.13549700000000, "bs": 103, "bc": 8, "rs": 77, "rc": 7, "ys": 9, "yc": 3},{"id": "b7e99fb3c56a36429a24ee44e39b0b63.16", "url": "https://lh3.googleusercontent.com/OKPz8pUGERQYmGyS-_vRWLJXUCCx0AZFIuEm_7Gx6wu0LtOT-zxGzZd9EYe3OIvZC8FvY2eoEJEhVtNzEQ69nDtXryGmkumtzaridC0", "name": "Lekparken i skrubba koloniområde", "lat": 59.24370500000000, "lon": 18.17930700000000, "bs": 97, "bc": 6, "rs": 71, "rc": 5, "ys": 35, "yc": 3},{"id": "c6e05e02159a46dcb8df0c70f325410d.16", "url": "https://lh3.googleusercontent.com/krxSlffkHfnzg5JlOiJNdLreJ1Q_jiYg3HV8hk-tGFzaj_rKVJstqjyXRSkcfE7cVofuATH7uTr68JQD3xCcFTFiJq8j", "name": "Frihetens Port", "lat": 59.32203700000000, "lon": 18.13347700000000, "bs": 157, "bc": 6, "rs": 64, "rc": 5, "ys": 24, "yc": 3},{"id": "c98d89b775674eb2a7cbfcf03a7aa4fd.16", "url": "https://lh3.googleusercontent.com/o9aweStsn3lpW9xLt8D4fs3Yu3KU2ddGgqp9b5tXLeHs4qQTR-zSL2DrtSG-UhTQQAC0iTamGYf0hsNbOK2ls2VXcg", "name": "Lion Bath", "lat": 59.26919200000000, "lon": 18.09665900000000, "bs": 85, "bc": 6, "rs": 42, "rc": 4, "ys": 104, "yc": 8},{"id": "d47af58a1a11441f9b579b599c43a6bf.16", "url": "https://lh3.googleusercontent.com/aUyStNjdxU8O6Yyny14mZ_J56NmaZDxeuoHSMAZifkck4QMG_XRH35p8KcHCwCvVrskCiNZLrPbMab0fZ6OpitkYc0A", "name": "Gebers Totempåle", "lat": 59.24444800000000, "lon": 18.13714700000000, "bs": 0, "bc": 0, "rs": 1029, "rc": 1, "ys": 0, "yc": 0},{"id": "d824b3e21aa54484a9f7f23d27fe53ce.16", "url": "https://lh3.googleusercontent.com/-CKJu1qQ3CLvIRZAtc1l4w5GVgBXP3RCk8AkeTrryfW6rWKIJRySnmIR7T4-0MPZF5U5CxE-Jg3sM0-9bgTmkiox0iLj1xkQNgq6gMbb", "name": "Ekelunds Torp", "lat": 59.29236100000000, "lon": 17.90795600000000, "bs": 325, "bc": 3, "rs": 19, "rc": 2, "ys": 43, "yc": 4},{"id": "e46aa3e11c394acf81f852ded43b5dd1.11", "url": "https://lh3.googleusercontent.com/D5ac7cO9QRXlDZ1RY2OUDaekztUJm8-HwUV3sUt7U6s1t4Hi58_yNZuExQwd_XG6U5PdP5k72TZhEx844lbWxWsWG1o", "name": "Solvalla Radartorn", "lat": 59.36340000000000, "lon": 17.93775200000000, "bs": 649, "bc": 2, "rs": 71, "rc": 1, "ys": 75, "yc": 2},{"id": "e5ecf7cf594e40ab9210cddb16bf7dbc.16", "url": "http://lh3.googleusercontent.com/FWbdXtSRU9_fA28SNJzYlg2FzTggjWiI48H2A-YR2mshs9heL-t50cJA-Wy6dnSuVKhG2zC-BIAq9ADM1wVOAhmG3jU", "name": "Playground at Varpholmsgränd", "lat": 59.28015500000000, "lon": 17.89643100000000, "bs": 75, "bc": 13, "rs": 27, "rc": 12, "ys": 26, "yc": 9},{"id": "e9d3330f7c0c4335b80655085c1ec661.16", "url": "https://lh3.googleusercontent.com/z9bcz5jWOPRi7OHzC7IJgiNWiQgkHwzOAGav7QTQVD7A4NjXLgpkrbWWdq68r9cX4p-6TnLmjbF8Z6Xk_WI1xTtMyK8", "name": "Den Blå Älgen", "lat": 59.37135000000000, "lon": 17.83975400000000, "bs": 87, "bc": 17, "rs": 8, "rc": 10, "ys": 4, "yc": 7},{"id": "f33c5b1ecd0f33ac80db47bbd613cfe4.16", "url": "https://lh3.googleusercontent.com/PJxcpd1_q0umzUuKDvtTHmDnULLtDfR2em7fOvNBrrIw8nRCsDyzwjuv4oLXQtHB3LfrBwt9rlSi621UYXyngeyJrmmc", "name": "Lambarö lastbrygga", "lat": 59.36597700000000, "lon": 17.81311200000000, "bs": 181, "bc": 6, "rs": 25, "rc": 3, "ys": 77, "yc": 4},{"id": "f5be0b4c56554ab2ac4ac07e139133b3.16", "url": "https://lh3.googleusercontent.com/65wnT8PJUJZe5U3ZAkl4xJ12XM1cAI6u7g1kt3nq1stNSKwbFEhzemWZra_vSs5v_6i7R2_5Kx65eDtLdZNZLhtwFGw", "name": "Johannesdals Gård", "lat": 59.27841100000000, "lon": 17.87351100000000, "bs": 154, "bc": 7, "rs": 70, "rc": 4, "ys": 57, "yc": 4}]
