[{"id": "03f1c8d21d51452482d03a4b01834ee8.16", "url": "https://lh3.googleusercontent.com/eGLAUZ0pUvlTQ8iFH1bO_aVcfuE5iCxzgZpf_gvie2BkAGi5Zb9I3K7ej18QPdhD8G6BmaAGBwD_mI3fkeGktDimiI8", "name": "Gravfältet Vid Glia", "lat": 59.35010500000000, "lon": 17.93723800000000, "bs": 95, "bc": 9, "rs": 51, "rc": 4, "ys": 98, "yc": 9},{"id": "05a6dd2338d8424cb63af726329147dd.16", "url": "https://lh3.googleusercontent.com/q80PgeGuYejHG3RzqhyOC9-ok8jco_swIExCKLGTYMhppC8y5BTVxZI63L7uyF8xw97YOis2LiTQ3UqH1j-1eSfFRHU", "name": "Fladder", "lat": 59.27125300000000, "lon": 17.89694700000000, "bs": 77, "bc": 17, "rs": 25, "rc": 7, "ys": 21, "yc": 15},{"id": "0724a107863e4b7faff214673a51bc63.16", "url": "https://lh3.googleusercontent.com/YEmr8K-iM5lKn1snIzNM_cHiEtf7xGcjbc6hbCFvsBw18Tbyt-rD47x0jufV9ItGchb1JdEy2bfXnQ0C8nmixk71IFA", "name": "Judarskogens Naturreservat", "lat": 59.33410900000000, "lon": 17.91082300000000, "bs": 76, "bc": 12, "rs": 98, "rc": 4, "ys": 51, "yc": 12},{"id": "0aee7ba86a2445e997805a1a00500dbd.16", "url": "https://lh3.googleusercontent.com/NHRl8RbmyuinYut0EvpdtFE1mei9ZSWH1qQp6oPlyGAaKuswpGupZrJoU1HMIDg0-RY1HJ0zaAmJSY4qHj6FBugPOdk", "name": "Posing Cat", "lat": 59.34283400000000, "lon": 17.90778500000000, "bs": 82, "bc": 20, "rs": 20, "rc": 11, "ys": 14, "yc": 13},{"id": "0c0593747943341faadca7726523e8d0.16", "url": "https://lh3.googleusercontent.com/tmDsJxBvy6jiPHb4PqW7y9meBpdBhg1AwzWMhiWThZnoAWcz58kJp_PPkzuEN40nhFE5UZVQO3Gn6VFSXOb2-TKNUKo", "name": "Småbjörkens lekplats", "lat": 59.38104600000000, "lon": 17.92475500000000, "bs": 103, "bc": 15, "rs": 7, "rc": 2, "ys": 34, "yc": 13},{"id": "12425cc63615420aab7e73a002528be6.16", "url": "https://lh3.googleusercontent.com/RDFiDcSuBRxqhvOAbeUpivQPVGHR7Zoj2a-eIuduVboVQr8rJwNtx4t3hQa0C43lzT0Y-o64CRr-fHUYLr2NW-cuflg", "name": "Utescenen", "lat": 59.25536100000000, "lon": 18.03931700000000, "bs": 88, "bc": 10, "rs": 64, "rc": 11, "ys": 33, "yc": 10},{"id": "144017a7aa9a394584d35f55df407f8e.16", "url": "https://lh3.googleusercontent.com/NsSMAnaQkTHp-i8Zm797kHnQ7uVddOTZKiAQYz6ooOcb30xCP_iaxTXneiJdc7oyuU4zuWLaUDkVZs2asoVrXd3LADxrmZ_sQDPEsAny", "name": "Pollineringsträdgård Kyrkhamn", "lat": 59.39166500000000, "lon": 17.77335700000000, "bs": 98, "bc": 7, "rs": 109, "rc": 6, "ys": 119, "yc": 6},{"id": "1667abe80e2645249d295ecd8aae7471.16", "url": "https://lh3.googleusercontent.com/vbS7xxNV_tfSc__eDiX3G6zhDqW2dvIhI7Grc-5FjWdICfp_V4LNQbGtpKQx4jG_imd-H2QhYMUx19hlvc0vNOXbZw", "name": "Välkommen Till Sätraskogens Naturreservat", "lat": 59.29832400000000, "lon": 17.92428800000000, "bs": 73, "bc": 18, "rs": 37, "rc": 12, "ys": 22, "yc": 8},{"id": "21b6648112ec493a87e734979070e7d9.16", "url": "https://lh3.googleusercontent.com/zRJu5YGtCYDmK3FlN6Lr2caAUvbstUc8SH9lObnNFf1NKZ833Fxphjde88cGuDmX-cdMZCYAB-bkOQdX-dFmf8_GeqAq_PaeTqO0VfQ", "name": "Gravfält Och Stensträngar", "lat": 59.42834800000000, "lon": 17.89806500000000, "bs": 315, "bc": 1, "rs": 206, "rc": 1, "ys": 472, "yc": 2},{"id": "23532b7f0ed5408c80cfdfc3de05ec13.16", "url": "https://lh3.googleusercontent.com/mwz8GrcVgWxUW_t1HCYR77MtN-adSQfLtZu-insu3tMiYv8oDXES3V9l0-Pjxu45CLnSSs0Evnf3X0XCdQCdRTZQHH-P", "name": "Finngården", "lat": 59.32663200000000, "lon": 18.10956900000000, "bs": 73, "bc": 13, "rs": 56, "rc": 13, "ys": 21, "yc": 13},{"id": "3248bc29c2a648e7b57526551b901776.16", "url": "https://lh3.googleusercontent.com/KJlowyR-iC-dvvYG42q8AaRmUsvIpWZLGKfU3CWCa4v72a6cK0dSST52j5zwsw1kZZJIOpFyplw4oylC-HhfVl9F4ks", "name": "Miniatyrslott", "lat": 59.41267200000000, "lon": 17.92565300000000, "bs": 94, "bc": 14, "rs": 24, "rc": 5, "ys": 50, "yc": 11},{"id": "3be79c649e403e85ae632254882ed9f2.16", "url": "https://lh3.googleusercontent.com/-9blLOmCEA6gYNB2K323ZFi4j9-_8DrBfn_oIbpZN9thGhUYJeFvpDuXN0CUUheHJlfTbysaD3wnjYxOBUGeFXyqQWGk0tksLNG6JVYh", "name": "Sätra varv", "lat": 59.29603600000000, "lon": 17.90836800000000, "bs": 552, "bc": 2, "rs": 87, "rc": 2, "ys": 0, "yc": 0},{"id": "4218c4c875534dd99a3477996a00c4ba.16", "url": "https://lh3.googleusercontent.com/7tOp_lSePPZbeuoz5sVgUDcdBpBBhyr27Zsn7jy2vBjEa4Jn9U4zHvGmVh-jdpdpagrk5xWnvfRhg0vTA9-g3WGNq5so", "name": "Dansen Fontän", "lat": 59.29037000000000, "lon": 17.95180100000000, "bs": 75, "bc": 27, "rs": 2, "rc": 9, "ys": 2, "yc": 19},{"id": "43db512fa8734a95b32c4c8a64e7e5a4.16", "url": "https://lh3.googleusercontent.com/S819Z4gMQeZ90yVCKy1XAao-SUFb4FLOqbZYZOSoI2tpbnaxl-pSAhbgNZCWBztElqxMH5GIodT59FXZQ1F-9qv2qaY", "name": "Old Windmill", "lat": 59.32000300000000, "lon": 18.11603900000000, "bs": 162, "bc": 8, "rs": 37, "rc": 7, "ys": 72, "yc": 7},{"id": "4606247613054df9b479670d7384daa8.16", "url": "https://lh3.googleusercontent.com/skze6xh3z9irTGQZwHEmQ0PXZy2ut643b6VgtQjzjrGKh9IGfhxt5gXnmyaXEqVvjQzM7D4lxt1fnlU4sL06_SrscZZQ", "name": "Stockholms Länstenen", "lat": 59.41659600000000, "lon": 17.93283300000000, "bs": 114, "bc": 7, "rs": 101, "rc": 6, "ys": 80, "yc": 8},{"id": "5794bd8196784e97b1c5b2938e6d8be6.16", "url": "https://lh3.googleusercontent.com/f_sGkk-Luf8VKJ0JfT3PafRy-JoZZ-6TcxGmITKyjK7VWKEiU2g8P0GITwtdnM8XT5SnfZswGmY-0it9b2qvkFqZ1f4", "name": "Kungliga Djurgårdens Motionsspår", "lat": 59.36992000000000, "lon": 18.06891500000000, "bs": 136, "bc": 9, "rs": 16, "rc": 5, "ys": 99, "yc": 7},{"id": "5b3db887f8064b7281d0cff36326bfb3.16", "url": "https://lh3.googleusercontent.com/yBPaqlgzrx0cK4T0Cxw4N6e1k_fk7w_5bMPdao22Fs8Q-TN6jX86wJrZDnts5YUMLD2VFoK7pqMwfWt1qGhnifkjOmXD", "name": "Skärholmens Gårds fontänstaty", "lat": 59.28334000000000, "lon": 17.88904900000000, "bs": 109, "bc": 14, "rs": 35, "rc": 12, "ys": 5, "yc": 4},{"id": "5c42f8ccb7be47a6a334c5a5a5405afa.16", "url": "https://lh3.googleusercontent.com/Xoo5Rl-dwdwBNeoZCftA3brdgPAgO1f9lRVLjLeGmvyIm0mf7bfuyZjdPjjmaDZUKO2jqNSc5Sn8sLAmCpxfBS4PgtA", "name": "Flatens Historia", "lat": 59.25388700000000, "lon": 18.14276300000000, "bs": 92, "bc": 6, "rs": 63, "rc": 3, "ys": 124, "yc": 6},{"id": "5d730e09a8f041148e6b47ccda6b78b4.16", "url": "https://lh3.googleusercontent.com/8_QrNay6djGmwF_ayIYgrefeH8yBeHBIGE-diD3e77Z7uHxERFrGYd9OxIeSequbcazC3hsD9eI2tKoMEwIjox-WWQ", "name": "Herakles", "lat": 59.32041900000000, "lon": 18.11380500000000, "bs": 90, "bc": 16, "rs": 32, "rc": 9, "ys": 28, "yc": 12},{"id": "75cc3ca5841d4fa7bcd0efca90c4afe7.16", "url": "https://lh3.googleusercontent.com/w9ETPbw1npkXa6uCYPJHYHtNIIoPqzsDTbjFyaZNJ5RpD5oURLbZqkKTeOXxmas0LR5_P6Qg7v2Hx4FJmMv9ox25nR4", "name": "Strandkyrkogården", "lat": 59.23974500000000, "lon": 18.18525900000000, "bs": 76, "bc": 14, "rs": 37, "rc": 12, "ys": 39, "yc": 7},{"id": "77054e0c79a631519508f01834fc5934.16", "url": "https://lh3.googleusercontent.com/gQTtdxkV3BP48iI6Iz1WccVlBXP0hDFpZZu0keRhg-YxP3hUYRKQFdnDIuVz-4oYgOi4BmnxoT__5G1MZwYWVhGUoro4zN6fvOit1Z4J", "name": "Bromsten sport field", "lat": 59.38033400000000, "lon": 17.92779800000000, "bs": 91, "bc": 15, "rs": 48, "rc": 6, "ys": 58, "yc": 7},{"id": "7c1102f1a89d4cd1bfe8c437d4490257.16", "url": "https://lh3.googleusercontent.com/Tzk6_GBytBXgtArd1_bG0k70mBkNInIAoj-cjl0S3I6x4pPjk1NtX-vXOioBBkc_ac-bGhQhGIvoDzCNHHrS4rDab18", "name": "Fyren", "lat": 59.29088100000000, "lon": 17.89281900000000, "bs": 64, "bc": 11, "rs": 61, "rc": 14, "ys": 32, "yc": 5},{"id": "7cc3a1cfa78341dbb02b42249b3599dd.16", "url": "http://lh3.googleusercontent.com/F-D4Py9DAdrin1Ote8Uug1TbnomqIP1mIhzWiLqsFZ--UT9Sr4qTVG1HnTfpKFXZTrrWJhIAig_Jg-z72wHSil6u20c", "name": "Boplats & Gravfält", "lat": 59.42570800000000, "lon": 17.90097000000000, "bs": 529, "bc": 1, "rs": 22, "rc": 1, "ys": 1077, "yc": 1},{"id": "834f6a2eed244334a33b23e4ca514579.16", "url": "https://lh3.googleusercontent.com/QGi-SqyZlenwINdRs_1W9dLIEmSj_RW1E-i4KcZzxEOEYrTWIJQXnCllcSRgfgw51dKmp6qqM7Pt80Aqzf19897hQjE", "name": "Fantastiska musen", "lat": 59.23258200000000, "lon": 18.09841100000000, "bs": 77, "bc": 26, "rs": 2, "rc": 8, "ys": 4, "yc": 20},{"id": "871ad7901af543169641aa5fdf1fe0da.16", "url": "https://lh3.googleusercontent.com/xOuVgZ9OsIZv6CnMF4VdVfBo_zxMiPe8xZaGUHmW65phXyNet23x07LCsi7fKDYePAC7mzyEGLRxrpjmdEZoNNRIRg", "name": "Hipp Hipp Hurra", "lat": 59.32011600000000, "lon": 18.11435600000000, "bs": 82, "bc": 16, "rs": 32, "rc": 9, "ys": 50, "yc": 8},{"id": "886d889ab08944368fc68d2e73d6050a.16", "url": "https://lh3.googleusercontent.com/NIOyLXPiWlXR4AbJTr984ZSQZl2gLXT9zMtflR-MafPv-pIAcr6PYfaYViaw3IoLhmOItoKpCdgphETft8Q0X3COSA", "name": "Sätra Reservoaren", "lat": 59.28951200000000, "lon": 17.90532200000000, "bs": 297, "bc": 5, "rs": 21, "rc": 5, "ys": 0, "yc": 0},{"id": "8a98b183f64e4a6b883c5628eaf2dd79.16", "url": "https://lh3.googleusercontent.com/GW8P24E-QGux5K_HCpSGsS-ja6fVGmjw9ODwnIy9_4BkEdgLWgzI7ngCKVz3d2Ug_CtVH-10XLz4zT1FvGGgdcfgWvfM", "name": "Häradsvägen", "lat": 59.42488600000000, "lon": 17.90616500000000, "bs": 134, "bc": 8, "rs": 40, "rc": 6, "ys": 79, "yc": 8},{"id": "926a91b25a383c2d93a1c7daa32a1002.16", "url": "https://lh3.googleusercontent.com/zyNpYGcPD5hZRWBZDyrimNA_bjUbcUIUVKGYLyXmlxtNp2dX8eAx50QhrH_Y3PDKMA1GgvFUL_B-tYNQCMwmJ7tI3qlMqnatwONsHCQy", "name": "Lilla Skuggan", "lat": 59.36704300000000, "lon": 18.08932900000000, "bs": 101, "bc": 6, "rs": 62, "rc": 7, "ys": 0, "yc": 0},{"id": "96d2f00553774372ac2e741fb536759b.16", "url": "https://lh3.googleusercontent.com/FVavZ3PsCHtvSZGX1eRee3WXVY-RGrzvztk3HCUKPVliB0Yev6KEcNo6fGzTUIcVwGTmXSTsTplQRBK-1Es16CXMdN9w", "name": "Tusculum", "lat": 59.28301400000000, "lon": 17.88327400000000, "bs": 769, "bc": 2, "rs": 198, "rc": 2, "ys": 14, "yc": 3},{"id": "b025a6111395416580ce370f64dd7164.16", "url": "https://lh3.googleusercontent.com/W1MOyMp_HMxqVciZFqHoK0X86MqYJWQ84jlwiQxmIJFZvRrlv5ELxjt7S6YHWWq8tpSS9xwrEt1zMPYMnPgr1qXTp3E", "name": "Laxholmsbacken Lekplats och Sandlåda", "lat": 59.27394400000000, "lon": 17.87512100000000, "bs": 90, "bc": 13, "rs": 48, "rc": 13, "ys": 36, "yc": 6},{"id": "b7e99fb3c56a36429a24ee44e39b0b63.16", "url": "https://lh3.googleusercontent.com/OKPz8pUGERQYmGyS-_vRWLJXUCCx0AZFIuEm_7Gx6wu0LtOT-zxGzZd9EYe3OIvZC8FvY2eoEJEhVtNzEQ69nDtXryGmkumtzaridC0", "name": "Lekparken i skrubba koloniområde", "lat": 59.24370500000000, "lon": 18.17930700000000, "bs": 225, "bc": 7, "rs": 63, "rc": 6, "ys": 35, "yc": 3},{"id": "bd44abc01d6e4965a47ef137fcfd30cf.16", "url": "https://lh3.googleusercontent.com/KuaMpcGEL-1lP0NjYE50JBZCujnSHzOel9nZ64kHGWGez6tD0ZP8iYMgH5GA1FhkhHZ7JEywzkjGw56CVDzbchUXmiQ", "name": "Grimsta Naturreservat", "lat": 59.33924800000000, "lon": 17.88589300000000, "bs": 89, "bc": 9, "rs": 82, "rc": 9, "ys": 57, "yc": 9},{"id": "c03e770bcaac49f6ab2e880fb803ecdd.16", "url": "https://lh3.googleusercontent.com/-J7_PaSXL3KL28ca2Sl2EQaV67-Px1ZnLiTI5euK5s9-K6BNdJNUimQakQW63Ms5tAhNnHpzBVX0wSPK7VQfk09Y-gw", "name": "Tidens väg - Kolkärr", "lat": 59.40222900000000, "lon": 17.89527400000000, "bs": 373, "bc": 4, "rs": 50, "rc": 1, "ys": 15, "yc": 4},{"id": "d6b2d4029f503ee68cf0678914d66922.16", "url": "https://lh3.googleusercontent.com/nvfJfzqZht5jJt5MiU2gceSCdnFVFUQyojs_tMRgiGw9kOPlK3IfxYz0DIwOolsgnSgMS6Cni3_qsc30nPBI8q_4hSzz0fhLtaVf5Isx", "name": "Järva discgolfpark hål 11", "lat": 59.40472200000000, "lon": 17.89879100000000, "bs": 130, "bc": 3, "rs": 20, "rc": 2, "ys": 75, "yc": 1},{"id": "d824b3e21aa54484a9f7f23d27fe53ce.16", "url": "https://lh3.googleusercontent.com/-CKJu1qQ3CLvIRZAtc1l4w5GVgBXP3RCk8AkeTrryfW6rWKIJRySnmIR7T4-0MPZF5U5CxE-Jg3sM0-9bgTmkiox0iLj1xkQNgq6gMbb", "name": "Ekelunds Torp", "lat": 59.29236100000000, "lon": 17.90795600000000, "bs": 307, "bc": 4, "rs": 65, "rc": 3, "ys": 39, "yc": 6},{"id": "e9d3330f7c0c4335b80655085c1ec661.16", "url": "https://lh3.googleusercontent.com/z9bcz5jWOPRi7OHzC7IJgiNWiQgkHwzOAGav7QTQVD7A4NjXLgpkrbWWdq68r9cX4p-6TnLmjbF8Z6Xk_WI1xTtMyK8", "name": "Den Blå Älgen", "lat": 59.37135000000000, "lon": 17.83975400000000, "bs": 84, "bc": 23, "rs": 7, "rc": 14, "ys": 4, "yc": 9},{"id": "f33c5b1ecd0f33ac80db47bbd613cfe4.16", "url": "https://lh3.googleusercontent.com/PJxcpd1_q0umzUuKDvtTHmDnULLtDfR2em7fOvNBrrIw8nRCsDyzwjuv4oLXQtHB3LfrBwt9rlSi621UYXyngeyJrmmc", "name": "Lambarö lastbrygga", "lat": 59.36597700000000, "lon": 17.81311200000000, "bs": 158, "bc": 10, "rs": 17, "rc": 5, "ys": 58, "yc": 7},{"id": "f4870a3dd0a54ba289a14f209d339d1a.16", "url": "https://lh3.googleusercontent.com/PiWv91n1pPJ-btb9VLDAbVPwUTxk9SJpyu0ic-1k61aKA26xJn5X0Usi6WIgU_ES9PpuLcDN99AmOuC1pJ8XDwUiY6w", "name": "Storholms Lekplats", "lat": 59.27320100000000, "lon": 17.89133200000000, "bs": 87, "bc": 20, "rs": 18, "rc": 19, "ys": 6, "yc": 3},{"id": "fe64dfc0492f4dc58da2bc53ea7af12b.16", "url": "https://lh3.googleusercontent.com/UpQg5HNVPsCFM-epL2VGaO8EDhlWej2RJJ2rRQBS4C-a1heK_Mp8I-BkahFgr1nM4oIrwiWlATfwmac5QOTxT0EwGw", "name": "Stekelhotell", "lat": 59.34860900000000, "lon": 17.93218800000000, "bs": 224, "bc": 3, "rs": 280, "rc": 3, "ys": 98, "yc": 2}]
