[{"id": "07bc172c8ca04496aaad629d6b429963.16", "url": "http://lh3.googleusercontent.com/TS_EPheUYi4qenMi0MpQg_us6xlpO01xY3u1Z_cQWz5-dJ_MOUrkx1r8JLmkzyf4nnj_ibiwY6LWxHXgskXMue5JM7w", "name": "Enskede Gårds Koloniträdgårdar", "lat": 59.28959200000000, "lon": 18.06462900000000, "bs": 4, "bc": 11, "rs": 52, "rc": 21, "ys": 4, "yc": 14},{"id": "09e21b7317604bdcb9840cfcf02767be.16", "url": "https://lh3.googleusercontent.com/qo_0GTkMNvCCw92-w-H7m0V8ZZlXOYezxtCpxHy8yYMREbc5Q-RhNojFLHXrFwhieWpEFBby0hB4q1uM7io1kCmKEkWo", "name": "Varning för stora barn", "lat": 59.30292400000000, "lon": 18.09168700000000, "bs": 3, "bc": 26, "rs": 28, "rc": 38, "ys": 7, "yc": 19},{"id": "20c47396fad3459fbf2888f52a675ccc.16", "url": "https://lh3.googleusercontent.com/hIwvfYK2YAuPssoVagMoLOU4LcakDOzHNFIZ3k4tHCHY0TXbT7S7u0va_Iz9qoKgZjr20sf4F32OURPdwgtyJvj7aeh2vmeblIq7VsDnLg", "name": "Tigers", "lat": 59.28374900000000, "lon": 18.04247000000000, "bs": 4, "bc": 50, "rs": 15, "rc": 67, "ys": 3, "yc": 40},{"id": "2457be009ae2457cab42693e96a150a6.16", "url": "http://lh3.googleusercontent.com/EwJJMJQGcbx6eHtQLxxbOdEdJmLuhHUmD5NAfn-LgVX1cYph2p_2UKZjAjUI2RdkdfUFkohaCWk0UR2qPgVW8Dhfhn4", "name": "Lekplats Ekebergabacken", "lat": 59.24974600000000, "lon": 18.10285700000000, "bs": 3, "bc": 46, "rs": 24, "rc": 48, "ys": 9, "yc": 3},{"id": "375fe272cc02447e86b613dbed0bb375.16", "url": "http://lh3.googleusercontent.com/Yu-AAAi8gHHIk6lyZ3zgfUfeWgwW_-RacdTalPnBoheIDZ1-m6PQSeA9-o4e8GJC57XJXnJxvtoJihbIgH3TEpmnlCE", "name": "Klätterställningen i Önskeringen", "lat": 59.26413800000000, "lon": 18.03722200000000, "bs": 2, "bc": 10, "rs": 1, "rc": 23, "ys": 35, "yc": 37},{"id": "527c4ae06d95464ba13e7eb9352e3656.16", "url": "https://lh3.googleusercontent.com/k0sHExgYUsGUzaBloK1-Gxp7Yqpv74riJWIsbbI_Ks9H398jAJkSUEoI5ID-9fPYdxj_TS77kHlv-aKG5YxukrsW6O4", "name": "Solbergaskogens utegym", "lat": 59.28540300000000, "lon": 18.00586000000000, "bs": 1, "bc": 13, "rs": 19, "rc": 31, "ys": 26, "yc": 27},{"id": "572bf80bfd7b4334b3bdddc9a0ad9654.16", "url": "https://lh3.googleusercontent.com/X73lPqbzVoTd403QjqGlyYXiUFRArM5wythdb4J5SMHXFhsdoL46s6PBjwY1Ne5kdNdAEkfCQJJevkCp2yvltnz7VJ4", "name": "Stålkonst", "lat": 59.34462300000000, "lon": 18.05053600000000, "bs": 3, "bc": 42, "rs": 7, "rc": 62, "ys": 11, "yc": 61},{"id": "7779d2075a3940d6a54bb04a7ba24309.16", "url": "https://lh3.googleusercontent.com/kBsWvQQFBYvlpXHglQ8ktGZ_J5DFwbf4Adl-jluX4ZmWWpYs7M62_mNutv0O_x1lHOWBggvByHAkR44WpE_wbfHhi84", "name": "Den två ögda statyn", "lat": 59.34655400000000, "lon": 18.09286800000000, "bs": 4, "bc": 49, "rs": 4, "rc": 42, "ys": 4, "yc": 28},{"id": "7ec01f8f8e4f4d8ea54c7d3dd617c8e9.16", "url": "https://lh3.googleusercontent.com/uZpzgWQcuDMw-Ujnu0kHjKRdn7w4ZhwNkBiidHheDhkwU64XB9Pc1q4Q79WjpiFdAsuYUCDpDWWcQ_U0SGBt8cNhiNM", "name": "Spottkoppen", "lat": 59.33024200000000, "lon": 18.05812200000000, "bs": 4, "bc": 150, "rs": 3, "rc": 135, "ys": 3, "yc": 118},{"id": "826b4be8272445db83150472d43aab34.11", "url": "https://lh3.googleusercontent.com/3-lZoWhNKxBDIgnJU4520yRFoFdjv_w0tvCmoZ0rapm_1qs1KHHZUFVrcr3fGUX591S4b4ojU6XZlq6srT_hqIkH0A", "name": "Mer än bara vänner", "lat": 59.30294600000000, "lon": 18.09273800000000, "bs": 3, "bc": 22, "rs": 41, "rc": 29, "ys": 4, "yc": 10},{"id": "a5237d85a0a94c16bb868276b4dbb4e0.16", "url": "https://lh3.googleusercontent.com/PR73WxM7MQm5_cO7rYV-AFO82CDseOfiIfocGnbLkJFYD6rHo0q2oG7WvGIzX28-ijJrB6IP_1dww9-VnhUoTgPY_coM", "name": "Klätterkanan", "lat": 59.29484400000000, "lon": 17.99729800000000, "bs": 3, "bc": 44, "rs": 8, "rc": 73, "ys": 8, "yc": 78},{"id": "bcba9c919cc44e28bfc9f3e087fee4d7.16", "url": "https://lh3.googleusercontent.com/241Rxj3R0yvqf04Qw9W-yFT-Mgf8HDFRRTtgIGzX7A4di94bbH8rRQTsmBFZbYr8XhreIymnn3Z2u8vD2u7uTNdaVw", "name": "Önskeringens Parklek", "lat": 59.26351700000000, "lon": 18.03730700000000, "bs": 1, "bc": 34, "rs": 1, "rc": 27, "ys": 19, "yc": 65},{"id": "d2af40f1852640d0b40d036b064ff8e7.16", "url": "https://lh3.googleusercontent.com/IoJKfWA1_WvOS2DKFPCxneGXyH8cRQv51hzstJ8WGzwjRPdI-AYgoMqugbSMJAekG71wgrRHMUE_Da-9UMUqktHgQmE", "name": "Vertical Landscape", "lat": 59.35591200000000, "lon": 18.08747800000000, "bs": 3, "bc": 96, "rs": 9, "rc": 108, "ys": 2, "yc": 19},{"id": "d39ccd7dcdc1494aa1cf5293c8b3a1de.16", "url": "https://lh3.googleusercontent.com/gaWDJhSgOGzzRWxfnPp86s8WzW0tE1_Pxfj6oxZi-3EQsoeZaRXf-wNAtLhDclr8hwey16-EWmNSR_BnK94Q7IzKKxE", "name": "Enskede Gård", "lat": 59.28849900000000, "lon": 18.06641900000000, "bs": 3, "bc": 7, "rs": 64, "rc": 19, "ys": 4, "yc": 13},{"id": "f483077c2f75408eb482f0487a9c8c33.16", "url": "https://lh3.googleusercontent.com/qo6Lnb--OqI67dpk3hZwrTVE8dJajso0KU6X0epqyiFyxT2Tilhu9Fh95tnt3P_CMAUapNMaz8lDN2SXLGoeZ8RgcmID", "name": "Orionteatern", "lat": 59.30827300000000, "lon": 18.09003000000000, "bs": 2, "bc": 41, "rs": 16, "rc": 68, "ys": 2, "yc": 47}]
