[{"id": "00b8c0fdd880426395237df4dca287bb.11", "url": "https://lh3.googleusercontent.com/LGhpAaEcf4xIY6AFDneEffqUPqWWdFmm-0ME2Owdg8dWX_fqBx2921IEcKR3LkN_tyt_lLevu9w7KnkLs3FruVqYJrw", "name": "Pingpongspelaren", "lat": 59.30816200000000, "lon": 18.06515700000000, "bs": 10, "bc": 105, "rs": 6, "rc": 94, "ys": 4, "yc": 45},{"id": "00f1129a1c2f4538b936da44f016c52c.16", "url": "https://lh3.googleusercontent.com/WWnfSZ1rAP_WwVPp2BiBa5pvhlfhiWd0sAxCGhEHpNXvj1DAzmGDkk4r5HyoHWpICSGc6k544ImvZecJaASl5zZseclo", "name": "Turtles, Tallkrogen", "lat": 59.27258700000000, "lon": 18.08032000000000, "bs": 12, "bc": 51, "rs": 13, "rc": 61, "ys": 9, "yc": 47},{"id": "00f7052dbbcd472398752931fc591f0d.16", "url": "https://lh3.googleusercontent.com/aIgO7vjE1ivq5ksD9co1MXVSoBLVRdTIO3QHuwgTrRa89QL9qnnQ9BKWPf-mQ1k1981CT3E8p-SPAfrd4NlUQ82XQgI", "name": "Playground Lappis", "lat": 59.37008200000000, "lon": 18.06601900000000, "bs": 18, "bc": 53, "rs": 10, "rc": 44, "ys": 10, "yc": 39},{"id": "01becbba29c24f87a7451bc62c94d35a.16", "url": "https://lh3.googleusercontent.com/sHgBAQJfa2wNzNM9NWGBHIpqsBcGj6WeQ304XRKuwsLm-86al-0HEQFftgxaKZvN6UJz0nhGB4FEoYpHl_vbWeQ2_w", "name": "Zebraffe", "lat": 59.34859400000000, "lon": 17.90133900000000, "bs": 13, "bc": 28, "rs": 11, "rc": 35, "ys": 29, "yc": 36},{"id": "023fd30c56784588ba1155fea5f9a66c.16", "url": "https://lh3.googleusercontent.com/A57TSRxQd39Rcru-KlK-YHX-mkA42ozbcQQleY3A4ktGeEeDzHu8W1u-QfL3OWFfDhtfSwHrim3XKcAc5MtL1k-zRA", "name": "Happy Thailand Mural", "lat": 59.28352300000000, "lon": 18.07294100000000, "bs": 18, "bc": 41, "rs": 12, "rc": 22, "ys": 17, "yc": 46},{"id": "0270b3884bb64815ad08f75b0c8988e8.16", "url": "https://lh3.googleusercontent.com/SBXfj68tQi9EVXM5DnQCY2BbXUBvetITd-A1RI62y4F-qmLVvXbj7Px414OBC5RN-BtmRlrubTSS5fPblSZRhyx000k", "name": "Bagisfontänen", "lat": 59.27743200000000, "lon": 18.13240300000000, "bs": 7, "bc": 55, "rs": 14, "rc": 68, "ys": 8, "yc": 53},{"id": "031171d74d25419287e9b7a3f29c27d9.16", "url": "http://lh3.googleusercontent.com/BU6GLZzJ-iYgB6LbMtG1NeHBRT4NQD8n4tb1c0Bf_Wu_r1TbmUrkpVoJh6yFb0F390CPqSURV-NKrhbfEoY8d1KmKsc", "name": "Jord och Gräs", "lat": 59.32489200000000, "lon": 18.08108300000000, "bs": 20, "bc": 42, "rs": 14, "rc": 26, "ys": 15, "yc": 38},{"id": "03d3825fa31e4d62a495d3849a1d2951.11", "url": "https://lh3.googleusercontent.com/7arBsoCKhUj0JTQtQZJe7_U7Fx-7ndkzpPvXPuX1E1S5C5olwOXLhEGaJMCXne2G3zTENoN4Pxc9y8meI4G959eczU3R", "name": "Chihuahua Statues", "lat": 59.29008400000000, "lon": 18.09365800000000, "bs": 16, "bc": 79, "rs": 6, "rc": 68, "ys": 3, "yc": 54},{"id": "045687132353408f82072eb7d69016c6.16", "url": "https://lh3.googleusercontent.com/Pg4kD8QyzLjnmaQ11g1Fqt9pG8LULvBKb1Par6BDdTpWXeiXPeUKlYcBm7f3DyMZJzhHJrtuMIscsaUpmCIWg-o-_sc", "name": "You Can Lead A Horse To Water", "lat": 59.30864700000000, "lon": 18.07236900000000, "bs": 24, "bc": 65, "rs": 4, "rc": 38, "ys": 4, "yc": 35},{"id": "04e470184dee4d0ca08d9b2f39c03896.16", "url": "http://lh3.googleusercontent.com/ni6h5wX-xKvkof_cTcDPSL4fbYMsuywy64E1kOE9bchBmhLedQ6NTSw4XCn5-TO_yonPnkLJYd6iISvNrZ2aej_fGw", "name": "Lekplats i Farsta", "lat": 59.24488700000000, "lon": 18.10046600000000, "bs": 7, "bc": 127, "rs": 7, "rc": 125, "ys": 2, "yc": 7},{"id": "05a1b71898404386890102281290d2ec.16", "url": "https://lh3.googleusercontent.com/IzfmU669pK7HXfPWCyxPWU4EF2dcQ7hsDzkNlJOEa7iweOUysHjZL2BWQs5HHkO7yu3g0spHHh5CmnxJ2xwG8p3rmQ", "name": "Kattscenen", "lat": 59.29746100000000, "lon": 17.99918000000000, "bs": 10, "bc": 74, "rs": 12, "rc": 53, "ys": 6, "yc": 67},{"id": "05aa621d758b4a97a7e892297a3ba884.16", "url": "https://lh3.googleusercontent.com/w-cLJgWNfM0hDnbv13KK_A2DcsiZDCeEnt-yTVUpr2_DYfv1MbUuAXlh8-usRgtJFAbqk9UTE_W00vhAxzX0EI2q3eg", "name": "Vinterfågel (Winter Bird)", "lat": 59.30773200000000, "lon": 18.09077600000000, "bs": 11, "bc": 63, "rs": 8, "rc": 59, "ys": 9, "yc": 61},{"id": "068513ff02543acb8d038ca986eeaac8.16", "url": "https://lh3.googleusercontent.com/11HVVfpphfUb9pHEhMO0gJvIfsn9xPPXmtvNVTBdisj8ec5d4nziZs0FUmnf2rg_xqCBU2C-kQTw_J-qucxxeOAwIs-pUElaNfxRz5BPoA", "name": "Dellens kvarterspark", "lat": 59.30030200000000, "lon": 18.04433800000000, "bs": 18, "bc": 28, "rs": 40, "rc": 30, "ys": 7, "yc": 12},{"id": "0703321eed744c579326c2f75f818286.12", "url": "https://lh3.googleusercontent.com/ZkTg9LV0DAIpcVfRhVazJte6sIM_aEenv7hRlvk3U8SlSuQX2q_VZoYr3Th7bOjm3irns8i2wmuAQpgC4Id--dtCQ8XQ", "name": "Air & Water", "lat": 59.33134900000000, "lon": 18.08099300000000, "bs": 16, "bc": 48, "rs": 15, "rc": 39, "ys": 12, "yc": 35},{"id": "07bc172c8ca04496aaad629d6b429963.16", "url": "http://lh3.googleusercontent.com/TS_EPheUYi4qenMi0MpQg_us6xlpO01xY3u1Z_cQWz5-dJ_MOUrkx1r8JLmkzyf4nnj_ibiwY6LWxHXgskXMue5JM7w", "name": "Enskede Gårds Koloniträdgårdar", "lat": 59.28959200000000, "lon": 18.06462900000000, "bs": 4, "bc": 16, "rs": 56, "rc": 30, "ys": 4, "yc": 17},{"id": "07d1be8007d94b42a3a55b4aebc38a7a.16", "url": "https://lh3.googleusercontent.com/wA3dqZ09EWy-GOyFCl90dazJ3uMLp2X-zLgSg3oG9eZwT2Ukn-Ku-lLyrNyJr3vtEkizTsWY6tUyBpWNUDQMgBLIBSg", "name": "Krusidullig Ornament", "lat": 59.33114600000000, "lon": 18.03028500000000, "bs": 6, "bc": 74, "rs": 5, "rc": 37, "ys": 13, "yc": 91},{"id": "08333f0e3cb54fada4248f95d21e386a.16", "url": "https://lh3.googleusercontent.com/N3SW2ZIKssjkPXPxJl3Hfw75Mm-hdQHTKY9n9HkM7MTGiiMpJ6up5qDhQbCdfzoYUDj05R2tqyDg9FTdJN7nWh5r3E0", "name": "Billie on my Mind", "lat": 59.28466800000000, "lon": 17.92005100000000, "bs": 21, "bc": 25, "rs": 32, "rc": 27, "ys": 19, "yc": 20},{"id": "09cf1ac140664147bbc54d9293849f72.16", "url": "https://lh3.googleusercontent.com/8o4AAyfgw43B_5oAaUFtOnubFAl_MKekWGjfuqLMZ0mtlGCH9L9xAhQYWx5ENmdDwbJ4WNRtW-7BEqFRgQ1DjzmNdYlB", "name": "Fröken Ek", "lat": 59.31161000000000, "lon": 18.02815400000000, "bs": 17, "bc": 20, "rs": 22, "rc": 29, "ys": 31, "yc": 26},{"id": "09d689d9a3e04f9aa5914a4a4e84ef13.16", "url": "https://lh3.googleusercontent.com/MiV5yC5pwbGIHiZROeC8o-fJ_6dlJlS6Eue3xgtJttvNb4RoNOrxS5B1AlyiD2aa7kDkH2q9G0hKBSgoqwlek1iYEOG_", "name": "Gärdet Subway Station Elevator Entrance", "lat": 59.34692300000000, "lon": 18.09969500000000, "bs": 6, "bc": 37, "rs": 3, "rc": 33, "ys": 7, "yc": 39},{"id": "09e21b7317604bdcb9840cfcf02767be.16", "url": "https://lh3.googleusercontent.com/qo_0GTkMNvCCw92-w-H7m0V8ZZlXOYezxtCpxHy8yYMREbc5Q-RhNojFLHXrFwhieWpEFBby0hB4q1uM7io1kCmKEkWo", "name": "Varning för stora barn", "lat": 59.30292400000000, "lon": 18.09168700000000, "bs": 4, "bc": 33, "rs": 31, "rc": 49, "ys": 6, "yc": 26},{"id": "0a6fdaa0f68c47ceac07afb13902970e.11", "url": "https://lh3.googleusercontent.com/882lMK4Y-VEVR7XmuqRNOINkK3nwC0xmPDWgxoDGWtB_BVyJ0AIpEjiXFSiNzqme11g68pXfjAou9LoHeI5FFpHPTN8", "name": "Grekisk-Ortodoxa Kyrkan", "lat": 59.34595900000000, "lon": 18.06256500000000, "bs": 13, "bc": 84, "rs": 7, "rc": 63, "ys": 5, "yc": 42},{"id": "0a8e3056cf904aa2a7166a876b308e22.11", "url": "https://lh3.googleusercontent.com/mylSYtsc29qV0AMPDUhDvJK8sVTbwayko6TvQ3qcFmyEU_YIotqxOmrYUdTh2BAd8o9QV7z4k8SVWBB0Dec4UznrUw", "name": "Fruarna", "lat": 59.28571900000000, "lon": 17.96328300000000, "bs": 13, "bc": 46, "rs": 17, "rc": 44, "ys": 12, "yc": 35},{"id": "0b1703b88eb2400cbcdd3fa68c10616a.11", "url": "https://lh3.googleusercontent.com/uIXDO4m8HQ-h1V3Mz2Mlod9URB48xSfbeSq0wf-9bgVqlGFINq2yv3Vs73jpKv9rBcI1mcgcv-9yuZxb9ltMznxhzWY", "name": "Stockankaret", "lat": 59.31514500000000, "lon": 17.98732400000000, "bs": 7, "bc": 39, "rs": 13, "rc": 41, "ys": 18, "yc": 56},{"id": "0ba344c8eb7e4f069660d3c1649c34c7.11", "url": "https://lh3.googleusercontent.com/o63yQvf_jvxMxbrJIOqffb_UFV4Ydg2GwXBtFftBvSQMf-1KveJR0qCkcjAEV5qNVptv47CslxvivhKp1zmwSZgNaBoC", "name": "Yellow Sculpture", "lat": 59.33815700000000, "lon": 17.93832100000000, "bs": 13, "bc": 67, "rs": 9, "rc": 59, "ys": 8, "yc": 50},{"id": "0bc61b22405a4cb3af05e12600243fff.16", "url": "https://lh3.googleusercontent.com/cW77_A2PUO56EVGzmxGydi747CmZ3KGlA3OAHmvt9McyMvDg8_yLZcSK494LrS27cMAFAt9mGxC4JDUAECGLeZAF6lg", "name": "The Old Bell", "lat": 59.36614700000000, "lon": 18.07513900000000, "bs": 17, "bc": 39, "rs": 16, "rc": 29, "ys": 19, "yc": 33},{"id": "0c243f69d2004672a3b3051a8efec2f0.11", "url": "https://lh3.googleusercontent.com/sgydVzoL22fn8ph_YwFYAtijNyZahrx3H-RRPxDvqYlrWXGYMSIaEElDPWss5rh9Qi71oTT6JyVNr5NhKPLr8BzVe1A", "name": "Katalanskan", "lat": 59.31660000000000, "lon": 18.05598900000000, "bs": 9, "bc": 70, "rs": 13, "rc": 75, "ys": 6, "yc": 33},{"id": "0c59602c044e43a480af3c82f755024b.16", "url": "https://lh3.googleusercontent.com/4RaYk6-V98OeOmO3Gux8u9ogCYmAhpriQGgZWUxdp1zSEQ1KLigU31A8qzdv-qIRrSW_183291Y8SZLj1lwb8JjbPQ", "name": "Sprallens Dansbana", "lat": 59.30375200000000, "lon": 18.07214000000000, "bs": 20, "bc": 42, "rs": 14, "rc": 35, "ys": 15, "yc": 30},{"id": "0d6cfbb4f4544f74a7a9de467b1e9234.16", "url": "https://lh3.googleusercontent.com/E-uAVvyDHv0sw2-dq5oZLmKqFeM3BRlMbUmwpncelPeQjE2s-rviQYVF5puhFA6qyQ_qx2SvBSThP-ZkqQ9Yt7KZFY4", "name": "Piren Restaurant", "lat": 59.33838100000000, "lon": 18.00139800000000, "bs": 20, "bc": 65, "rs": 7, "rc": 44, "ys": 6, "yc": 33},{"id": "0e64ada8987e4feb83460a0a8a093f60.16", "url": "https://lh3.googleusercontent.com/1hyn8vkGWs_WANka0G3XkX4H7F7RwJRRku-XxrY2qM--vZJQBHtGXapcXwk40Naok_LNMx5B23dfe1oLBu9JIdJ67A", "name": "Högdalens bollplan", "lat": 59.26597700000000, "lon": 18.04038000000000, "bs": 12, "bc": 44, "rs": 18, "rc": 59, "ys": 9, "yc": 25},{"id": "0ef69c53b0ad490c987c4f6da5109304.16", "url": "https://lh3.googleusercontent.com/m8ZEcpPD_62yp2d4wISSokH5J_ZKQce2bhEPA137hNPOlOr7a7vmCxe1p8d7z_WlVnuge3VGhQE_YAuRHgBeWRGEFF4", "name": "Tornberg 1916", "lat": 59.33275500000000, "lon": 18.07567600000000, "bs": 14, "bc": 49, "rs": 12, "rc": 32, "ys": 15, "yc": 47},{"id": "103ca165508945a882a0a1bc0c664748.11", "url": "https://lh3.googleusercontent.com/ZV0YwIOsU0RzJPCYikFap8NCI7PhG_pG_KGa01wchx5J6xawNJJdBRdQjqmrsFEdoQdM8HYINtVema_rW7X_yXOJaBY", "name": "Baltzar von Platen", "lat": 59.34757800000000, "lon": 18.07451400000000, "bs": 10, "bc": 75, "rs": 8, "rc": 59, "ys": 11, "yc": 51},{"id": "119e75e7b6224788806af37add216317.16", "url": "https://lh3.googleusercontent.com/mclB9tFGwAFqI7Ay-s2IktMfzlwCmPIo12dfEMJv_AF5RIGn0ndBc82ffU_4cIPpIWupAS1SLSz5ibG_stOlS0tCcHb_", "name": "Globen T-banestation", "lat": 59.29449900000000, "lon": 18.07827400000000, "bs": 11, "bc": 50, "rs": 12, "rc": 40, "ys": 16, "yc": 49},{"id": "123ea64125c7408081317d437e91bc20.16", "url": "https://lh3.googleusercontent.com/xW3pLdWidU6R-wXGPNDVzrdwrF4GrODxMdRwNTkssi4RVeTQ3jK_cyA0xyH8X2LarKsX6QmGk4RzHiYxVEohUR755Q", "name": "Insane", "lat": 59.32369100000000, "lon": 18.09566000000000, "bs": 8, "bc": 66, "rs": 10, "rc": 64, "ys": 12, "yc": 55},{"id": "126c1b5e712b43a7b573138c57a8d27d.16", "url": "https://lh3.googleusercontent.com/b8sBkVP4cfdsTFK5ApC-G6M6znrlpOWMOP5nUVQvBVveYquKE3x6Guo9Q-hh-LgXtDUFGbSvEEOnPqOua3mwY7SHHxtP", "name": "Kungsholmens Baptistkyrka", "lat": 59.33091600000000, "lon": 18.03539200000000, "bs": 9, "bc": 65, "rs": 4, "rc": 37, "ys": 14, "yc": 76},{"id": "12a9b18b6cc74650b03dc20dccdc26a9.16", "url": "https://lh3.googleusercontent.com/Qk71d86PWDB1sbO7_-1syRHTLKrLtgaYU2NdW0HV-LxPK_0fOgeSOtztvaLlrFLNxZPhnbYn8H8a3GDlnhdcaIuHCXA", "name": "Regalskeppet Vasa", "lat": 59.32810900000000, "lon": 18.09143700000000, "bs": 11, "bc": 62, "rs": 10, "rc": 56, "ys": 8, "yc": 50},{"id": "12e5151dea484f3e8ce1cb0b1e6d723c.16", "url": "https://lh3.googleusercontent.com/R8tS-eHTsp18hnMogd9jiwvBRf1G6LQG8s9Gch2oLS0lvPIrRd4zoRp-neMpm-TKOdgh0oFuNtDH34fQcCbpovlIkpk", "name": "BBG’s Lekplats.", "lat": 59.25507200000000, "lon": 18.11717900000000, "bs": 13, "bc": 26, "rs": 7, "rc": 27, "ys": 28, "yc": 45},{"id": "13ad2bd4f4a6415f8b386ba30e91803f.16", "url": "https://lh3.googleusercontent.com/cUP8gmsznmnLCjwM9DI-0_cuELZ6jBv_qKWgOO2TCWtNtysU3yCQiTO_ZNigHymwjh5MpjDMlvFOv-jLldlwd5g7GBDM", "name": "Tower of Mormor", "lat": 59.32079400000000, "lon": 18.05119200000000, "bs": 17, "bc": 44, "rs": 13, "rc": 39, "ys": 14, "yc": 39},{"id": "13d7ca59093a47008ede24a115ac7532.16", "url": "https://lh3.googleusercontent.com/GMFR_TQI-y8yw-nBZx65-UgPBvHhn6Y_YhOhC5NCBs_fnHDZwhOmq-0p3ikv6LtJqL1zjk_BVVo_42avzPjZBQosOB4", "name": "36 Flowers", "lat": 59.34473400000000, "lon": 18.05886100000000, "bs": 10, "bc": 89, "rs": 7, "rc": 75, "ys": 7, "yc": 61},{"id": "15d80f98a8a648a8a3e68f01b0e9a484.16", "url": "https://lh3.googleusercontent.com/I-ak-rWsN3j5M7KLKHGcmHwPPWaI-3vJFq0283AjycebZI9UTDEeqsl3K1jYwB1xEQM-9vsP86o7iuZIYDzJSDRAjw", "name": "Havsvind", "lat": 59.32940900000000, "lon": 17.98478900000000, "bs": 16, "bc": 67, "rs": 10, "rc": 53, "ys": 5, "yc": 41},{"id": "15dd52a112fa450889f6c17936debb33.16", "url": "https://lh3.googleusercontent.com/aL-owmBnkQp7hEU7Q6Bx_J2yPLO_gJGqm2v2AQa5NGxvE9u86uGqWnOzJZvE6fvH-AAZ9aDJO_5SZpr23TykIKmycoc", "name": "Paradiset", "lat": 59.33645100000000, "lon": 18.01322600000000, "bs": 14, "bc": 111, "rs": 3, "rc": 53, "ys": 2, "yc": 68},{"id": "15e4ef137a8141d0ae0f5a2e803fe053.16", "url": "http://lh3.googleusercontent.com/VKplwgrqQCY1nRIAv-E8EgZNrMWFEyiKajQsRavjAXqwa5cfthl2lNirhoOCF396hrT1m6VK00G6H2seGYsC6h_drpU", "name": "Kråkskär Emblem", "lat": 59.24493000000000, "lon": 18.09622300000000, "bs": 12, "bc": 68, "rs": 12, "rc": 69, "ys": 7, "yc": 17},{"id": "1715d4aa3e6a457989825d547d1bfe2b.16", "url": "http://lh3.googleusercontent.com/RCyxWS33mFW_Yh4F25aHjZJlbzEu3oqPzop2PQazRK5cXaT-e6VoNFeZMOnUT1qN9eFoWCiA_ZVfDp_PwiWSuRZdMw", "name": "Johannesgården", "lat": 59.25303700000000, "lon": 18.12847600000000, "bs": 19, "bc": 23, "rs": 26, "rc": 23, "ys": 26, "yc": 29},{"id": "17c925492db74ad2a942d7fc712181a9.16", "url": "https://lh3.googleusercontent.com/_zn12Xk96OA7gfeEc3bxB-JWLkiNOjCYjfF7qTyqx8ewT5KNJZ3hNQ4B5R6AHcn_SN7DalKaJeIs8BUxZ3VGeZA0IX0", "name": "Blomsten", "lat": 59.31797400000000, "lon": 18.03372500000000, "bs": 5, "bc": 100, "rs": 6, "rc": 89, "ys": 7, "yc": 106},{"id": "181670fdccec4600a0c542916756f299.16", "url": "https://lh3.googleusercontent.com/tdI7G1CP94IRpsfaBY1k9p2-mnCWUhB5wq2oUSSIDWcVQe4JlnNW5a48_8UhXuTlH_SqHdorgx16qRCD9-1MAjULyK8", "name": "Climb to the sky", "lat": 59.27834700000000, "lon": 17.98985500000000, "bs": 14, "bc": 50, "rs": 17, "rc": 55, "ys": 11, "yc": 14},{"id": "18c2f8f8d4004ffbba6c154982a7e3cd.16", "url": "https://lh3.googleusercontent.com/d_kbpsI9MRgJbxNxvea7lWRTVQnY5fWwGn-zAZlmCAwNAuh_7LBbYqCILONd9wtn91FZ9DeK4EF6f2UYE6012tuhRg", "name": "Det Litterära Stockholm - Harry Kullman", "lat": 59.30967700000000, "lon": 18.08245900000000, "bs": 11, "bc": 81, "rs": 6, "rc": 80, "ys": 7, "yc": 70},{"id": "18e8c664b5ae45e7b2d35c65cf0259d8.16", "url": "https://lh3.googleusercontent.com/MM7vtSfYx5FIcknOQoJL4sbnkF5m3rFwhnZtoRkc_0ahJwcLkbkzfrPD95nMjvg5sQ66MtK4hV4QtPqvn_HUuOEoN71h", "name": "Herrängsskogen", "lat": 59.27733600000000, "lon": 17.97672400000000, "bs": 21, "bc": 39, "rs": 14, "rc": 37, "ys": 12, "yc": 32},{"id": "193fe58632c946c0acf72a21c02506dd.16", "url": "https://lh3.googleusercontent.com/a1cwyBiMhL0G7UhVoTLKwT5-8r0iqCGKTcWhWcdEOX2DMKdRQGL6WWj4A2ri4B-QR-FsAKRoMBlLqRCB1zXY4NcQG14", "name": "Odlarens Dansbana", "lat": 59.25830400000000, "lon": 18.13216100000000, "bs": 22, "bc": 7, "rs": 18, "rc": 6, "ys": 105, "yc": 8},{"id": "19d6063261984ee2ad76e4f004a8ac0e.11", "url": "https://lh3.googleusercontent.com/R0oQWm9OLWJTJyWESVTtPY7LLHhXvIac80H7McEZxedESl-A4V9qnbWjHfx69Z_Z2sAENRILkpaU9oLqBwPHzwtIDQ", "name": "Ropsten Station", "lat": 59.35747100000000, "lon": 18.10327700000000, "bs": 9, "bc": 86, "rs": 8, "rc": 71, "ys": 6, "yc": 58},{"id": "1a894864e1e932ceb3eafe7138906416.16", "url": "https://lh3.googleusercontent.com/QEaZQmlwfXshcBD9w3jXFI9lY1KJtRKbcIYlq9ptOF60ufFpBBxMSk1rVKk_n9J5hr8JYsXcCpx67vi6DI9cE_Mz4k0", "name": "Just keep swinging!", "lat": 59.26247300000000, "lon": 18.08605400000000, "bs": 6, "bc": 34, "rs": 29, "rc": 48, "ys": 6, "yc": 28},{"id": "1af168831afb4d14a3d96d5ba104fa63.16", "url": "https://lh3.googleusercontent.com/z7aRTPHNWn-KSeldDvpQBWZCP8LSRAiy-AliyLnHuaY2jFlQbvRYkh9grYV4tiHcv9zgPfDEEPUAkziF9YSdNyagr3E", "name": "Traneberg fotbollsplan", "lat": 59.33659500000000, "lon": 17.97921400000000, "bs": 10, "bc": 59, "rs": 8, "rc": 49, "ys": 12, "yc": 67},{"id": "1c34cef129b54bcd87c29466e2e9c9da.16", "url": "https://lh3.googleusercontent.com/PCEbx_nSW4jR4NlXcE-EgSLqJxbWZlVu9VrH9BanVnNOFTouphXmzCaKjeTTxqqMLI_peciGkHOCbe0AuBd_lddtnJlG", "name": "Nunna", "lat": 59.31156900000000, "lon": 17.99952200000000, "bs": 24, "bc": 35, "rs": 20, "rc": 20, "ys": 17, "yc": 32},{"id": "1c78b26ec22e4cf1bb281f937dd34f6b.16", "url": "https://lh3.googleusercontent.com/NQJBCJNSQO4c5w-snQFHfaV_5zrQbvSlWvMuq9utbsQkTCLDeDBBx2IZor8gVFsZhF9RuXMeAsFwOfIvsc2TURji1CPa", "name": "Sigyn", "lat": 59.29408100000000, "lon": 17.97646400000000, "bs": 10, "bc": 54, "rs": 11, "rc": 39, "ys": 15, "yc": 56},{"id": "1d5b4d8e02ce4a82ac3cecdcf103c5fa.11", "url": "https://lh3.googleusercontent.com/mKqgONkk1XCa9g8o2ouVvFiJv40xn9vJSZ9YgMOraXE_lJsxtY9BdzqwQ43U4CgPDwBNrYn3Va_CTY1ONyHKLd1gYNA", "name": "En Röd", "lat": 59.31174400000000, "lon": 18.02146200000000, "bs": 17, "bc": 48, "rs": 14, "rc": 40, "ys": 9, "yc": 45},{"id": "1e7557d04e414932ba632fda4adc1386.16", "url": "https://lh3.googleusercontent.com/6RwMOR_fqoKL_vR4TXc81exG7udiksR6vbFJDOMGfdwJdcvAFgQ9WE7ttqUZXV6wxg1IcX7EpV2jOqLiTQYcIAu-nQ", "name": "Nybohov Turtle", "lat": 59.30841700000000, "lon": 18.01554600000000, "bs": 13, "bc": 76, "rs": 10, "rc": 51, "ys": 7, "yc": 46},{"id": "1f0bb2e6aac53b3985293f2e9f6277bd.16", "url": "http://lh3.googleusercontent.com/Fg_y2hAr3GYkvbpZiy7X0lL6Irur5jbo-x71gbEKB1POeVPjY6310nZ2OQ4aytzQ0rOH9X6wx7gGdy24AWTAFHiWIX1CZXOT-2lCchs", "name": "Lekplatsen vid Majrovägen 23", "lat": 59.26101000000000, "lon": 18.07956600000000, "bs": 16, "bc": 75, "rs": 4, "rc": 22, "ys": 7, "yc": 64},{"id": "1f18d6a965204187993b91680391a940.16", "url": "http://lh3.googleusercontent.com/iTLHU8_P5BrnEJNLgnTJ5-_tOI5k14TDX6o_EkGLs0zWu8GVTV7U75iUZMy5lXA2kjm0Ojc-sfdhtbLqJR8u5kYOP0c", "name": "Spelplan i Lindeparken", "lat": 59.29334100000000, "lon": 18.07106600000000, "bs": 20, "bc": 27, "rs": 19, "rc": 24, "ys": 24, "yc": 34},{"id": "1f2e0b4b70d64c24b7f8550c07fae41c.16", "url": "https://lh3.googleusercontent.com/LbHackOSvMcq4yaHIpdHbBVxWVhMhhppRRp-4dAZrb9hJEXHPRWP6uguMJzUHDl1xt6PB0jGHTnS6YZuGgJ6RKSLvA", "name": "Harpsundsvägen 51-53", "lat": 59.26273100000000, "lon": 18.04538700000000, "bs": 21, "bc": 39, "rs": 26, "rc": 32, "ys": 8, "yc": 14},{"id": "1f9aa54c3c8e43f3ad5e611972a703b9.11", "url": "https://lh3.googleusercontent.com/zdL5zs8SSrJIu6ViQ3nE-8arH8ewm9BnrOXJBS2TT38S3juHEYdtd5fm-ydiPNr-6KTYLU4shd8RK0RaUlotjBf1cPQ", "name": "Katarinahissen", "lat": 59.31993300000000, "lon": 18.07320500000000, "bs": 9, "bc": 78, "rs": 9, "rc": 78, "ys": 7, "yc": 56},{"id": "205d9d4fe2d04f7a97a1ebfa7bfdcfe3.16", "url": "https://lh3.googleusercontent.com/TydW3mGJffjzPXGZSLSAzY7CnbxnpBnsquDT80NPY06k5hRnU3isyHwBC_6YlbPcDt-9pyRLRLzQ_actQ742Z9tCYQc", "name": "Gravröse Från Bronsåldern", "lat": 59.36257900000000, "lon": 18.09736900000000, "bs": 27, "bc": 7, "rs": 111, "rc": 7, "ys": 114, "yc": 7},{"id": "21d8d3b6ed983655817e3e05888fed06.16", "url": "https://lh3.googleusercontent.com/SdvgOSMvRHjDwWtm8XlB_EgBEyOCa14VSbBljD1azoapvDODRMa1Qov1Vi-DFc1ATpOe3U7aL-HYsPf2gnIxqg22ObNftmR2o8rdoQg", "name": "Anslagstavlan på Hjälmarsvägen", "lat": 59.29884000000000, "lon": 18.05509500000000, "bs": 19, "bc": 36, "rs": 21, "rc": 37, "ys": 13, "yc": 25},{"id": "223b019f2ed14264a198e02c805379ab.16", "url": "https://lh3.googleusercontent.com/zLv1cH-suf8YScnveh0I8oPxT_I0orAcw3kC9LsDTcl92VPApzmThov4_xx197N_S9CMVxKS_TW6LQ9MBpw5lKe0RDbR", "name": "Älvsjömässan Fountain", "lat": 59.27702300000000, "lon": 18.01519200000000, "bs": 13, "bc": 56, "rs": 15, "rc": 40, "ys": 9, "yc": 53},{"id": "233f758b41e5432886462f70311faf4a.16", "url": "https://lh3.googleusercontent.com/30fxlhRK7YnnyiszDEPze6xk8qWD-nfwZ5PpC7Gj9nJlEcjEvap2nooWoE4s5BKDi35HtMHvRBdVQW_bTGqQN1w9Y9U", "name": "Liljeholmshissen", "lat": 59.30536300000000, "lon": 18.03604900000000, "bs": 8, "bc": 67, "rs": 10, "rc": 86, "ys": 7, "yc": 64},{"id": "238a2333fe64428ebbe26f4a41358d43.16", "url": "https://lh3.googleusercontent.com/D2rnJaBVsUMxxqQMlIoNUb7wk_FQ5xAzCNCMGZU8cFFj89av1x86r80gevlIRRNKbxiX3iF-4sjW8326mJ7g8dQHBwA", "name": "Triforce of Water", "lat": 59.34781600000000, "lon": 17.88404100000000, "bs": 8, "bc": 77, "rs": 13, "rc": 76, "ys": 3, "yc": 41},{"id": "2456d52086db4b85aa1c741dc6f9fcf9.16", "url": "https://lh3.googleusercontent.com/KkfzjsJmTdrmdgw7hSIqYpHSny8em6MO9sJ3DoBRz57zUu6AHjOsog1_vr6hwkNNtKHli-V_rkFNnF5-kCIq7jrVWkN7", "name": "Fruängens Centrum", "lat": 59.28597000000000, "lon": 17.96365700000000, "bs": 10, "bc": 58, "rs": 11, "rc": 65, "ys": 9, "yc": 49},{"id": "2457be009ae2457cab42693e96a150a6.16", "url": "http://lh3.googleusercontent.com/EwJJMJQGcbx6eHtQLxxbOdEdJmLuhHUmD5NAfn-LgVX1cYph2p_2UKZjAjUI2RdkdfUFkohaCWk0UR2qPgVW8Dhfhn4", "name": "Lekplats Ekebergabacken", "lat": 59.24974600000000, "lon": 18.10285700000000, "bs": 3, "bc": 73, "rs": 20, "rc": 78, "ys": 6, "yc": 5},{"id": "24901520b5e240fdbcb0f67d28a9a358.16", "url": "https://lh3.googleusercontent.com/wdYhvRMHvbN-PhxR-LIFUKkvwRM_WqBEe0bLZxGDgVrYA-MsUt8zzttPJ8Q1xbAXyVmoMQyHGqFG49a5nAsmB4mmNX_w", "name": "Askrikegatan", "lat": 59.34422700000000, "lon": 18.09759500000000, "bs": 7, "bc": 42, "rs": 15, "rc": 36, "ys": 17, "yc": 55},{"id": "2594c75cb8a5445a87cf9775cc23b6f7.16", "url": "https://lh3.googleusercontent.com/Oo8Xv6RP_w7UKpVfipoen3I-peNSQoOe9aHl1P-Q1pGcFfkqk5K8QArUgPOYwkrpAxvnxa2hH6-gpsbPZTF7nKJRVMs", "name": "Tyska Kyrkan", "lat": 59.32406500000000, "lon": 18.07137700000000, "bs": 5, "bc": 96, "rs": 8, "rc": 121, "ys": 4, "yc": 90},{"id": "278d1e9f610948aba2fc1ac326b7734d.16", "url": "https://lh3.googleusercontent.com/gyIdwsAhIfG-X57D-Sm4VBWis9KRGycpy1FJp28SHaf9wCjOehE0CEGDIkc-yfIBqNsSML8sc1LuqDAnx967SSU_X0o", "name": "Två Damer", "lat": 59.34223100000000, "lon": 18.08345000000000, "bs": 8, "bc": 72, "rs": 9, "rc": 54, "ys": 10, "yc": 70},{"id": "281221abb41447e38d9fe627177bec6d.16", "url": "https://lh3.googleusercontent.com/9XdnHEJlxtNmIHVAMSnmGZIayGfJi4m5HRUd6alzmlMPxDnmdSENBvn7vox9scZXARROuWHRxnZ_EeuKpjcLl9IiaAE", "name": "The Happy Frog", "lat": 59.27026400000000, "lon": 18.05044800000000, "bs": 12, "bc": 97, "rs": 6, "rc": 88, "ys": 4, "yc": 26},{"id": "2936d075389340a0bca63f4352327a8a.16", "url": "https://lh3.googleusercontent.com/1poUGSytcIuzXu-cCwoH6ejLHpznLowu7JehWkGUbFBKbWVw9r0v153Usjvu6NsJS3MJCf8mciy9gOuZcLF3J3D-jA", "name": "Kuben", "lat": 59.29356100000000, "lon": 18.04984100000000, "bs": 9, "bc": 63, "rs": 7, "rc": 67, "ys": 10, "yc": 76},{"id": "2983b372cd7d46928e6e58aada5d4b8c.16", "url": "https://lh3.googleusercontent.com/W2Poom3MHlkr9Ng0mE72Pu2osYzg5InyonJOIC5PRXp8Oo9eqNugXQ5XCHTre02tI-BZ8KmhTy7CRrCzEKAl-7-H3ls", "name": "Hantverkshuset", "lat": 59.27077800000000, "lon": 18.04539000000000, "bs": 9, "bc": 22, "rs": 8, "rc": 45, "ys": 21, "yc": 56},{"id": "29c66b578c274875b61525c56272b42b.16", "url": "https://lh3.googleusercontent.com/Mpip8MI5DSpWyzj5mZPkVZtZPpsC7b1Q8WyVWk4QsFLe0UIOoazm3oBf0DGhUbNs5y06AdFDqzTrjwFV49qEoJCddq3f", "name": "Tiny House", "lat": 59.28785700000000, "lon": 18.09895900000000, "bs": 13, "bc": 47, "rs": 20, "rc": 52, "ys": 9, "yc": 12},{"id": "2a1e5ab2381a451c9075bea1b112d571.16", "url": "https://lh3.googleusercontent.com/YQ_C0rcEsd5HJJA3XCUZtrZny1yNDZ2wAst1i_C0ErCLx2GtCbbM4qQbkk57ren0EUQS8T6TrB-FuZf2ASPvSuRG_Qo", "name": "Stora Katten Tinker Bell", "lat": 59.26904800000000, "lon": 18.05113600000000, "bs": 6, "bc": 67, "rs": 16, "rc": 80, "ys": 4, "yc": 25},{"id": "2a64fc801c4d460484cc18dbbd856a39.16", "url": "https://lh3.googleusercontent.com/GhZF5szHbr5eAv7dG0QTmASWcO3vCitD6wfBPabtXNIC-M1FrQxvO4i72qZqyNKJeWE7AQJ2LUqgxHiQNrTfFpUuKto", "name": "Färjan Till Årsta Holmar", "lat": 59.31100700000000, "lon": 18.04057000000000, "bs": 23, "bc": 28, "rs": 23, "rc": 31, "ys": 13, "yc": 33},{"id": "2c23b9709729461db96b0300892d55d5.11", "url": "https://lh3.googleusercontent.com/s-f67QNfGIqmWWrGOUqqvc8wRCdoRT_NG0tpxsR8SG7dhWaZ2DQ8lbTm6sZpe-M9sfRDwDqQJduyEI6KUrBPQnY3Kw", "name": "Commedia Aeterna", "lat": 59.31412200000000, "lon": 18.06972600000000, "bs": 13, "bc": 82, "rs": 9, "rc": 76, "ys": 4, "yc": 22},{"id": "2c440fa3c85743fdb10cd47097516afa.16", "url": "http://lh3.googleusercontent.com/FFgaB0PVC8gOyEaTqVrnYtqGXbOeJaRwczAaD-wSM0R7R71JDhW27muq3peP6HO-kXhJFm8CsAqk6_bjiGLqqN8yxw", "name": "Bredäng Church", "lat": 59.29577800000000, "lon": 17.93404300000000, "bs": 19, "bc": 77, "rs": 4, "rc": 44, "ys": 4, "yc": 38},{"id": "2cdc4aac66634488838c7e994901d2fb.16", "url": "https://lh3.googleusercontent.com/DsrA7e6QldQXIEv6sA-0zo2JrfDWKfE1QyO_AltiW7i9DWLh92ceZgmnVhe6dMR8ToeUlEAaxBky6j5ynUG7p0_F8dM", "name": "G2 Harbor Marker", "lat": 59.30522600000000, "lon": 18.08655200000000, "bs": 9, "bc": 102, "rs": 7, "rc": 89, "ys": 4, "yc": 57},{"id": "2e8056f6bea249eeb72eaf35bba390c3.16", "url": "https://lh3.googleusercontent.com/iFazFh3kkHl4cFKRqcl1iljkfhPwtwPnMudJHidoni0DNqCNGh9JluvA5GW47xWPqheLYJNLMUDqAh3NExqpbzZJhe8", "name": "Olof Palmes Minnesplats", "lat": 59.33659600000000, "lon": 18.06283300000000, "bs": 8, "bc": 123, "rs": 5, "rc": 80, "ys": 4, "yc": 86},{"id": "2ea3bee9c3184442884459103974cbc8.16", "url": "https://lh3.googleusercontent.com/OS3vWxZUzd0EALd25dhloIMUb3g_FDAswVhN5TYndtYfhNEyELGU1LjHiLHHZSDA-7Dx5MCMF62ufgs0EG09y1uLQch9", "name": "Kastellholmskajen", "lat": 59.32171300000000, "lon": 18.08951800000000, "bs": 16, "bc": 32, "rs": 16, "rc": 22, "ys": 31, "yc": 29},{"id": "2fbc570988554117b6f918142cbaace4.16", "url": "https://lh3.googleusercontent.com/l78Yjn-3VUqmeaqu5W4Q77soP9BdvHM50xPac4y0QN0MZe6SXj4A-8dtt6AqhJon32e7mliJMeBJCTPFqpn-LTu1Pw", "name": "Aspudden Bara Bågar", "lat": 59.30688400000000, "lon": 18.00726200000000, "bs": 11, "bc": 55, "rs": 5, "rc": 56, "ys": 12, "yc": 70},{"id": "2fc6d57b1eb84183818ce0f85847dde6.16", "url": "https://lh3.googleusercontent.com/i-ap0DuAS0esCo7DLcZVXHe9u6pDdIOid0KlN13adrXVc89nliiRvORsb4PElYwltMgWmXId24bokKm9lopYvJ1HBcfU", "name": "Ormen", "lat": 59.29402600000000, "lon": 18.04537400000000, "bs": 8, "bc": 57, "rs": 15, "rc": 64, "ys": 9, "yc": 40},{"id": "2fec6c7de58347f1bd4acb5767090170.16", "url": "https://lh3.googleusercontent.com/SQnzQMwTow5VRN1rLyeeemVTWqhBwC83gNZbvw0dICf3yNEH_w-Po2fO6uDOrz6un2bd5o3TfLaTxBKed9FTr9cS2w", "name": "Ringvägen 100", "lat": 59.30740300000000, "lon": 18.07526500000000, "bs": 7, "bc": 140, "rs": 4, "rc": 101, "ys": 4, "yc": 110},{"id": "30a71486975c4294add0807001394049.16", "url": "https://lh3.googleusercontent.com/gFBzTWCce6wpYoqmnak9q_0YxKSoU1GoA0b4oYMrn73njOB9XDtOVGoUf_ZllI-PBagtLNJDGO6h_NAdxKjZ46jzmr8", "name": "Sofia Kyrka", "lat": 59.31220500000000, "lon": 18.08793900000000, "bs": 14, "bc": 40, "rs": 13, "rc": 42, "ys": 17, "yc": 42},{"id": "324b86b293f04146a253fa79f53c6534.16", "url": "https://lh3.googleusercontent.com/MAf4GbP0ON6XHRtDuHE2XgsYAltR68nod8XFMfTt9vhpFEi624IkLZk3cN634gKQ-1A2v1RiaVad3dJWJgbCDZRD4A", "name": "Drömmarnas sjö, månen som speglar sig", "lat": 59.27880600000000, "lon": 18.00999700000000, "bs": 9, "bc": 94, "rs": 5, "rc": 75, "ys": 6, "yc": 84},{"id": "32b6816a08c74f468790d8c4c0392335.16", "url": "http://lh3.googleusercontent.com/2GzolyEVe-p9aY0DnShvSU-VhadbCCRHLxVWDMrlprx6KMeD2IrZ2OUyPL7aNPJFsCnnUiOTGNkLZO5HaY8uHXAGjw", "name": "Bromma Församling", "lat": 59.33787700000000, "lon": 17.94018800000000, "bs": 16, "bc": 32, "rs": 25, "rc": 36, "ys": 12, "yc": 29},{"id": "32eebff5453748a292f296479c58e9a4.11", "url": "https://lh3.googleusercontent.com/XbKMwGjVLpvZF08eAbU2jUEWOVpeTuay-_xQIaHCbMDgl32i9tJ_qrxripQjse4Hg7WcJ0MYJKli6y8R31-cuZLKYpE", "name": "Non Serviam", "lat": 59.33459900000000, "lon": 18.06566100000000, "bs": 10, "bc": 116, "rs": 3, "rc": 79, "ys": 5, "yc": 68},{"id": "33eb4653ce204268bf60cb1e4964d36c.16", "url": "http://lh3.googleusercontent.com/07TzKxQA5M67eS4onGTKb_HYEVqV20WsgwYzxRPISUklqNC9csKT64RWDKUnjzIaeZRVjc0yT6WaiNnJmtV9gj-M1njz", "name": "This is Stockholm", "lat": 59.31549300000000, "lon": 18.10353300000000, "bs": 20, "bc": 34, "rs": 19, "rc": 28, "ys": 25, "yc": 22},{"id": "3425f144a52e427dae91031c070efad0.16", "url": "https://lh3.googleusercontent.com/yuMogdQx_7sZYg4ZGQzVXcgKIqAbP5D2TbobEntjKVpMyf6ZTDiiHXA7aLj206y3EFn1cY9rH1--hUmPrgz0hf9b6pxv", "name": "Herrängens Gård", "lat": 59.27367000000000, "lon": 17.96085600000000, "bs": 16, "bc": 38, "rs": 14, "rc": 33, "ys": 20, "yc": 36},{"id": "348fa4cbbbfd429fa4ce3eb75b25cf2f.16", "url": "https://lh3.googleusercontent.com/cvj5eaexsPHKQoguOAT-gP50ytiW1UQ5vqMK7y1GNTwaFsx0kxki3q23SN5m6Tonb17ZAxgNTX3sr-n6wW3jknLeczd8", "name": "Västberga Begravningsplats Entré", "lat": 59.28854100000000, "lon": 18.01801700000000, "bs": 20, "bc": 24, "rs": 22, "rc": 16, "ys": 33, "yc": 29},{"id": "356cd8fca2104cc5ac0ed20d21f36821.16", "url": "https://lh3.googleusercontent.com/tN9Ns8Y56R5kxwrdfBUlEi-2me6Sw4fNL7j63KiqRgtMuVZzQk4h2Z5KtS5h7r3MWNAv79zG2DpxLISbxF7Go_3AqmA", "name": "Skeppet Kommer Lastat", "lat": 59.31916000000000, "lon": 17.98318600000000, "bs": 11, "bc": 51, "rs": 13, "rc": 59, "ys": 12, "yc": 39},{"id": "36608053ed8d4072a872499c436b17b2.11", "url": "https://lh3.googleusercontent.com/_E6tJnMbdxFAzW8MWu9EOobhIP4CJioG0SDYt_4f0gYZvtsxxoE0J8CLru5UOJaMaDiWDWpFyQOlLY3qLI2VxGK4FRo", "name": "Gubben med Geten", "lat": 59.29230300000000, "lon": 17.96821500000000, "bs": 19, "bc": 47, "rs": 11, "rc": 37, "ys": 14, "yc": 37},{"id": "371576402c354588bfa2156bee040178.16", "url": "https://lh3.googleusercontent.com/5MxiyAiCEH3cHn9tkApqLQzb9XO14Uy0fysp0VdCwEc1jlh_ocQI97Xf5qoL06GM8CojqDNHuiukX16F2XcjYNcPsOw", "name": "Lejonväninnor", "lat": 59.25646400000000, "lon": 18.10663000000000, "bs": 17, "bc": 43, "rs": 9, "rc": 27, "ys": 20, "yc": 40},{"id": "375fe272cc02447e86b613dbed0bb375.16", "url": "https://lh3.googleusercontent.com/Yu-AAAi8gHHIk6lyZ3zgfUfeWgwW_-RacdTalPnBoheIDZ1-m6PQSeA9-o4e8GJC57XJXnJxvtoJihbIgH3TEpmnlCE", "name": "Klätterställningen i Önskeringen", "lat": 59.26413800000000, "lon": 18.03722200000000, "bs": 2, "bc": 16, "rs": 1, "rc": 28, "ys": 36, "yc": 47},{"id": "3772a5cbf65b4b199f6f45a9ccd51952.16", "url": "https://lh3.googleusercontent.com/PB_oZlVOFsTEdHPielRTQon_WrChw0BjkVQLvJn5vm1oqVbtKxkCCkj6B9I5qVO9lQ0QQ2EBRidDFYk4HD9dMWkX_w4", "name": "Storsjöparken", "lat": 59.29717400000000, "lon": 18.04385900000000, "bs": 21, "bc": 42, "rs": 19, "rc": 40, "ys": 16, "yc": 9},{"id": "391ca972ae714bcabf9d5a1feed76fae.16", "url": "https://lh3.googleusercontent.com/keozzGTT-8sRvbMdU_tzJU-dCp6aUgwJzJQ-KSG_xCnxIAPPPewyfgf_GwmUVLG8QBhSA4UQFtRGz-647GNFjTwGoA", "name": "Smygande Katt", "lat": 59.28370100000000, "lon": 18.11539600000000, "bs": 8, "bc": 53, "rs": 8, "rc": 42, "ys": 15, "yc": 68},{"id": "3950456d8b6241f689eb5b01964c6bf6.16", "url": "https://lh3.googleusercontent.com/iG-o_0Iv8gwjP2WVFSpMxJFn4zyVgFg8o3PF6tgfW2fB6NzbSH9S6GELKosoqcS0umZt1aScKv9DjnKqXDvlh9nhdjs", "name": "Svarta Elefanten", "lat": 59.30900000000000, "lon": 18.06017100000000, "bs": 17, "bc": 40, "rs": 18, "rc": 35, "ys": 13, "yc": 34},{"id": "3974d24a929346bbbb8a8d5c272c213c.16", "url": "https://lh3.googleusercontent.com/cTXSQ_E7iJLo-PvvcP-y1_lejfyP4iSVmbFl0uozc2_XVEJqQtCeeDvFViQhmIuSmXK5rhyO-rtMHNvVByCjxbfko1Q", "name": "Seismisk Komposition", "lat": 59.28382900000000, "lon": 18.11367100000000, "bs": 6, "bc": 60, "rs": 13, "rc": 85, "ys": 7, "yc": 47},{"id": "39a18c3c9f1334019bd8eca1a25b0515.16", "url": "https://lh3.googleusercontent.com/hwHd-hip_0u_FA2QJQlX0fzHqEjH1cLexebIZgrnUoiHP09rBJp_R9b2nmbseIm0QeGHzmp9lwNwE5kzIwb_bDRFvWHf0-PfJiAdDns", "name": "Knattemålet på bredaröbacken", "lat": 59.26654600000000, "lon": 18.03439000000000, "bs": 14, "bc": 67, "rs": 2, "rc": 34, "ys": 11, "yc": 66},{"id": "3b2e4ca631d74e948e5794c7a2e668fd.16", "url": "https://lh3.googleusercontent.com/w-YD7qYYY1M24COX0YetgGrJQebK16U5AmDIgqJTSCcy4w6bbtXPx-Ljvm5b9LTIwzz0_PoH_20Zr3PPfAxUk37G5aw", "name": "Katt Less På Hund", "lat": 59.30620400000000, "lon": 18.02702600000000, "bs": 9, "bc": 64, "rs": 13, "rc": 78, "ys": 7, "yc": 34},{"id": "3cd45e74898f4bbf9c44103ef3014401.16", "url": "https://lh3.googleusercontent.com/znxNj3IY859y0gc1uBEk0v4tGWuZN-mam9vboT_GX88apLJqAhKFMrSjXBJa8YpnDJVK-hRL8T0hNKVYqhG5QsxjC3c", "name": "Guldkronan", "lat": 59.32730200000000, "lon": 18.07904400000000, "bs": 15, "bc": 30, "rs": 28, "rc": 35, "ys": 18, "yc": 17},{"id": "3cd943524b41465f855c283a49688721.11", "url": "https://lh3.googleusercontent.com/Jw5nElLMvSQtaz9k5uCDet7uhF6YCCsZkraBYurx9_TtLdkMxOG4iYMlKm1lkjOnJEKYJo6VUJCRVUQwb8V5ewjcRDU", "name": "Nils Ferlin", "lat": 59.33154600000000, "lon": 18.06070700000000, "bs": 6, "bc": 147, "rs": 4, "rc": 121, "ys": 4, "yc": 103},{"id": "3d16ae346a5b41449495e7c306ce727d.16", "url": "https://lh3.googleusercontent.com/GmlAQQRbvWhGGtd-oTIbZyuNzgg_yjDTdQcUNc9MnzHNDzutCmD0W3hMFJSPJ3_6hrTRuPQ4d4EHHoLCALtWRXpzrw", "name": "Stenfiguren", "lat": 59.29830900000000, "lon": 18.04952900000000, "bs": 21, "bc": 67, "rs": 5, "rc": 49, "ys": 4, "yc": 25},{"id": "3d3256d84efb4670bfe242b7aad77b40.16", "url": "https://lh3.googleusercontent.com/tnu6IgTdeRfQqb0ZP7Fbaf7OS0KCHGUzsN1flv1XikweJpmpn5L1Kb7RhKJISi7wAkqZ-4cTgSqvkuRpTfztQfTkAzeE", "name": "Exercise0r", "lat": 59.31552600000000, "lon": 17.96584400000000, "bs": 17, "bc": 28, "rs": 31, "rc": 29, "ys": 17, "yc": 23},{"id": "3d5f2f6d456249049b8cd554b4e75c28.16", "url": "https://lh3.googleusercontent.com/5zaPsaFpPgDY9wpROIZ1zri1S1jClwB5TXLYPujbPdO6gWGY45_qgn12anMuHaLeIp3q4zO47hF0-6ZOfSv7LgEms0Y", "name": "Hunting Dog", "lat": 59.34313900000000, "lon": 18.03627100000000, "bs": 8, "bc": 80, "rs": 8, "rc": 51, "ys": 9, "yc": 86},{"id": "3d7fab69b3af46618294c11b113a89ea.16", "url": "https://lh3.googleusercontent.com/pdF7FpwGdqqZOIZbwxdDSlpvj4jOecZ9OloakP5Kyc69Qio748nRfhczi1HbYfWOceoAo3wnUXsHW5hrrDRFi4poJg", "name": "Tiger Sculpture", "lat": 59.25753700000000, "lon": 18.07626300000000, "bs": 24, "bc": 19, "rs": 41, "rc": 24, "ys": 23, "yc": 12},{"id": "3e04c82c33e549bc8ac6b4243c02c5fc.16", "url": "https://lh3.googleusercontent.com/dAk_DB86t0umN9tZgwbtf4SOW0NjtWRfzeBNokAmKpHTBUnB4kX2rZTFy7svT_wzthUGRR4dvO20aPPJqZUP7bXirg", "name": "Två Myror", "lat": 59.34223400000000, "lon": 18.06451500000000, "bs": 7, "bc": 55, "rs": 7, "rc": 56, "ys": 12, "yc": 80},{"id": "3e1bc9d8d8bd4fbf967f7df0cfb8a50a.11", "url": "https://lh3.googleusercontent.com/ToRkVycmpmwyzeCJdLq5p1fko-B3lk-mqwDk4ArXpT1WHFtCk9gRyqnvZKG98E8PbTJNsdnM-vz2LCDUupT1X6KJ3Rg", "name": "Two Big Feet", "lat": 59.30923100000000, "lon": 17.99682400000000, "bs": 23, "bc": 52, "rs": 8, "rc": 39, "ys": 8, "yc": 34},{"id": "3ee59d68805f40caa3eacbbdc4734d7a.16", "url": "https://lh3.googleusercontent.com/A9DRHj_0SdMoEr1Sabr3vtmtGNy7hoJ-mRZxAA0H8N7br6zWzaBh_b75vSJWJE-d6-Aw-zLfWhj7l4Edvb_nN7l5ASFb", "name": "Old Mainframe in Entrance", "lat": 59.34925300000000, "lon": 18.09950700000000, "bs": 11, "bc": 37, "rs": 20, "rc": 51, "ys": 9, "yc": 37},{"id": "3ef749de662e4f8abad3260b37163002.16", "url": "https://lh3.googleusercontent.com/sM4RFLr4_RqEd1Y0q0QnvuybDh2z1vo-yl6twEg9Az3GdpMNH7hUsZImIlWIRzAlpFGlqL8-Ezt4K25Hrs2lfnlO6A", "name": "Sample of a Distillation Tray", "lat": 59.34952800000000, "lon": 18.07364100000000, "bs": 15, "bc": 58, "rs": 15, "rc": 50, "ys": 5, "yc": 37},{"id": "3f36c8a78bfb4d4ca2617987adc9de90.16", "url": "https://lh3.googleusercontent.com/itou2RH5x80XLMjkz4PDo0OFld2me-ciFcI3yW4JQHgtRPqqb6DRpBx7MdPHuyb2gz-C7bxKLu4Ty8sC09g8FnU8Eg", "name": "Flicka Med Bronsfackla", "lat": 59.32669700000000, "lon": 18.05355400000000, "bs": 21, "bc": 54, "rs": 7, "rc": 41, "ys": 8, "yc": 51},{"id": "3f6c4ef016b64d78bf44d8207a1b1de7.16", "url": "https://lh3.googleusercontent.com/dS6ThJvnXG32DRTwFam1UiH90-PKaYvfILyRAa71lp4yG3xlOL-7ot2dmK6iJ0etBUr0K7S04PwqTwVkbFgMBBS24g", "name": "Stjärnan på Toppen", "lat": 59.35398700000000, "lon": 18.04787400000000, "bs": 19, "bc": 25, "rs": 33, "rc": 34, "ys": 11, "yc": 15},{"id": "3fe2ab3b5d79484abc2abbfd893b6983.16", "url": "https://lh3.googleusercontent.com/TAKvB6M65sAfbnWXFHPx8pVykOtXtmshrNtnyWq48Tzcyvhv34_F6PNs-ywGPs8Fr2Hkm72u2x2kYiMoL8051M5EDvQ", "name": "Märta - Norges Kronprinsessa", "lat": 59.31665500000000, "lon": 18.08432700000000, "bs": 11, "bc": 50, "rs": 15, "rc": 47, "ys": 10, "yc": 50},{"id": "403abfb0c0fa4624bdf48581c9839292.16", "url": "https://lh3.googleusercontent.com/Mt16pQQoU6FMBEGQatGRHBZpKP78TPfzFuX9w6OwPLN4SF0oFrrRaZ2lfs_erFUV9czmkwffdGjY7msktjy6ALJoiQ", "name": "Kikande Gubbe", "lat": 59.25220300000000, "lon": 18.12769900000000, "bs": 10, "bc": 24, "rs": 13, "rc": 23, "ys": 30, "yc": 41},{"id": "4138781e979048cfb75d92ed198bcfdd.16", "url": "https://lh3.googleusercontent.com/8FreskoxQkrkTpR4YZvGykijTwnDSMaFPu_BXT9iiQAM0GYJ09JQ-y_pz2kbbt7qqnp6ytCSMXJoDWUYhJddBntLevBA", "name": "Vit Blomma", "lat": 59.27890000000000, "lon": 18.09150700000000, "bs": 7, "bc": 19, "rs": 7, "rc": 21, "ys": 44, "yc": 34},{"id": "416b64e5ce024de485200f176b125dee.16", "url": "https://lh3.googleusercontent.com/Xl9id1QaP9Mr7NHd4NtGtsdht0nKNHlecPwndcVaY1NvIehESmlamYGO5fG51jmPj1A6TuWAHpzoTjmkkNRBz8RNYiI", "name": "Faces in the Sand", "lat": 59.33933400000000, "lon": 18.03161300000000, "bs": 13, "bc": 44, "rs": 23, "rc": 47, "ys": 6, "yc": 22},{"id": "41cb0b31b1d04fd09b8de7dda389c3ed.16", "url": "https://lh3.googleusercontent.com/7aWoh1Ei1IDoDmGpyWC-UexyaCWyiAZxoaz9Mg6KtJ9_EyIuTEXZRijd713vrxtsUnAGgQINSZsHCc18AOrQSBZk86s", "name": "Fondueboden", "lat": 59.34530200000000, "lon": 18.04082400000000, "bs": 7, "bc": 85, "rs": 4, "rc": 37, "ys": 12, "yc": 89},{"id": "431c26996cdf45688981b53de296a76e.16", "url": "https://lh3.googleusercontent.com/_jQjI6dMoyBsWswVDAb6-gwG2E0kUv741K31QEWr031pH1qb_NtU61SedDYB3taPLuR1zWHYVvrLwoCWfcO5lMo7fTA", "name": "Here we are, listening and whispering, like forests speak with the voice of rain", "lat": 59.25951000000000, "lon": 18.12721400000000, "bs": 6, "bc": 78, "rs": 4, "rc": 67, "ys": 9, "yc": 116},{"id": "43cf7737d3de45b08e2514b5043a167a.16", "url": "https://lh3.googleusercontent.com/JGg2T7sOE-MxW7EVUzu4aeqTZYEskqkgLZvmGMZ9PSVzW1naFZO2mbkw8VdasP5FBLn3DBWb3hqHJ23PAo_duWHiSKE", "name": "Ekensbergs brygga", "lat": 59.31559400000000, "lon": 17.98819100000000, "bs": 16, "bc": 44, "rs": 17, "rc": 39, "ys": 12, "yc": 37},{"id": "44061382d20d48b5b20ede3a1eba1bba.11", "url": "https://lh3.googleusercontent.com/7O97nMup5g25Cv-BzKhz7PAkbGefQ5lQhi1MQDNpUr0mSX4GKdDfWjWadL_uvLbpyDfX616_YtNtIYKzHKPhCC08t0I", "name": "Instabil", "lat": 59.30690000000000, "lon": 18.10706200000000, "bs": 21, "bc": 25, "rs": 19, "rc": 30, "ys": 20, "yc": 35},{"id": "44745b6d5fbb47c983633f0461a84557.16", "url": "https://lh3.googleusercontent.com/zxU-9_U3UxI5goNiG8X7LRPi635-hYcNOZH8YcYAmRSTNGeRL8M_s4rQTcWapIx8jZW5X136T1s_djIWKulzXKtazco", "name": "Dancer", "lat": 59.33902500000000, "lon": 17.94000100000000, "bs": 10, "bc": 50, "rs": 15, "rc": 48, "ys": 10, "yc": 58},{"id": "450a881cdf184b7ab7f38ab5e24587f8.11", "url": "https://lh3.googleusercontent.com/Tyt1F0rKcKHescOaQXI5s0p4Bxp8LZdBa4zhaveIaRcMn45enCCeu7AQFz-UjZDPs1-tQ3AdThRP4kjEzwr_qeUM5CM", "name": "Ängbyklockan", "lat": 59.34666600000000, "lon": 17.89055500000000, "bs": 16, "bc": 27, "rs": 20, "rc": 12, "ys": 36, "yc": 30},{"id": "45d639df8b3a453aa5494b87e8759786.16", "url": "https://lh3.googleusercontent.com/_aKBhAIS5AmjQc10H8N5uXxWxrmz4bL0rQvDe8-P4KYJyOKwMn91so4HntXIgG-cLx3wS9iiknqtSHui9pQdYl9fc9o", "name": "Hidden Snake", "lat": 59.28738700000000, "lon": 17.99987200000000, "bs": 16, "bc": 24, "rs": 26, "rc": 29, "ys": 22, "yc": 30},{"id": "473ce5ed6cc349c9b5653dab87bbf08d.16", "url": "https://lh3.googleusercontent.com/B71_S-dsYsT7ucHJlPBpFzZuLDH5U3zzhlwRG3zpdSs74exbah5oomn0miUNzQ3T2M6PoN5B36ifmIoqn-vq215l9C0", "name": "Mighty Pump", "lat": 59.32295600000000, "lon": 18.10134400000000, "bs": 13, "bc": 18, "rs": 25, "rc": 37, "ys": 16, "yc": 28},{"id": "481a4e60ea3443499ef38b6f2b033520.16", "url": "https://lh3.googleusercontent.com/OakuwGxWalx0nta4oOiBzejFC9WjJgcuDIoZb3ubmU9Fun-iNOUlJDRTvRfg-PsSa3EWLWe2EkLV1W6HEDO8ZCAFk4A", "name": "Steely Thingie", "lat": 59.26044300000000, "lon": 18.11939100000000, "bs": 8, "bc": 88, "rs": 2, "rc": 25, "ys": 12, "yc": 89},{"id": "48420ad1c17e4a90abc708a2e13e655d.11", "url": "https://lh3.googleusercontent.com/ovx-pjJsWvS_yHFNgPG9ld51xXNFGyCSp-4sl1__oS3mNpFbKSwNOp-7LtD0-RVsA4GkAOcheu0hkvOFY7ZOWQO3MQo", "name": "Lars Magnus Ericsson", "lat": 59.29869600000000, "lon": 17.99596700000000, "bs": 10, "bc": 75, "rs": 8, "rc": 64, "ys": 8, "yc": 58},{"id": "48439ed932f445f4a096dafe66fcf709.16", "url": "https://lh3.googleusercontent.com/Pce4HFtE3KmyqKXKQDBd5eCUGFIHQEoxUYsdZqIXVSyDCXPF72CQQI-AzbjGpDgCEXcNOZsPbBQZsBdoC2IoWobFrk4", "name": "Marmorhäst", "lat": 59.26622900000000, "lon": 18.12822100000000, "bs": 11, "bc": 66, "rs": 7, "rc": 29, "ys": 12, "yc": 72},{"id": "48fb1a933d5f4589afa2cf17d2de6834.16", "url": "https://lh3.googleusercontent.com/8cZQ3TQQLsuLncqKb2KkT9Z-uKZKdjyqhFUydqRgi749YMBI1DlNL0N5ZNGM2fPhW-3LBMI45a6jEgthnf2xcAVzxrY", "name": "Mälarhöjden Bell Tower", "lat": 59.30060200000000, "lon": 17.95669600000000, "bs": 22, "bc": 30, "rs": 25, "rc": 25, "ys": 17, "yc": 31},{"id": "496cbc265ac5401fad2b927c33030117.12", "url": "https://lh3.googleusercontent.com/DTtcs2c5KO1Lhwf1RqWnDeAh9xGk1bqZJFnw1vUpWyoyGKL67cqJueH9msLUpGHwAoT5nkpr3gvhcxZ7TK7PHDJyng", "name": "Familjegrupp", "lat": 59.32318900000000, "lon": 18.06814700000000, "bs": 8, "bc": 84, "rs": 9, "rc": 73, "ys": 8, "yc": 62},{"id": "49aa49a492444762ab16977f2b09c023.16", "url": "https://lh3.googleusercontent.com/vF1zDx8nma53ruN-c8Ou9Vas19-QcFaE9rYtyM9xIta79n0IgiKdc0kP8w4LOsEC6vRMLo7Uxd5ID3zgKKELLPajark", "name": "1917 Clock", "lat": 59.33578500000000, "lon": 18.03139900000000, "bs": 16, "bc": 85, "rs": 5, "rc": 55, "ys": 3, "yc": 47},{"id": "49b249507b8d4319b1c483c29cd75800.16", "url": "https://lh3.googleusercontent.com/_ophnGoAa72Exv2cEtQ-aVjcsUw-oY9xeGV7Y06m_BY8RAzfFAT8rCWzaXlRC6pzLbuT5kVrZEfa_YMOeFlp_2Bl1AaSaJ6FDORyDYTR", "name": "Grytet lekplats", "lat": 59.26830000000000, "lon": 18.03509300000000, "bs": 6, "bc": 28, "rs": 26, "rc": 55, "ys": 6, "yc": 31},{"id": "49c0f00fe17442428129e0b6ae4dc619.16", "url": "https://lh3.googleusercontent.com/28A5YoYE-IoT2FOQI4Dcb3YOy5S-J0092eQIeTQfoFxFiY47vG9zs4H0oWYMEUabVZvWZ7RuwxLFk3xuEWgbCUggzw", "name": "Groda", "lat": 59.25619200000000, "lon": 18.11685900000000, "bs": 10, "bc": 46, "rs": 9, "rc": 29, "ys": 19, "yc": 54},{"id": "49f64ee9313143d2b155ac6bf31d4cca.16", "url": "https://lh3.googleusercontent.com/l_6Tn_3x5I3kIRifbk6343PzOND9TIsXO5kFPEt7erSa1QaR4qygPczok6gVTer0t896BxQcLbDlaEBQUD9kJxcwhg", "name": "Parkleken Stacken", "lat": 59.26035800000000, "lon": 18.00622700000000, "bs": 19, "bc": 34, "rs": 23, "rc": 37, "ys": 20, "yc": 15},{"id": "49f9cb29495d4b498862b653f27e40fd.11", "url": "https://lh3.googleusercontent.com/26EKkBF37qOBlotFON2tMrdKaRmLHc3jelr0BZvIJAdZVly03zpIPCv5ZNVNuKqVGd5T3UaFfYGuOjgCOQN8bY9P7hpx", "name": "Runa", "lat": 59.25159800000000, "lon": 18.11699300000000, "bs": 22, "bc": 28, "rs": 32, "rc": 31, "ys": 14, "yc": 11},{"id": "4aba84c0784348b2b18bffe1aa5184de.11", "url": "https://lh3.googleusercontent.com/tkdvj_L2ipwqCqQEHBdWv6zmVwKrkV1Lf7gn9PJUdzd85LFoxqGRDgHnzoMFvGOev1KSF0ZBTZ7_3iVEojNqo73yOpg", "name": "Malangan", "lat": 59.30999000000000, "lon": 18.02770600000000, "bs": 10, "bc": 34, "rs": 25, "rc": 41, "ys": 17, "yc": 26},{"id": "4aced9e59eb94b7d869669014a49bb3c.16", "url": "https://lh3.googleusercontent.com/GvlkAf6oGvsjcaZgdzBdcqe5TEC4I4U0-iWN_rX64VZusK7QGfpmyqyTSzPTWWMo2kkNxjtjObCnkTSYcDIENDt42w", "name": "Klara Kyrka", "lat": 59.33117500000000, "lon": 18.06154200000000, "bs": 16, "bc": 64, "rs": 8, "rc": 43, "ys": 8, "yc": 48},{"id": "4b466bda49904e02ac64410ec27a3a6d.16", "url": "https://lh3.googleusercontent.com/L45vY-o28Fhj00hI3tOMtNj7oaA3CzTGkbaqfRpT93cazLiTwXClAT5-CX_bFPBPfLOvsQNUvvI_g4fP35Y_x7K5-gI", "name": "Laduplans lekplats", "lat": 59.27218800000000, "lon": 18.11220700000000, "bs": 18, "bc": 25, "rs": 33, "rc": 30, "ys": 19, "yc": 18},{"id": "4b4e93501fbc4f9e9a364b44964fd58e.16", "url": "https://lh3.googleusercontent.com/k9UGZsflhQHvjE_38oZhh7z-ltUFZ7RJozQSGiYnwBD6pjswdBekKURjKLZPLZPYOHhXf8FS6VRksQTep3cneAuJJ9s", "name": "Tele2 Arena", "lat": 59.29192400000000, "lon": 18.08255900000000, "bs": 9, "bc": 58, "rs": 8, "rc": 73, "ys": 12, "yc": 55},{"id": "4b5046a66d764eb2b8e1bac53a940e59.16", "url": "https://lh3.googleusercontent.com/23B-HN2HgX4cB4cEo6MEYG-wScEmuNRxJ7RZ8c-ZkZFl7vOvnaBJa-UHBZnCaq1XiO6xxoGbVPLoK-zInz18JQNjBO8", "name": "Lekplats vid Glasbjörksvägen", "lat": 59.27868300000000, "lon": 17.98011700000000, "bs": 12, "bc": 36, "rs": 21, "rc": 47, "ys": 9, "yc": 39},{"id": "4c4b301569134177b69071dce52050b7.16", "url": "https://lh3.googleusercontent.com/B5bzm7tlIHoVZeesu6H4qQ_Gc7k8qH7zzO2rBh2DPVYFyfsLGGgHmcUX6bU-tKs2CcuNx6d93ZNdL_MX8fhz2uS0ftM", "name": "Grodan", "lat": 59.32338400000000, "lon": 18.09586800000000, "bs": 13, "bc": 67, "rs": 6, "rc": 58, "ys": 10, "yc": 61},{"id": "4c5573d162b64ac1a8f52ccec3950221.16", "url": "https://lh3.googleusercontent.com/-ks4XZJ07L1xYrYal3wYtJ4gNufywwfuZ4R5ULoO7ZiLxRptCsJRLz99yHSg9wfdg0kToJEJNAOWMVM0Cey8zMAhMw", "name": "Gungor på rödamattan", "lat": 59.27368300000000, "lon": 18.04806500000000, "bs": 16, "bc": 16, "rs": 47, "rc": 23, "ys": 25, "yc": 17},{"id": "4c8602c128bf40ec9f839e66f7fc2676.16", "url": "https://lh3.googleusercontent.com/dkGYPcuUcj1Nu-5phIqdSSgi-L_OlPAC2cuaOTnRw5WLJn-3iIvOVjbkzQvCQBgAXSM1ygQSEyoYWmfB2II8dyW3dQ", "name": "Gärdets utegym", "lat": 59.34205300000000, "lon": 18.10834400000000, "bs": 19, "bc": 64, "rs": 6, "rc": 51, "ys": 6, "yc": 43},{"id": "4cb2e932fad9437ea7b7e210c3f22179.11", "url": "https://lh3.googleusercontent.com/yKaSy97Vlwx0yxFCF8jyoqnoq_klEFTOANhtGo_qBI5lQYiY780ZFGLaEfYdypqlT3LSoX52sjWgA0kHCv5R9J_piw", "name": "Lasse liten och hans mamma", "lat": 59.30577200000000, "lon": 18.10648600000000, "bs": 8, "bc": 54, "rs": 10, "rc": 56, "ys": 12, "yc": 65},{"id": "4cdbbb0778104fda8514eec064bfe449.16", "url": "https://lh3.googleusercontent.com/m71oVrVE68IhnUkJAYcTmdT7S9evmk7XWX4oTvAA2I7KZN6xWAz0C-KVeoIzBouEvpSnlKpnf61lDCZBQY9sY-O_xSw", "name": "Apoteket Ugglan", "lat": 59.33396500000000, "lon": 18.06120500000000, "bs": 7, "bc": 99, "rs": 6, "rc": 96, "ys": 6, "yc": 76},{"id": "4d0cfd1883074612ba89746cb0a52105.16", "url": "https://lh3.googleusercontent.com/75sDWRlsIKXoMIxK26I0s1hX-G319_K9CGOXKWJ5w_J95hAzOf7R1tsBNkCMigHlA4n3h8p_dLz1v197GOMjT4JqQig", "name": "Witch Hut", "lat": 59.36584800000000, "lon": 18.07629600000000, "bs": 14, "bc": 41, "rs": 13, "rc": 45, "ys": 15, "yc": 38},{"id": "4d4613ec6a01469ca19e9046df56519c.16", "url": "https://lh3.googleusercontent.com/BQloytZKZOWhHrRKzfui45HPIl8hHfJULXwjigUMjKXJfmMohcJmTbgO1OV9_ElhF6_B5BvFLvi3tICmV7JApXQ5M1E", "name": "Lekplats Grimstagatan 106", "lat": 59.35610000000000, "lon": 17.87386300000000, "bs": 2, "bc": 60, "rs": 21, "rc": 79, "ys": 1, "yc": 9},{"id": "4dd0b7ed8d434d7a8f32f8d397bf3b3c.16", "url": "https://lh3.googleusercontent.com/irg_-fkc5KR7KzfXqOEZ-3awyvKiN1wXYAp53-FpW07I1CdjYTlvz-nLny0i10q3HitQuZnnKrZjSrrpJbG_R1gLvs8", "name": "Globen Subway Art", "lat": 59.29370000000000, "lon": 18.07542500000000, "bs": 20, "bc": 35, "rs": 14, "rc": 36, "ys": 18, "yc": 31},{"id": "4ddc02fdc9984519bb659d8d5e2ef492.16", "url": "https://lh3.googleusercontent.com/w7NT80mo8FsODbEwdyf0ELpDOLrQLA7_H_aBOF1TJBcQRIW2PUMApLusv-jzApbXgR2nTovgwgEFFB0PWLctwpLadbA", "name": "Ha En Bra Dag!", "lat": 59.24526000000000, "lon": 18.08780200000000, "bs": 9, "bc": 58, "rs": 18, "rc": 64, "ys": 7, "yc": 13},{"id": "4df56bc8de4c4836b02629ca01b6f914.16", "url": "https://lh3.googleusercontent.com/Nn61syrlwMEooWSA8SgY9sNxTiRdnvoMp30Y0tnpXsAdnwGFRQM2jw2dlQwpml29EdoQDmT--9Gi-Wu_5DgN6xjZDC7S", "name": "Vågig Bänk", "lat": 59.27893100000000, "lon": 18.00920600000000, "bs": 7, "bc": 96, "rs": 8, "rc": 103, "ys": 5, "yc": 56},{"id": "4f1ce652838d4f11b07dc4b0583d8c94.16", "url": "https://lh3.googleusercontent.com/U3tB4uq1Cg5MKfWr6mLjO3C8h_Z14n5Pel1naOPPtOBQp8sz6quDmXSWZD6qm1IA7LIxzX8GPh1gnfEb9KLwH6kAGQ", "name": "Årsta centrum", "lat": 59.29726500000000, "lon": 18.05162700000000, "bs": 12, "bc": 56, "rs": 11, "rc": 46, "ys": 11, "yc": 55},{"id": "4f54e43438e34b559abfa5c216731f87.16", "url": "https://lh3.googleusercontent.com/jOuaHI8Q9TBGYitXnNKRaf2M1aq68OcWRHc1UOJ1FO9Oefw3T-p3dHmuRPLescsc3f-9gGCIJxhc4pQTfejqfcsvtXIJ", "name": "Klinkerkonst", "lat": 59.30594800000000, "lon": 18.08884700000000, "bs": 13, "bc": 67, "rs": 12, "rc": 57, "ys": 8, "yc": 29},{"id": "4f5a5ddb47f944979f8e53e14f0240a0.16", "url": "https://lh3.googleusercontent.com/u-EGsaHU0FMlHPSKuTZdM5TjGsgHmekP1vi8iWG6flj67KdDpnE1SwVrjMnhYWrGmZ3O7so2oPafuDuDAch_RKNtvQrG", "name": "Barnet", "lat": 59.24384600000000, "lon": 18.09206400000000, "bs": 5, "bc": 87, "rs": 13, "rc": 97, "ys": 3, "yc": 41},{"id": "4fcada37774248bbbb7b29932addfed9.16", "url": "https://lh3.googleusercontent.com/G_Is-SsC-5jYjZd0nJMZ05z-aYZOuPlPVvXaYLnquCM--im6kyyLe6C5L4molVqowJX8hpdH9e2WglQvSQM6EDfx9fJo", "name": "Wallflower", "lat": 59.27732100000000, "lon": 18.13515100000000, "bs": 11, "bc": 85, "rs": 9, "rc": 78, "ys": 6, "yc": 21},{"id": "50aceae88900405a9a35361fc4faa61d.16", "url": "https://lh3.googleusercontent.com/H9PIzhNoHOdMsWttbqL--ajQWobE1NUEy7fPSrWW1LkZpJ13Cd5-N4hb3LSuLkVSrUumzDS576BockH-rSZJSc1QFkI", "name": "Vattentrappan", "lat": 59.29744400000000, "lon": 17.98338700000000, "bs": 10, "bc": 55, "rs": 11, "rc": 70, "ys": 11, "yc": 44},{"id": "50cd4bb059f445a68fbf74ebe9d86fc1.11", "url": "https://lh3.googleusercontent.com/qqmLxXR5mOXH7zvY-u4_bYTJRKMCnsqfFPCA0GKPUgogzsrQZxn1dVpElypUmL1qsHpoySLHG00ozklEgm2Uc_dPcw", "name": "Jannica med dockvagnen", "lat": 59.31195800000000, "lon": 18.07757500000000, "bs": 6, "bc": 51, "rs": 11, "rc": 88, "ys": 7, "yc": 68},{"id": "527c4ae06d95464ba13e7eb9352e3656.16", "url": "https://lh3.googleusercontent.com/k0sHExgYUsGUzaBloK1-Gxp7Yqpv74riJWIsbbI_Ks9H398jAJkSUEoI5ID-9fPYdxj_TS77kHlv-aKG5YxukrsW6O4", "name": "Solbergaskogens utegym", "lat": 59.28540300000000, "lon": 18.00586000000000, "bs": 2, "bc": 18, "rs": 21, "rc": 42, "ys": 23, "yc": 38},{"id": "5318d7adbe924cdfa7b98bf048934021.16", "url": "https://lh3.googleusercontent.com/i2pl-pWhuKh58kOWbubTJ1_q-0B64ASIhx1mmXDAUHFfx_36Hls3ULSOcBxmLixHYZxNNT2E9t6tVyNswv0p0-0Pebdt", "name": "Väntan Vid Stranden", "lat": 59.31494500000000, "lon": 17.99581700000000, "bs": 15, "bc": 34, "rs": 18, "rc": 39, "ys": 16, "yc": 32},{"id": "5329f83cdbaa414c8cf804f632a7da49.16", "url": "https://lh3.googleusercontent.com/oSFUEUCNBwWTkuwvDaYGESXJhSo2X7Kz3HXqUlecvuwCszELjCFB53MvSDGZ2jBjSmfmvw5K-Meq9nbnxVuHZwC2WmU", "name": "Liggande Häst", "lat": 59.30555500000000, "lon": 18.03458000000000, "bs": 7, "bc": 60, "rs": 13, "rc": 74, "ys": 9, "yc": 48},{"id": "53e200d740ab4004b3d7cbfecadbd091.16", "url": "https://lh3.googleusercontent.com/wcip8FYdmP6nYbzxPTBu3FhksXFOGot16MHIk5sxc_9Batv7wamksE_RfCOJ0wzqEXZgZYQ_Wz4J8bidPtBR2A43KVv1", "name": "Grodfontänen", "lat": 59.32409900000000, "lon": 18.00317900000000, "bs": 18, "bc": 55, "rs": 9, "rc": 38, "ys": 8, "yc": 58},{"id": "564d0cbecbd44e5bbfd7c31efe550eba.16", "url": "https://lh3.googleusercontent.com/OxKiIoqAZrzKVd0teJ6j-svoCoVyztHtO32CQPId8EkhCkEIVr35Mj8kcCO_tq6cqunsOCIQ4v7qGPc8z7T3gtSRTFY7", "name": "Plockar pinnar", "lat": 59.27860500000000, "lon": 18.13702600000000, "bs": 14, "bc": 50, "rs": 16, "rc": 39, "ys": 11, "yc": 43},{"id": "572bf80bfd7b4334b3bdddc9a0ad9654.16", "url": "https://lh3.googleusercontent.com/X73lPqbzVoTd403QjqGlyYXiUFRArM5wythdb4J5SMHXFhsdoL46s6PBjwY1Ne5kdNdAEkfCQJJevkCp2yvltnz7VJ4", "name": "Stålkonst", "lat": 59.34462300000000, "lon": 18.05053600000000, "bs": 3, "bc": 50, "rs": 7, "rc": 82, "ys": 12, "yc": 88},{"id": "57d67cb571e5469da39bde361f1f8de6.11", "url": "https://lh3.googleusercontent.com/dy6Fn08d_IVDt-GgkNmlzMrad9tgiyDtnp6gGlXyz3SBrXTniK0MA7YKU2TWd_tTp7OrOMC4nnylPrCc0AyugQcqdOo", "name": "Manlighetens ankare", "lat": 59.30744200000000, "lon": 17.98097800000000, "bs": 11, "bc": 65, "rs": 12, "rc": 73, "ys": 7, "yc": 29},{"id": "582317eea2794caa8acfb491975eb631.16", "url": "https://lh3.googleusercontent.com/7Phja4qG9hoY_a-GA1KksKi6BHzcwhnmhnDAFb3VwIzfVe3v3lzI_eLLI3YkMlF4n9w2zzlZCu5uqVUWfvJq5OJ243_C", "name": "Mutant Chicken Zombie", "lat": 59.30534700000000, "lon": 18.03294600000000, "bs": 7, "bc": 51, "rs": 4, "rc": 33, "ys": 20, "yc": 64},{"id": "5830efa7685347e2848e4046d0b0af8a.11", "url": "https://lh3.googleusercontent.com/pp8fzitVbZ17oAkGKZhVRtC3MO-YTG1d4WbRdAitmvwyIgwzDYk_K5p1-EV5zNP-wqV0ealJtp12iDMLE8yBnvSSVFFb", "name": "Puck Statue", "lat": 59.30257200000000, "lon": 18.00745100000000, "bs": 17, "bc": 38, "rs": 9, "rc": 38, "ys": 14, "yc": 56},{"id": "596a2c237a274d019ed73389af7c2a0c.16", "url": "https://lh3.googleusercontent.com/bOjaACaE4I5sC2ebsHIbnImc2UqQHxX4Msxzd33b6QO9dHiGG-YFSxEUk75miwNOlGRZBDumRWSkSb_dMLb4XLaYB1YG", "name": "Thunderdome", "lat": 59.29854100000000, "lon": 17.99222900000000, "bs": 12, "bc": 49, "rs": 16, "rc": 57, "ys": 7, "yc": 49},{"id": "59bc161d9a7c4a44be6dce9ef20a3f59.16", "url": "https://lh3.googleusercontent.com/bBlJhkkU7UZX2yUnFwKpB0Bd7di379XRe_cMok7vpS9WkgB_YfbjTfTJeBUXHkZ87qzQwmh43kJKBwYDEzHJp5Xh1dyA", "name": "Artwork In DKV", "lat": 59.35123300000000, "lon": 18.06680800000000, "bs": 8, "bc": 1, "rs": 38, "rc": 2, "ys": 1, "yc": 1},{"id": "59c0c78616c44b03a5bc08b2f40763c4.16", "url": "https://lh3.googleusercontent.com/G9XlyrzQQd2M5rvdiWa13AuIiu8y-Lq6hL0wPXQmZH_pFT0uRlprO5fT7kjc_CDFZpPObe1OGb2kPUibvMpnI881yc4", "name": "Två Flickor", "lat": 59.26129400000000, "lon": 18.01214600000000, "bs": 5, "bc": 21, "rs": 11, "rc": 94, "ys": 8, "yc": 90},{"id": "59c35586933c47caac604f16a6d6c042.16", "url": "https://lh3.googleusercontent.com/2bSF_SE6ssjP6cBimYqLF9OHkfZyO1ncM_45ChrH6FoSSa_18ZdUfV8n9IXc-cW8u_JL7_SyKYmK1mzjnnbMnMg4_mTP", "name": "Lekskeppet Zanzibar", "lat": 59.25334300000000, "lon": 18.07768700000000, "bs": 15, "bc": 29, "rs": 35, "rc": 35, "ys": 8, "yc": 17},{"id": "59e954aa36ea41fba3348b489be41eda.16", "url": "http://lh3.googleusercontent.com/kJoHmwiqQLiwY0fzWQX1lBXzdS2GMenKAH5keQzSsI2iTz3tfgtaTHbhnn3wznXLJ3-_7Qx-_XdyKOPN924w_LLUuH3K", "name": "Twin playhouse towers", "lat": 59.29423300000000, "lon": 17.94016200000000, "bs": 9, "bc": 55, "rs": 14, "rc": 73, "ys": 6, "yc": 34},{"id": "5a25731c71ce41f08321e0bcf9295e39.16", "url": "https://lh3.googleusercontent.com/5NYX5yLJIZKlTok5J_RNrJICUwct8Di13kVfGWYy5ToyyVtgn4Yco19H_-3joTRxHFBGmHXvFv-cJoHrdYEUDxZO4961", "name": "Vällingby BP", "lat": 59.36437900000000, "lon": 17.88352700000000, "bs": 18, "bc": 38, "rs": 13, "rc": 47, "ys": 14, "yc": 36},{"id": "5ae422db9ced4c5d9cdd20d902e236eb.16", "url": "https://lh3.googleusercontent.com/gzzZUSIprMvZ8Ihc4NKXqw3pvDZOIEFiqsAnSRdT6ARBS_TD_OYS20Rdcj8r3NFaagvRnFvefx0bodIHbfl2Qzw_0ns", "name": "Drömmars Sjö", "lat": 59.27807700000000, "lon": 18.01129100000000, "bs": 18, "bc": 54, "rs": 11, "rc": 49, "ys": 8, "yc": 34},{"id": "5bbbdf0f14c642aa97db9733e022d65f.16", "url": "https://lh3.googleusercontent.com/HdTIePKpqJYVoSt-tb1q7oR6eeRkO4KZUFsmss89buazs3idUWsX5kXYq8cPYWAmA45M79ffThVJr94DWs7P0C705A", "name": "Ångest Vid Groddammen", "lat": 59.35675900000000, "lon": 18.08279700000000, "bs": 18, "bc": 23, "rs": 26, "rc": 27, "ys": 31, "yc": 21},{"id": "5c1ef678fff64eca90e0cfbf4d306852.16", "url": "https://lh3.googleusercontent.com/9zRrDXSdIiF1uqMc2UG-Y9lwXwb4cDWLHrIgY_FEBol0GoVng1FU4aRk2osMe5K_Gj4QelCdmalFYwb490e1KDrnwT0", "name": "Hagsätra IP", "lat": 59.26500400000000, "lon": 18.01998600000000, "bs": 14, "bc": 60, "rs": 4, "rc": 25, "ys": 15, "yc": 58},{"id": "5c5a15bc01bb47b09f7dad3349eed9b2.11", "url": "https://lh3.googleusercontent.com/yOBB1NANZmrCIGS7xl_98abv597rWEr6aTGyAcqhcOoLm-875kue8O_oikpr0nQdiFV_1JjOD_zae2AZJ1jqsJCYiQ", "name": "The Seahorse - Another Statue", "lat": 59.30844500000000, "lon": 17.98075600000000, "bs": 9, "bc": 35, "rs": 30, "rc": 46, "ys": 6, "yc": 19},{"id": "5ce52a784d7843dbab1abaeb79635c2b.16", "url": "https://lh3.googleusercontent.com/-kBkhSx3JNLTpwtRsOTo9js716xAAc2QdkAiZ06PBXFCjkgyjywGyVzAbtOrdAAeKdqhy3F-HZJB17PH4l3IYgWrZrgttSLkOwi727Y", "name": "Ensamma katten i Dälden", "lat": 59.24620400000000, "lon": 18.09528500000000, "bs": 8, "bc": 33, "rs": 27, "rc": 49, "ys": 5, "yc": 27},{"id": "5d6398b13dad443ba65e4750c9c12abd.16", "url": "https://lh3.googleusercontent.com/8LmYAkjRoUvUWomQ3T8_6jZpwGHl1ruAapIUCDbii1trr6_2QIQ-ZBVzlTx5zg5PuOykf0HYsVnw161McVqYdnvn_lY", "name": "Lenah Och Crister", "lat": 59.26190800000000, "lon": 18.07957700000000, "bs": 8, "bc": 52, "rs": 6, "rc": 18, "ys": 24, "yc": 53},{"id": "5d68ce08db344dd1a8d02940ea800ff6.16", "url": "https://lh3.googleusercontent.com/psbSH2H2FYKLVX_e1w2vmII8ZoIPu0LHGrH-TSETj-vLl3VpvRB42nnBSexzFLiAZpFDIScpkhfLBsHB5d7GnVd8XNw", "name": "Fountains at the Plaza", "lat": 59.33230700000000, "lon": 18.07085800000000, "bs": 8, "bc": 107, "rs": 6, "rc": 70, "ys": 6, "yc": 82},{"id": "5e2ed340e94b45ca9f86b211ea16ffe3.16", "url": "https://lh3.googleusercontent.com/m0ovAHFKKEzkcQ27fh8F1J1qlXX-wTBLBlmbKXQcHfN1XsFQHKfQhw6qOZRfmV1VJQ6VvPJcTeF6Aexlb2cRSBvHegmegVTEjX0PJgnK", "name": "Årstaberg Station", "lat": 59.30011200000000, "lon": 18.02925400000000, "bs": 10, "bc": 92, "rs": 7, "rc": 80, "ys": 6, "yc": 46},{"id": "6080c25ac38b4b2885420a16d29daf6e.16", "url": "http://lh3.googleusercontent.com/7ATmD6Vnnxj04IW61EOdJs_paUotTFfz3U25kVsAwRqh3F5YJSEYywWyD44oHH3AcS2ylNOPcQlvI6PAPJCubDW2yA", "name": "Nockeby Station", "lat": 59.32905600000000, "lon": 17.92782500000000, "bs": 16, "bc": 42, "rs": 16, "rc": 40, "ys": 16, "yc": 27},{"id": "6090ee81d9794d9ebd2642f3aaa01567.16", "url": "https://lh3.googleusercontent.com/DodK3uu5WH6aFYIdM-Zy11RGlgQtknEMl-tVI4_Y7Zh0fPBW56FMZzs7bfQGVI_In8InDmZ1vqDhmtnbgDBGRelLh_0", "name": "Musica", "lat": 59.35127100000000, "lon": 18.04897800000000, "bs": 22, "bc": 43, "rs": 14, "rc": 36, "ys": 10, "yc": 31},{"id": "61a11c93a29948bda7824e3c4be83230.16", "url": "https://lh3.googleusercontent.com/6oqbCYQnkCelqyT-IU5OOFp1fUrJDnqVKPbaSC6OR20Eqr3sdLMAKf__xyJyB2EzC83U6vDkVQLgjuhZWmQhlqAzmQA", "name": "Fish Crest", "lat": 59.31524100000000, "lon": 18.06168100000000, "bs": 7, "bc": 112, "rs": 8, "rc": 88, "ys": 4, "yc": 66},{"id": "61ad141d56504089a8bff44d2777baac.16", "url": "https://lh3.googleusercontent.com/xDpP6OoBdCLi8lA6H9I4zP4u5ixfnUugNQQI0Oga5QrzkB60A2PsChdVMU0e7yRVjjXz9ZHf1wxkSOl5PhXFYe-Iuw", "name": "Sphinx", "lat": 59.29127500000000, "lon": 18.10793400000000, "bs": 15, "bc": 29, "rs": 20, "rc": 41, "ys": 15, "yc": 34},{"id": "61efbab7003040c6827fc6181bb2ef56.16", "url": "https://lh3.googleusercontent.com/W6M1a427xRX1qt_nfIc81_WufPufEcN9sbo_kTQj7-J_S8Vf_8j63pByE-uxPxT9HAJed-ywXeXliQBZ5EjaRGr7aw", "name": "Gamla Stenar", "lat": 59.35544700000000, "lon": 17.91959700000000, "bs": 12, "bc": 17, "rs": 19, "rc": 37, "ys": 25, "yc": 35},{"id": "63047c3e4d3947d187b7e65ce5fe9b1e.12", "url": "https://lh3.googleusercontent.com/nr8L3z7E1Gi_P3qcO__-Nq9FxHZ_V8DFQ0zzVzX9DrFWzQbzFh71JkXlSBnYeOpB6TlKjzNIDOzYqBiWae5vi35g1E8Q", "name": "Kristallvertikalaccent", "lat": 59.33256700000000, "lon": 18.06521300000000, "bs": 11, "bc": 93, "rs": 7, "rc": 73, "ys": 4, "yc": 54},{"id": "641c14b30c764ef4ab8374f8a70833b3.16", "url": "https://lh3.googleusercontent.com/2Wr0x-DP_fgzO9MnTosiJm9HZ5aNL4jk7eAE6pc-6tjO3gibVtlujwEkIUkbf4V9M56YtLRdXeGCvO1jwUQtN4UweQ", "name": "Konst I T-Banan 2", "lat": 59.36408000000000, "lon": 17.87085000000000, "bs": 10, "bc": 80, "rs": 8, "rc": 46, "ys": 8, "yc": 82},{"id": "646d567e68c24ce0b097a099d049c38d.16", "url": "https://lh3.googleusercontent.com/OaLz0yqE-FhpzD-gxRgIJy0XQuY5Z8Co3s-yZjqKvtDJYzZMh40-urdhFsFp1f0Om92J4BDgm2_3ShCDTzl90wbGGw", "name": "Bredäng Station", "lat": 59.29476800000000, "lon": 17.93368500000000, "bs": 12, "bc": 98, "rs": 5, "rc": 61, "ys": 6, "yc": 59},{"id": "66cf6577c2ae4c63b09cb7046da3267e.16", "url": "https://lh3.googleusercontent.com/8r46MCyNI_IvFGdjrXQjoW1fD7_YZEgeVvPWXa36-7hglowlcRxikmto5vs5LIeDON_Wd-a0muqiYxa0-5Ee9RJ6ito", "name": "Cave in the Wall", "lat": 59.32692400000000, "lon": 18.07389400000000, "bs": 13, "bc": 59, "rs": 11, "rc": 44, "ys": 12, "yc": 46},{"id": "6729ece18c48468886c1883f37da40f8.16", "url": "https://lh3.googleusercontent.com/DZMH2l7fdjdaGrFGIt_SkaErtIUErxnH1Z0BkfGSe7wdhPBq7wmnHJbvMHJAYFQBrmm-ijrgXl8Wt9-I-VISXT3X5RB6", "name": "Norra Ängby", "lat": 59.34763600000000, "lon": 17.90206200000000, "bs": 16, "bc": 42, "rs": 9, "rc": 43, "ys": 15, "yc": 46},{"id": "69223264b5bb485ebe58ecf2aa47a2af.16", "url": "https://lh3.googleusercontent.com/_ZN7nBkjMiLN-eg877RXv9oARXeRcXnZCVMAAdUlYABV747CA99TEU8yFTRY7dMNN9vGpZQhom6mQjv-j5cTbWsIVsmq", "name": "Lokatter", "lat": 59.34393300000000, "lon": 18.04088100000000, "bs": 9, "bc": 72, "rs": 6, "rc": 33, "ys": 12, "yc": 82},{"id": "69680273cbb74c4dba4f8d0db6647b77.16", "url": "https://lh3.googleusercontent.com/fUJxiuVdG1Wr3K8PpynmV8bb6NM2gMxeSWcIrXGs6oZOUQVH2w-uv1TEbh8wdVdejbsCnk0zrjXpHUaBu04hGaRaZusC", "name": "Rovfågel Med Finbrallor", "lat": 59.31876800000000, "lon": 18.04262100000000, "bs": 13, "bc": 32, "rs": 17, "rc": 28, "ys": 21, "yc": 42},{"id": "69cc979c5ec7459ebb9f3dc6a6c083c0.16", "url": "https://lh3.googleusercontent.com/hoy9_TLL0L6JF-uer1MJDosUdIbV4vJCnDBGdxQCG2Jq7oHOkz7C_ULaCDTCmJEUpeEtGW7FFokfqDayv3Pe2qgDZMs", "name": "Stone Turtle", "lat": 59.29794500000000, "lon": 17.97815000000000, "bs": 8, "bc": 32, "rs": 18, "rc": 56, "ys": 11, "yc": 45},{"id": "69e829679b914831a7af54c62ea22afc.16", "url": "https://lh3.googleusercontent.com/E4c5OcsJvou_VQ6ptq0X2WcG98aWJJufYX4YGedqJ8n6yOqHVLEgTULAls5EqbOQZjQGFejDZQgZEdr73mim6XosgzQ", "name": "Litet Lejon", "lat": 59.32892800000000, "lon": 18.04317400000000, "bs": 14, "bc": 81, "rs": 7, "rc": 36, "ys": 6, "yc": 69},{"id": "6acfe89e36554938a41fa6974d990935.16", "url": "https://lh3.googleusercontent.com/TGjzOnqQmkClCSY8rJeLXU5LqgAJJ2IHAA7Lj4CQ7kJgx7WzWu2lEkzIOduwucQSUsDRaxFDckg9BVOECvxbS_1_Sj5i", "name": "Green Umbrella", "lat": 59.35522800000000, "lon": 18.04795400000000, "bs": 20, "bc": 32, "rs": 25, "rc": 39, "ys": 10, "yc": 17},{"id": "6b937189075c4e92ae4d1338fa44cf7d.16", "url": "https://lh3.googleusercontent.com/-Ew7TwtESpSfZ82oMbJt-0bra-ectFWmUMJnWj0ySJG7AMNqENWgf51YRpUNcXtdU8XcQ055sankp5UVt5Zn9I87uro", "name": "Hästhagens Bollplan", "lat": 59.24211900000000, "lon": 18.10101700000000, "bs": 5, "bc": 54, "rs": 25, "rc": 59, "ys": 3, "yc": 9},{"id": "6dd878c0d987408aa406496815f23937.16", "url": "https://lh3.googleusercontent.com/uUpuHTOv5zPrNCGN_NOb4_pWGvUjdicna3XvT5l8TrcMATTEJ9pE0j5XErzkhOv3Yf5U6RBonioaWt1dtGBvPYb9nP8", "name": "Pelare", "lat": 59.36498000000000, "lon": 18.05863800000000, "bs": 2, "bc": 30, "rs": 27, "rc": 63, "ys": 1, "yc": 19},{"id": "6f22f2eeb05f4c10a9c36555eda3b1db.11", "url": "https://lh3.googleusercontent.com/5VJYwZNC2npCn03sg0H8ZCqHRqxL4AhtbgrbO5cyOaBgXaP2iY9nLfDD6a1K4Q8aVeAZ0iz7sR1b6sW13kJwl5o9Rg", "name": "Kasper", "lat": 59.31514400000000, "lon": 18.07161600000000, "bs": 7, "bc": 82, "rs": 10, "rc": 76, "ys": 7, "yc": 67},{"id": "6f439edd8eb741938e68ba9a29f79dd8.16", "url": "https://lh3.googleusercontent.com/-GHtnh28v37YZWkW8L2uCX3d5Gm5ifWrvKD_5jVMwn32yqHe1Bme3BD4VqsSW02RTehH907HpwqCiRXqIT1yjYCkEJ0n", "name": "Svenska Kyrkan", "lat": 59.28492000000000, "lon": 18.08795800000000, "bs": 17, "bc": 49, "rs": 11, "rc": 41, "ys": 16, "yc": 34},{"id": "6f9aab0bc3a54b0d91a5253caa19fafe.16", "url": "https://lh3.googleusercontent.com/jZdNO6BicY2LWP5zM2l-9H9Rnd7gGPtLDhGjic-dMut665ukdSL0SrgMyDsRVDQBmzjtRSQQMwsK4EviFtiyQuutpOw", "name": "Dove", "lat": 59.30792200000000, "lon": 17.98435900000000, "bs": 21, "bc": 45, "rs": 14, "rc": 30, "ys": 13, "yc": 32},{"id": "723b1cc439de474fb07e53fe8e5cc7de.16", "url": "https://lh3.googleusercontent.com/KvapzKhKVT0d46E80rmpCZQXnfGWRWLxWCeU__7pJkMs-L8saV5VlgxzRVTAoGHcs7LgllRPc_OpRUAzT1KqCR-rMQ", "name": "Sjöstadskapellet", "lat": 59.30305200000000, "lon": 18.10431000000000, "bs": 8, "bc": 78, "rs": 5, "rc": 17, "ys": 13, "yc": 83},{"id": "738a5f51891949e9af6163c8705a7541.16", "url": "https://lh3.googleusercontent.com/XTEDqyOhC0ZAm-Xuv0BWsBwlaLz5m_zIUJu0NB-0wESjuDD3enOiXvqwd_YPGCoQMcc32uf_VCb_UxmwF7hd3NWYag", "name": "Monument över yxman", "lat": 59.32797000000000, "lon": 18.02690500000000, "bs": 22, "bc": 50, "rs": 10, "rc": 33, "ys": 10, "yc": 38},{"id": "7396f4272e874aba8632a7031a6a7c48.16", "url": "https://lh3.googleusercontent.com/f6uFb3VYalhEGbhLNyHIULNXshvd7ex3b1JDXvjzeb3ddnM5N6Rj0SBZlVJZVKIE-hzZJuNHI61VhMAqqchCHKVQFoU", "name": "Fotbollsmål", "lat": 59.28900900000000, "lon": 18.11152300000000, "bs": 16, "bc": 66, "rs": 11, "rc": 65, "ys": 5, "yc": 7},{"id": "745e9dae7a8a49e890ed366649bd54a1.16", "url": "http://lh3.googleusercontent.com/pTAdDsOK1I--55zUm8WSjePz9yMkBmJYv9lE7OkIuxhJUTMjcWRHVW3tiqVDC83Tr5UalBllu63oepe9Dww3PNTosO4", "name": "Ormkärrs Arena", "lat": 59.26118400000000, "lon": 18.00568400000000, "bs": 17, "bc": 15, "rs": 20, "rc": 33, "ys": 26, "yc": 34},{"id": "748778cbdedf4b0c939f651f97d241d0.16", "url": "https://lh3.googleusercontent.com/OP2k9I2g3qKOP_gdnC8M4nbLa1kiXKz0HU9loNkYNCF4zbsLn3PXsDxMmR6EE_ymAZkiTWafDaBQDrcQ7pdEwJ4GSZEw", "name": "Minnesmärke", "lat": 59.26523800000000, "lon": 18.14154900000000, "bs": 12, "bc": 49, "rs": 19, "rc": 56, "ys": 6, "yc": 24},{"id": "74fb517148a14d80a8f7ee25e90d6eb6.16", "url": "https://lh3.googleusercontent.com/8lSXgdtHPBgWLgGeuQQp1Y9YtDJuYCFJaT9ItL_Ohgt-J_ZB0RzBOjaONefeX10eWbVkhLw-IE9sbMilwzAqROZN6A", "name": "Höstens Löv I Rostigt Järn", "lat": 59.36601300000000, "lon": 17.85470000000000, "bs": 25, "bc": 22, "rs": 29, "rc": 24, "ys": 33, "yc": 14},{"id": "754999e9b40b48eb9e7a3c6c01902bd3.16", "url": "https://lh3.googleusercontent.com/1ZJnR-1T1qJBUd3VDRB_Y2qdm_PemFXaoobAxCIOA4Q78mJ9p1T0zK90Zw-plr6j5NAM1s8oMPevuZFhQbd7C_0Pdok", "name": "Tröst", "lat": 59.27155600000000, "lon": 18.08413300000000, "bs": 15, "bc": 58, "rs": 9, "rc": 43, "ys": 10, "yc": 49},{"id": "7583ae4cc47345df9eed319938a73677.16", "url": "https://lh3.googleusercontent.com/7w9Mo_f80QjzwwUdBzxu_dtDuZ_pPOe5oUPB7744avCVj3Afy96ea0PJ0x55N2L0SjCvlOb1pimw1bwopNree-rAJxQ", "name": "Gossen/Är du prins i någon saga?", "lat": 59.26775900000000, "lon": 18.12959700000000, "bs": 17, "bc": 59, "rs": 8, "rc": 47, "ys": 8, "yc": 46},{"id": "76084c4ed6ff4004a36b1828fde0219e.16", "url": "https://lh3.googleusercontent.com/CWyQCQSBY6ToEjsgBIev2eCXl6AHb7DotwerU-I-mYH7ORo-cPlHiM52H0QKU7uGlF_nJczF4Ji_BxSJGtmvYtpQBXUm", "name": "Älgen", "lat": 59.34183200000000, "lon": 18.07069600000000, "bs": 21, "bc": 45, "rs": 12, "rc": 31, "ys": 13, "yc": 39},{"id": "768ec25408833c1ba3f91d35d15f39e2.16", "url": "https://lh3.googleusercontent.com/A-4T-5H6Jjvl-DfIb0-V_6PaA4jDccP1lEqlCmLzEE4rWZXpZ6le9EFaFCsGhgtaBxxXkVVfaj8X9UgY-W45ysjU2Og", "name": "Bro nummer 3", "lat": 59.36161400000000, "lon": 17.91001700000000, "bs": 17, "bc": 29, "rs": 12, "rc": 13, "ys": 34, "yc": 30},{"id": "789ae1fd12b54707b6b461a71ca998d9.16", "url": "https://lh3.googleusercontent.com/fCheP5X_IFg0b8UE0oDOmgBnj3z8Orbp6Y2_cdtcibFdT8u2Zjx_EXWaEBDNlDlvFib76nQA3Nf1r5a2zyKai5yDxyo", "name": "Kvarteret Stöveln JSV 251", "lat": 59.27986300000000, "lon": 17.99624000000000, "bs": 13, "bc": 50, "rs": 22, "rc": 51, "ys": 5, "yc": 9},{"id": "791d127286b943638df695395b1ff394.11", "url": "https://lh3.googleusercontent.com/_qZVubFA1_oZ303_IW259maikHX7DdTm1IW29hm-D7W6_mdiLzIq5NHoZl6g1sN5bk7LdrK6i0DBhD5Fe1j6tP58Gmg", "name": "Hund - Domenico Inganni", "lat": 59.25501600000000, "lon": 18.11484200000000, "bs": 18, "bc": 23, "rs": 24, "rc": 31, "ys": 27, "yc": 24},{"id": "79450b1285834cd29f665339780f23df.16", "url": "https://lh3.googleusercontent.com/cs5JB8L_NAe_8G7jIKCwcmoE6XmtlLqAejSG1bFCmLYQLIWpSv3gNA1u-kKipo5KU0EFJ72AAzL6EhjSA1O4lNRBYw", "name": "Subway Art 2 at Skärmarbrink", "lat": 59.29584000000000, "lon": 18.08924700000000, "bs": 19, "bc": 26, "rs": 31, "rc": 34, "ys": 12, "yc": 20},{"id": "79757df082e94554bf17051c22d9b35c.16", "url": "http://lh3.googleusercontent.com/FdZpldvFvYSJ0ENXM8oHobP2TZDRxurTE-06ctklmemmfPD7BQu2f7vrz40YnsEXaohpzJXJ7GMDDlEeVd1iu_cQtYQ", "name": "Gubbängens IP", "lat": 59.26266600000000, "lon": 18.06841300000000, "bs": 23, "bc": 22, "rs": 27, "rc": 23, "ys": 23, "yc": 27},{"id": "7b28786f0235485cb237195c642be66e.16", "url": "https://lh3.googleusercontent.com/nBgU9ermZyZEalNxXE2LxABLQZqfetHTYKyyvriTifm21tZHS5XxGTLuoQyK-511mqWll1rSnKbQy4efyrp3KJD79yk", "name": "Långsjön Infoskylt", "lat": 59.28091300000000, "lon": 17.96691600000000, "bs": 18, "bc": 45, "rs": 17, "rc": 38, "ys": 13, "yc": 25},{"id": "7bf8a1bbf0034ba4a15b5978da14e99a.11", "url": "https://lh3.googleusercontent.com/8hzEZmiQPn2zBayCnM83HNeKZUKbqJDza-roARs4difr3I7UndQLB0pbEAyf2guT_HpcrbM2atjw4Dajuh_NIcWMsS5m", "name": "Sjöstadsparterren", "lat": 59.30438500000000, "lon": 18.10080300000000, "bs": 9, "bc": 54, "rs": 6, "rc": 38, "ys": 16, "yc": 64},{"id": "7cc4eb5238734ec186f8fed37250c822.16", "url": "https://lh3.googleusercontent.com/9lqBWZIO_ym-3ehzCsM8eGkJPB1xK_Ymm1jR3RLQQjw9NscnBMp8t7-UlWTe01heWelE_Tzif9wTQJWUYvPG9yHXTvc", "name": "Bronspingvin P.G. Thelander", "lat": 59.30626900000000, "lon": 18.00129900000000, "bs": 9, "bc": 47, "rs": 12, "rc": 87, "ys": 6, "yc": 56},{"id": "7dcce3c079254be7b18d65b050dc9c69.16", "url": "https://lh3.googleusercontent.com/ExdvnO21p8LJFUvJV1z5lrgYcotCqP0am3gaDynFiZm9ikHAyMaEJhdy9JgG2aVUB0KPY-as3GJjSUmbGfFGP6fk4bbD", "name": "Mur, Sockel Och Pelare", "lat": 59.24540200000000, "lon": 18.09521800000000, "bs": 10, "bc": 70, "rs": 13, "rc": 74, "ys": 8, "yc": 17},{"id": "7e7b05319d5b4672aab903c4d29ce0e9.16", "url": "https://lh3.googleusercontent.com/4PpHaVbF5B7p5aaQ4P38zOfu4UhvFZalTeULnNGNXLOOpf7ef78M4qG5kwxCO9-Cuv5oJ3BRbCeY9KYBXRc59M6tOg", "name": "Panda med hatt", "lat": 59.34143800000000, "lon": 18.04464200000000, "bs": 14, "bc": 51, "rs": 11, "rc": 48, "ys": 12, "yc": 45},{"id": "7ec01f8f8e4f4d8ea54c7d3dd617c8e9.16", "url": "https://lh3.googleusercontent.com/uZpzgWQcuDMw-Ujnu0kHjKRdn7w4ZhwNkBiidHheDhkwU64XB9Pc1q4Q79WjpiFdAsuYUCDpDWWcQ_U0SGBt8cNhiNM", "name": "Spottkoppen", "lat": 59.33024200000000, "lon": 18.05812200000000, "bs": 4, "bc": 204, "rs": 3, "rc": 191, "ys": 3, "yc": 164},{"id": "7f700b3228d1422a8d6bd27d016f6e82.16", "url": "https://lh3.googleusercontent.com/bb2AZ5kBIgCXrp8-jqVdZvTjY6Cnun73r__7t8EyHBkqz7vtGs0Cy4MAs3TFjKEjM49uh5Q7TTft-Hci7fNdoeqD2HbD", "name": "Glowing Chairs", "lat": 59.27949100000000, "lon": 17.97563500000000, "bs": 9, "bc": 129, "rs": 4, "rc": 124, "ys": 4, "yc": 32},{"id": "80d0526f31724f83a901901f87c99fa7.16", "url": "https://lh3.googleusercontent.com/KiEKeb_j8PeFzAD7rMnzVDZo0RkdtWjkqG7Mbew4g8e9bcqFfAfmMkbwAZqATkngioygFYbArFBuKNHkUc5kaStjTO8", "name": "Crooked House", "lat": 59.28440000000000, "lon": 17.95588300000000, "bs": 17, "bc": 52, "rs": 14, "rc": 50, "ys": 12, "yc": 15},{"id": "82e19775ede14e0ab415427dc518b64f.16", "url": "https://lh3.googleusercontent.com/IB53QooY3kwrTMsjoXtaG2q8wvvk88xZZ8hsm6GZRZCP_OAaaiWcvNNE-WXs0x0cNOLnGSoLZPosoeHNXz0nugPw-IU", "name": "Anchor", "lat": 59.32873300000000, "lon": 18.09245900000000, "bs": 14, "bc": 47, "rs": 14, "rc": 46, "ys": 13, "yc": 36},{"id": "84dfe16096bb459395ec506c29cd6bee.16", "url": "https://lh3.googleusercontent.com/bCzNEwH58HRGOuMKyonunhrCBYnB7CenY8NmjX-HW3ZOV9WzU5J5sEJlBS3ISyUUwo3x075p60oEtalXCPPSIpV_Lw", "name": "Fall Sculpture", "lat": 59.35357300000000, "lon": 18.05674400000000, "bs": 11, "bc": 14, "rs": 10, "rc": 18, "ys": 24, "yc": 21},{"id": "85c806b207f243348da85135266d4e74.16", "url": "https://lh3.googleusercontent.com/VMGwko6KbeIE8qcvyClIxvPxo7YZYunjOdK9JHRDydkPpe-uz5lO5YX6OdjiiibN8q49eRDFbxtcu2Xhu3DHzx9J-YI", "name": "The Iron Star", "lat": 59.34459700000000, "lon": 18.06151000000000, "bs": 19, "bc": 71, "rs": 6, "rc": 48, "ys": 4, "yc": 41},{"id": "85f8e5057e32499eb5f0cc19500dc307.16", "url": "https://lh3.googleusercontent.com/x-DbN4E4c_P2h3NT3WCR-2h7zzgBYH7Oqub9qLZNvuSiJD8DDFmRD7itSFge1S9tJ5ayVxMOpepYBVUMp526wMsKaQ", "name": "Kissing Streetlights", "lat": 59.37357000000000, "lon": 17.84537800000000, "bs": 6, "bc": 44, "rs": 13, "rc": 52, "ys": 20, "yc": 41},{"id": "86ad545af0924845931d9746c937b726.16", "url": "http://lh3.googleusercontent.com/nbZSOC-IQbxWSQCVUt4dlm__uu_CoTbjE933L9GBP4zJuaSlWSByifsv5JTOB7KPZcEonLbDHsa8F5UosRnEIWhEu30", "name": "Tornvillan", "lat": 59.30779600000000, "lon": 17.96056900000000, "bs": 19, "bc": 24, "rs": 39, "rc": 22, "ys": 23, "yc": 22},{"id": "87a80faf2afa4675b9d2d4b85a509b06.16", "url": "https://lh3.googleusercontent.com/BGgSAoUWi5-0KrD_yH0X6mhqvUqE4WYi5BbsGn24qESL8iEBjqbyr8x3E8QbqtLdw9g6ocEEJFpOpWF46vb_QQuov_dQ", "name": "Skrinvägens Lekplats", "lat": 59.26577300000000, "lon": 18.08885400000000, "bs": 14, "bc": 74, "rs": 11, "rc": 69, "ys": 5, "yc": 6},{"id": "87ea35b384a344258b287c8ac2777494.16", "url": "https://lh3.googleusercontent.com/6W8QVbUejA8eLij45ov9cGfbHjkkTMU-FtDnmK_eL3yCZfw7HEgEO0NdGOwIvaFLRG8lP_WoUIOEGI1eNj58vf7uKRR_", "name": "Människans livsansikten", "lat": 59.28625700000000, "lon": 17.96516500000000, "bs": 9, "bc": 93, "rs": 9, "rc": 81, "ys": 4, "yc": 48},{"id": "88aed3a42a4946ceb13f1f41193b3659.16", "url": "https://lh3.googleusercontent.com/VFs0LxAYOGsNOE5ca7q8YXw1MlrqY1oZwNung8CuP7_xMjxV0PZLDJ2w8L59NepuD158l6Hpm7oEXHP-S204AmMP1xk", "name": "Eclipse på Gröna Lund", "lat": 59.32321400000000, "lon": 18.09705600000000, "bs": 10, "bc": 70, "rs": 7, "rc": 50, "ys": 11, "yc": 57},{"id": "894006457d4d472880e8240e3be7f8b3.16", "url": "https://lh3.googleusercontent.com/CxfW1evBiwlAOLuicT7S5iUg375-4TRej8Q6Tyd0a4HC6nUZUGkFQtV3FkBbuTbkh11aRXTjjg6SV1_Pc8L6LZhCILM", "name": "Den Blåa Sidans Väktare", "lat": 59.34037100000000, "lon": 18.07961000000000, "bs": 13, "bc": 41, "rs": 18, "rc": 39, "ys": 14, "yc": 38},{"id": "897c0efd30a741de80702c17167a08c3.11", "url": "https://lh3.googleusercontent.com/Yo8kPma5g6AVv_LpRcmnB03DDgC4d4RmytMU5-VGJ4EX0bVSWQU9qv99fOLzWkD1EQ75IMRCvIf9XkDruTYy6ytB4Q", "name": "Uppvaktningen och kärleken", "lat": 59.30212500000000, "lon": 18.10219000000000, "bs": 6, "bc": 38, "rs": 14, "rc": 75, "ys": 8, "yc": 62},{"id": "898974b5e6244af3baf33e1d9de93819.16", "url": "https://lh3.googleusercontent.com/81nuvTgulBqLAxQBYoVKxHkTlrCU1r-IRNmmRy2FCDaDxqvwimBvi6OGXsZNA0Q-kUd3hZcW01EPo36VZdMThglbZg", "name": "Gula Hästen", "lat": 59.34994600000000, "lon": 17.87890000000000, "bs": 16, "bc": 54, "rs": 5, "rc": 34, "ys": 13, "yc": 59},{"id": "89cd3a491f574325b842fcc4fc6bb41e.16", "url": "https://lh3.googleusercontent.com/oA-UZiI23TTF39c7c4CtXJkP4N6mrlgO8E9KzwCxMr0CETlI_bo8oOHnG3FmEGGt76SZZNKqrIiHu9_r6TxB-W-eew", "name": "Stockholms centralstation", "lat": 59.33065100000000, "lon": 18.05756900000000, "bs": 5, "bc": 155, "rs": 3, "rc": 141, "ys": 4, "yc": 133},{"id": "8a146c8801bf4ecb98c645c030185ae2.16", "url": "https://lh3.googleusercontent.com/V00x83uFgcmUaHVpQIe4uy4cyrLCP69vYVjDJzL7KnfJio-8712jzbcVz_-S1NV7fS3E0DiEEDftCSA9zPGJa0egQlIdNHm8UWVthQ", "name": "Stora Sköndals Kyrkogård", "lat": 59.25450300000000, "lon": 18.12455800000000, "bs": 14, "bc": 58, "rs": 14, "rc": 50, "ys": 12, "yc": 23},{"id": "8a3d607629864590bf6931c94840dcf8.16", "url": "http://lh3.googleusercontent.com/t-uWD2Mr4IaqIBv8WtIRnaZMzGYBa8iidTUOHxZIgluOhndolHrOWTntFyl8EQZVViqaGrxdMJUBaSTm0Uabi-8PLX0", "name": "Den Gravida Madonnan", "lat": 59.28843500000000, "lon": 18.11671700000000, "bs": 21, "bc": 35, "rs": 20, "rc": 29, "ys": 18, "yc": 26},{"id": "8c1febc673264831adbf2c25af2fdfef.16", "url": "https://lh3.googleusercontent.com/V2pfei5394kU21YtcNL8oSxTRr_gvLPpHYARtJx6G9FvbmgbSdrCZSFXV4aFNihHFZRGBc5hPqnJuy38nDocRQ9V3rM", "name": "Vetenskapens Hus", "lat": 59.35267700000000, "lon": 18.05814300000000, "bs": 12, "bc": 45, "rs": 12, "rc": 57, "ys": 10, "yc": 53},{"id": "8c7ae49a921a4be0b9cc9f1a5c711975.16", "url": "https://lh3.googleusercontent.com/GoMy3rcZI3ewSVBrOebegu10xbH4gYE55DNbHxe-H-xSfo9atcUowdieZNXf3WN7VfnTryxrZWnSu730jGmXE7qMJA", "name": "Bird Glass", "lat": 59.30402100000000, "lon": 18.09422300000000, "bs": 10, "bc": 93, "rs": 7, "rc": 65, "ys": 5, "yc": 71},{"id": "8cb0efe7d0c4418ab296e7d448fd679b.16", "url": "https://lh3.googleusercontent.com/wNdDJVSyF0DyoqM5ga7IPS-xQGONMilC38ssNudOazyQYLN_lJ1iQeFkuHCoZeKE0_dBSi3l6fKIv0-P9iXv20vUDvg", "name": "Stor Lekplats Vid Nämndemansbacken", "lat": 59.27460400000000, "lon": 18.11475700000000, "bs": 22, "bc": 16, "rs": 35, "rc": 32, "ys": 13, "yc": 25},{"id": "8cb8b087986540098b0a8e64063da1b4.16", "url": "https://lh3.googleusercontent.com/OICVowoECk4SiihbnCkpFRpEhxS4qUKqT29a9ws-UujNi63U2RfQzrcFIBcjr2VhiNPG62-pQq1PS6QmVHxWmCRSu50", "name": "Skulptur", "lat": 59.33618500000000, "lon": 17.95081700000000, "bs": 14, "bc": 66, "rs": 8, "rc": 44, "ys": 11, "yc": 46},{"id": "8cbff70f25b14f948a41a4ee2f5fdf3c.16", "url": "http://lh3.googleusercontent.com/MPCES6_83Lo0SeZC8hblvkbDoELZfwoPuKWMnBuFtBFMnltn2HffqiQ0c3jv6FsNtMJBlDkPk45gyNYSEJHSAnqjNA", "name": "Västboda Idrottsplats", "lat": 59.24631000000000, "lon": 18.08556900000000, "bs": 6, "bc": 31, "rs": 23, "rc": 56, "ys": 10, "yc": 34},{"id": "8cf4059e3e3b495bac577ca7c3193d41.16", "url": "https://lh3.googleusercontent.com/-0n43m-gAEGF0FgWgrpAZnsPIn9064cracJMeZGi7qt9znI-YyYo-sbHTMGzC0WpxC-AvaHVK3-_6MDqsVP1whu5", "name": "Metallkrumelur", "lat": 59.31214000000000, "lon": 18.02336600000000, "bs": 6, "bc": 98, "rs": 9, "rc": 105, "ys": 4, "yc": 44},{"id": "8d1ef5f0742b4dab83825ff4e6dd2e4b.16", "url": "https://lh3.googleusercontent.com/1PPTcsPEP84l-XTYUZqIBw4FCdvYv1WmLmu-Sqa-luaV_5yaySCEBHJTjSbtOfjR2hEIZv2gpBzY1JVCXBk8GlMYjIe3", "name": "Lekplats Läggestavägen 30", "lat": 59.26475200000000, "lon": 18.05380400000000, "bs": 21, "bc": 37, "rs": 19, "rc": 9, "ys": 22, "yc": 37},{"id": "8da21f350b5d459f8b17c3293d67a172.16", "url": "https://lh3.googleusercontent.com/i3_zC-j6FTUX-GjcUsYaoN5rDvPoPoZrMMkVcbyWpelMNp1j4UuIkWgXiSqUTf_APAlv2Q1xLeUNb3ADwPvy_YSaDb-T", "name": "The Anchor", "lat": 59.31969500000000, "lon": 18.07686100000000, "bs": 14, "bc": 45, "rs": 17, "rc": 49, "ys": 10, "yc": 31},{"id": "8dd0d36c26c947afa79f078db0b78ab0.11", "url": "https://lh3.googleusercontent.com/BiUEt7Oadv9JxPEkxztgZVKM2ySLxna9_eBWxPLsCeVWtMLMdLj0me8O3pFxd1k1ZcgfiegbW0ia8TW4tXX6mVSexPw", "name": "Faces", "lat": 59.29504400000000, "lon": 18.07041900000000, "bs": 19, "bc": 18, "rs": 62, "rc": 18, "ys": 19, "yc": 17},{"id": "8e18ad619ec04844b2d87d7c211cd2a3.16", "url": "https://lh3.googleusercontent.com/McJmvKDOw3Vb0Kw3f-OnVE6zTS5fzug4QxaSDkdKDeAhlUChFJz4ns3WwgwtChzhUyMifA7FsQSw7htQHOqpErWwJQ", "name": "Vintagekonstverk", "lat": 59.31008900000000, "lon": 18.09862100000000, "bs": 10, "bc": 50, "rs": 13, "rc": 44, "ys": 12, "yc": 58},{"id": "8e1f2c07dda0305d8ca43d9e0bd2d3b7.16", "url": "https://lh3.googleusercontent.com/nT9_Y2RMRCAY9G8z12SPWjiGJ7TKbbdll0O_STxjDzWvs4tYBoX8PU6lfyqx09lxT9VTT85VnPhS7W6YMa-L9AE1gq495_YDGX7nVs8", "name": "Älgar på kollisionskurs", "lat": 59.34608600000000, "lon": 17.88070800000000, "bs": 23, "bc": 58, "rs": 7, "rc": 45, "ys": 5, "yc": 23},{"id": "8fe5eee93b7a493fb4335d6eb4196263.16", "url": "https://lh3.googleusercontent.com/UV15OjOxKDZVZreWJyRMPnb1Z6_Wv3TUM530WC_IImFg4V8T8P1rdDGdv2J9gvE8T04LE3O8HCg1mv1JZluB9YGs98R6", "name": "Grodan", "lat": 59.31536700000000, "lon": 18.07390600000000, "bs": 8, "bc": 90, "rs": 10, "rc": 71, "ys": 6, "yc": 61},{"id": "907d782aea00429e8bd113f2a6c6730e.16", "url": "https://lh3.googleusercontent.com/SsD1F_RnDSfddKqdJace7U28MLNiWSr5FbSZ1ZWQp3UN5dAhl2S59KvxLi11IaPe0zVBPAxuIn1ZHBXs5J9a6OfS_w", "name": "Älvsjöbadet", "lat": 59.26879700000000, "lon": 18.01284900000000, "bs": 23, "bc": 12, "rs": 24, "rc": 12, "ys": 60, "yc": 20},{"id": "90daea1d9c6f43d7904c76e128e844d0.16", "url": "https://lh3.googleusercontent.com/LqJsMr1r4K0bR4zJW80wXj0kxsRPWInVjF_w1qK5KXJI21GzJE_O4LjYS-rWpxG1GBo8hfufLA4jCMO3mPr4gKHOYg", "name": "Triangelkyrkan", "lat": 59.28491900000000, "lon": 18.08689800000000, "bs": 14, "bc": 50, "rs": 8, "rc": 37, "ys": 17, "yc": 45},{"id": "926b7238039945a1b56f255fd21e126f.16", "url": "https://lh3.googleusercontent.com/N4mkEr5dn9GvsHinaM4NIxZS6XlqmvKa3FqJRSh8YUm-U_WH6wyEYTTYC8rFZhJyrHO5IJjaRwFcA3A6LH15Lwa6E_s", "name": "Karolina Widerström", "lat": 59.33393400000000, "lon": 18.03716800000000, "bs": 17, "bc": 53, "rs": 7, "rc": 23, "ys": 12, "yc": 61},{"id": "943e2c754e764d29854892d14f0f9354.16", "url": "https://lh3.googleusercontent.com/jfTm8QWyfU9wnXNwy46Mlcd8eJI4ymicIP9bA-2o-vYEBYSnL77CaVq1eKuQwSv25GSyhzSGkHpg8awWwdFkUqWx81w", "name": "Älvsjöskogen", "lat": 59.27088900000000, "lon": 17.99756600000000, "bs": 13, "bc": 53, "rs": 15, "rc": 46, "ys": 12, "yc": 37},{"id": "946031591d464a2d88512b1297a12996.11", "url": "https://lh3.googleusercontent.com/-tGvqJC4n4M8RpTZaOfgCcuDrK47YXBlijUCttPIR2xYOdixu1mbROXhio7Wc6vw2QfGLkL49XnqpmRdUB6_IUzFrw", "name": "Duo Statues Stockholm", "lat": 59.32016300000000, "lon": 18.06778700000000, "bs": 16, "bc": 59, "rs": 9, "rc": 46, "ys": 11, "yc": 42},{"id": "958758dac41b45acad1579540c68b3d2.11", "url": "https://lh3.googleusercontent.com/dPF7OBheLSZCW2Qn4XEBP6G5DSH3NY_m3mSHIjOcFEQ4cboVkvttj024FUlyyDP9oJwAkJLKQKLB_XQHA2IbqkDMhw", "name": "Dansen Kring Granen", "lat": 59.32477400000000, "lon": 18.01045800000000, "bs": 10, "bc": 94, "rs": 3, "rc": 39, "ys": 9, "yc": 88},{"id": "97b86b68714045288826474f29a632d4.16", "url": "https://lh3.googleusercontent.com/U_uu_z2eVC4g1_aL5Kko0RmDNBjNwV3gINM5T8QgbrsCZObCR1Rg8ID7ieKLJ7x_S3-wypsiGV98809q7WXBHHvFZT0", "name": "Vildblomma", "lat": 59.24630100000000, "lon": 18.06117600000000, "bs": 24, "bc": 32, "rs": 25, "rc": 30, "ys": 12, "yc": 22},{"id": "983fef8edffe47feafc673f2cdd6284d.11", "url": "https://lh3.googleusercontent.com/0jLkqzgBw72wNPc2SrwradOvj7L5KQ5WyaQUVV56kAMOV_wmDS8e0rX7DsomR1PWKeRapksMSdHlxl7pOphmGLOBnjts", "name": "Sankt Erik", "lat": 59.33266700000000, "lon": 18.04740100000000, "bs": 11, "bc": 67, "rs": 4, "rc": 53, "ys": 14, "yc": 62},{"id": "98bc894cc9274efb8280a3108634a89c.16", "url": "https://lh3.googleusercontent.com/XUxVhS9rdeLfAc7vu1XlifUoebvr_3vXSD_n7-32zsnBJHUEhlec8hwD7OW4XvepGDtURJ96MVvRU1Y9CD2j6HRrhNU", "name": "Palmfeltsvägen 73-77", "lat": 59.28814200000000, "lon": 18.07194000000000, "bs": 13, "bc": 26, "rs": 29, "rc": 38, "ys": 12, "yc": 23},{"id": "9a4876d1ab63435a9e56b297b1e96643.16", "url": "https://lh3.googleusercontent.com/qUbPcc9G0U5IxnBtl7q44rvBIGKHrR4DSqNm3rs6ryeXGo1HUAJoz6rleJTp-dK69z-TtYF6-3AZbZz-9__Gn4sJ3Hc", "name": "T-bana Islandstorget", "lat": 59.34598900000000, "lon": 17.89334700000000, "bs": 14, "bc": 36, "rs": 5, "rc": 24, "ys": 23, "yc": 49},{"id": "9a7e171db3564cf7802ac8c728c4b98c.16", "url": "https://lh3.googleusercontent.com/jT_xZ2EI0z-O4JYkFymJ5Ut-Z5zZCzAF03XQyI_IvBOyh69IOPuqRBJVI0LXsEjbd5HHDstLN1VD5HLxhBwUFVcv3g", "name": "Postiljonen", "lat": 59.24213700000000, "lon": 18.09149000000000, "bs": 3, "bc": 107, "rs": 6, "rc": 138, "ys": 6, "yc": 109},{"id": "9be4649c34c34e7d91bd5864cd37b7b7.16", "url": "https://lh3.googleusercontent.com/3XRpAs8gQ1CIOvQ6T7AfmdR9KMBeQ84E3Mi3H6ktxBQRZWbR7KwomACgGoqs0_GYPSQm986oRVd4BfUckJV9l33s2FPI", "name": "Krooks Strand - gamla badplatsen", "lat": 59.26770300000000, "lon": 17.97017800000000, "bs": 20, "bc": 38, "rs": 12, "rc": 21, "ys": 21, "yc": 37},{"id": "9c7ce789f4eb4d649a86c01de841fbb3.16", "url": "https://lh3.googleusercontent.com/cCuor5wThhkuAD7jUOgtuYGIgN3TaW8MV7nzs26p31raLSDQTs2TG-F1ix6-_bla4524la2gQ01Zck0CJYIkKA-2sg", "name": "Log Sculpture", "lat": 59.27698800000000, "lon": 17.98281000000000, "bs": 16, "bc": 29, "rs": 22, "rc": 38, "ys": 14, "yc": 35},{"id": "9e3e3bdedb7a4f898443217cce8dfca8.16", "url": "https://lh3.googleusercontent.com/1pAoyaRwoUInnGJPHOSSphbTtUalSbg4PIs8YplLr2qTodcHkV04BYELwtD8UKsoHMARJAG_9b6ZbhglOxeP3uPatb8", "name": "Wasa at Styrmansgatan", "lat": 59.33199000000000, "lon": 18.08502700000000, "bs": 15, "bc": 36, "rs": 17, "rc": 30, "ys": 16, "yc": 46},{"id": "9ea48ec12bf44c38b49cf1ca6cd2b0e3.16", "url": "https://lh3.googleusercontent.com/wDraOrUiLeP63eGAkXRF59Is3CWjQublG3s6j3R0hyxBh4jZ9LxJzDH_rnQOt5o_zvsNYYZ6Su19aGwR8WWBUPAbWom5", "name": "Tornet På Svandammsplan", "lat": 59.30039900000000, "lon": 18.00405800000000, "bs": 14, "bc": 80, "rs": 6, "rc": 44, "ys": 7, "yc": 59},{"id": "9f0fc352c2214a81a882e1170e8b3d9c.16", "url": "https://lh3.googleusercontent.com/apCRV7xmzRzHdRSMThiLVjOBLb9YOpg9M9Y_eB6vcchjTqJ8VZt3gRql3u5g_DGwYh1ipFxVn_sbUJBTD42AU115Wg", "name": "Brewdog Bar Stockholm", "lat": 59.33624700000000, "lon": 18.03409400000000, "bs": 12, "bc": 66, "rs": 9, "rc": 48, "ys": 10, "yc": 53},{"id": "a05b38684804413fbf8217100a55b146.16", "url": "https://lh3.googleusercontent.com/c4Lmm41qKPvTistziDvMRqcI6840oy_xs8nApQFGW7Ow-Vt571_LNIgPXyTnKdS1WXnuzJRh9kdgKYFvKTP92w5SOw", "name": "Livsträdet", "lat": 59.30073600000000, "lon": 17.95634800000000, "bs": 20, "bc": 40, "rs": 21, "rc": 27, "ys": 13, "yc": 34},{"id": "a0af602046704642b586e704899396ae.16", "url": "https://lh3.googleusercontent.com/s67Qcp62W0eelcrzs39YfW7z_YNdShkn_e0LRzp4brBQIyD1ASnX05TLOFPfaxcaz6OmleNIZ59M5iTdN1YH-Z8HbQ", "name": "Västerleds Kyrka", "lat": 59.32791000000000, "lon": 17.96705000000000, "bs": 16, "bc": 25, "rs": 26, "rc": 21, "ys": 26, "yc": 32},{"id": "a0ce8d6cb09a438b89a1cf6c9b0377db.16", "url": "https://lh3.googleusercontent.com/djcFdhRAtm3HykxWuhiMmj-qNm4nmSQfQweJAuxKIpmb4tX43-05aFf8jPnQx3ws4U4gS75dNFIeOWNvLN5qhJsI5Q", "name": "Glashusfontänen", "lat": 59.30338900000000, "lon": 18.10354800000000, "bs": 15, "bc": 62, "rs": 10, "rc": 27, "ys": 11, "yc": 54},{"id": "a0f0cd9bb2bf46feae2333de1233eda1.16", "url": "https://lh3.googleusercontent.com/OklrglLNQBRs57v5mE3zhxn4M2j_9lAFp6Bng1BkH54MEMBJBQmb_OpfPNaDInQsAhlXhK8ceyeq55GbIgg5e3a1TZg", "name": "Three Wise Frogs", "lat": 59.30438500000000, "lon": 18.00704300000000, "bs": 11, "bc": 79, "rs": 8, "rc": 50, "ys": 7, "yc": 69},{"id": "a1698d872e0f4b6ba576027808c72928.16", "url": "https://lh3.googleusercontent.com/5a_8esQHND4i23iDohQiCU5rR5lfmSIu3VQsoralKqaqrPNCqh59nOQ0bBC9CHnE1zFJ71rdQ6pb_GxUDL7KtGMe", "name": "Västra Stallet", "lat": 59.33404500000000, "lon": 18.08936100000000, "bs": 15, "bc": 44, "rs": 13, "rc": 30, "ys": 15, "yc": 50},{"id": "a17b9fa1329641a8b48262d3340d2480.16", "url": "https://lh3.googleusercontent.com/LiHCEDNbB0KSEGwbXrFXkwcJlZEgIS9H0XOsRjMK7s49ODnpyirpHz9qcYNpnZ6qCT6q5uc-xqXtxYf_Y2Xl6lkLLw", "name": "Nordiska Museet", "lat": 59.32928600000000, "lon": 18.09424700000000, "bs": 22, "bc": 35, "rs": 17, "rc": 27, "ys": 14, "yc": 37},{"id": "a2c4eb8ce1d04973b82db4d896cc6655.16", "url": "https://lh3.googleusercontent.com/qe9_vnfMWxr8GPesIK_OAQJpYbtM8Q1ziiTzlDNtZOaD0VyDAQbm2Q4vLmnznc1THq8dRO5qSg0DPKAz5hrHtaWqGA", "name": "Trapped in luminescence", "lat": 59.29002800000000, "lon": 18.09252500000000, "bs": 5, "bc": 81, "rs": 4, "rc": 91, "ys": 8, "yc": 131},{"id": "a3efb6260feb4ab49b8de8a3ef71d2ed.16", "url": "https://lh3.googleusercontent.com/iohV-Ys_1eTZTHesyRe52YLbT5cfuaieq3g2qmKjARERS0yE4s7Esm1UQTF85NQVkM801LWvxa6_l_-E1L0MYASWfTk", "name": "Grimsta Naturreservat & Blackeberg", "lat": 59.34777400000000, "lon": 17.87313600000000, "bs": 19, "bc": 60, "rs": 6, "rc": 19, "ys": 9, "yc": 54},{"id": "a3fe094e0e2d428295fec37e2515088a.16", "url": "https://lh3.googleusercontent.com/g2GtlELA-Qoxiwx5vLjigHdK9r9GHvwwnVSGTihsg_FjY7wRLjuizi8_lO-KUvh58Sf-EvW6VNr-cv3nC2aLq6CdWvo", "name": "Morgon", "lat": 59.32603800000000, "lon": 18.06814700000000, "bs": 12, "bc": 60, "rs": 9, "rc": 49, "ys": 12, "yc": 51},{"id": "a4124d43fe8a40e095f25620e187a447.16", "url": "https://lh3.googleusercontent.com/T235zdVHP04goLyQzggiMfhGyyOl9_VxTERRKbkDr81we7cSvHtEI_sx1n4_wPsY6ysK21rBQixVODjll7ZVRpCPvg", "name": "Grötfatsfontänen", "lat": 59.36695500000000, "lon": 17.86960200000000, "bs": 24, "bc": 55, "rs": 6, "rc": 36, "ys": 8, "yc": 36},{"id": "a4597780a0ff45b9a9094c711f10b7c5.16", "url": "https://lh3.googleusercontent.com/uMYo9N-bjlBxupEj-Bz_szSThhVlqoHn5hGUxqsSb7RyMKM-oAYDd1zgOZAeIia9DRwTTsrL0HDkow1Gy3ZyatKvUQ", "name": "Naturreservat Maltesholmsbadet", "lat": 59.35804400000000, "lon": 17.84049200000000, "bs": 18, "bc": 20, "rs": 24, "rc": 30, "ys": 23, "yc": 30},{"id": "a4ddddca88454c0f8a489d024b4b0dee.16", "url": "http://lh3.googleusercontent.com/5Gw3lEDt0UM33-jRT2CHyOF5c7IfGGYqymP6wHLPigTeOxKsOJB2VN0f6PknaZnD8AR5IGbWLgOSpTl4k90PIk2558o", "name": "Blomdekoration", "lat": 59.34851300000000, "lon": 18.04884400000000, "bs": 8, "bc": 33, "rs": 18, "rc": 61, "ys": 8, "yc": 49},{"id": "a5237d85a0a94c16bb868276b4dbb4e0.16", "url": "https://lh3.googleusercontent.com/PR73WxM7MQm5_cO7rYV-AFO82CDseOfiIfocGnbLkJFYD6rHo0q2oG7WvGIzX28-ijJrB6IP_1dww9-VnhUoTgPY_coM", "name": "Klätterkanan", "lat": 59.29484400000000, "lon": 17.99729800000000, "bs": 3, "bc": 57, "rs": 9, "rc": 91, "ys": 8, "yc": 95},{"id": "a595eed81e324a8fb089e3d27d421cb0.16", "url": "https://lh3.googleusercontent.com/bjGbncuGHKn_LcJFey813Hwqhrr-b-83rgH94YygoqEpc4brUdfyHUDnud4DbF2Q6VS-C0jxZjYUWEU3iRArbDUMvMEj", "name": "Kronobergsväggen", "lat": 59.33477400000000, "lon": 18.03458800000000, "bs": 7, "bc": 66, "rs": 9, "rc": 79, "ys": 7, "yc": 85},{"id": "a597864f9a5c4396a909c772e58b5c74.16", "url": "https://lh3.googleusercontent.com/d-g1xvw6WwDr1baZFAmHqEBjrPsyb-ot26bDRFbG13QrnkPhe7w0_BAR2ubNt_i7YY0n_sqZZQ18WwnOzGIVWDXySSo", "name": "Kristinehovs Malmgård", "lat": 59.31828700000000, "lon": 18.04109200000000, "bs": 15, "bc": 59, "rs": 9, "rc": 22, "ys": 13, "yc": 53},{"id": "a5ee025068eb4b129afdaabc598464ed.16", "url": "https://lh3.googleusercontent.com/EY9Yys1MP9G1xKhYGM026TgEQvQt4P5ny7fBRv9FRovZHytcJRaLOJJrZj4neRlPLxKkbJAFb__s9ElKd6FFKvgr4Q", "name": "Alviks Tunnelbana, Västra ingången", "lat": 59.33355800000000, "lon": 17.98018100000000, "bs": 13, "bc": 52, "rs": 13, "rc": 44, "ys": 12, "yc": 44},{"id": "a678634f97744e34943024f54a647c31.16", "url": "https://lh3.googleusercontent.com/bREK8DK4sx85XWwPL06xEufF-tx-UiNbCO1YBqwwm0eaGv9nqQObpquetCquBxv2uhh2B4UOFx-DvimqH2NnLIUv1X9n", "name": "S:t Görans Sjukhus", "lat": 59.33360200000000, "lon": 18.02378900000000, "bs": 18, "bc": 51, "rs": 13, "rc": 43, "ys": 8, "yc": 44},{"id": "a67dafde45d647fe8740609e771a7def.16", "url": "https://lh3.googleusercontent.com/Pq7fek7e18-xieqhG_9_fy6m8sF4QbzW74cmjnBY09m-qSFPpMJhAFQuKkuyAxWPGfrW6PjZrUB2zaJTGlv4XbUyzWjw", "name": "Bromma Tower", "lat": 59.35607100000000, "lon": 17.92255800000000, "bs": 16, "bc": 8, "rs": 77, "rc": 20, "ys": 11, "yc": 10},{"id": "a70244ae2df44cd39797a2d84d23282a.16", "url": "https://lh3.googleusercontent.com/-iyPhX-XgOrShklZH1hQ4OxTkf9tq35S2P0jDy0G9ahwbK6ZAllpN8z4N0FrbJILoJgBeVP7O9nxVIQRBL3TZH4IGrA", "name": "Entrance Art", "lat": 59.33855800000000, "lon": 18.00946000000000, "bs": 7, "bc": 121, "rs": 5, "rc": 96, "ys": 4, "yc": 106},{"id": "a7c1774ca1d04361a5a3288c3451824f.11", "url": "https://lh3.googleusercontent.com/Zdi7wkB7RQXp7VSvnUFG-s0by5EuJXl1NyX-HVSwOoWpWNkJt3RMDKYSI3VivoZw3CLsecAfAcST4506Z-nCE4s-2Xgu", "name": "Nacka Skoglund Memorial", "lat": 59.31128500000000, "lon": 18.07992600000000, "bs": 16, "bc": 79, "rs": 5, "rc": 69, "ys": 6, "yc": 35},{"id": "a8c9e8b85a4e46aab1ee1abae3bc5330.11", "url": "https://lh3.googleusercontent.com/CMZMj0cYyFqrOuI2hUiYqxLvYChGnYnkR6dWDXtQgsTIcnED92ifKZiOzLHOQtghqx6q5RAt4jtcv4Mntig5PXMhVks", "name": "Fontändamm", "lat": 59.30581600000000, "lon": 17.99785900000000, "bs": 10, "bc": 46, "rs": 12, "rc": 42, "ys": 13, "yc": 65},{"id": "a9569ed2780d442095d72109f7a98ac1.16", "url": "https://lh3.googleusercontent.com/8e29538z2ffAPQ4u8Hzve-6UflRuMfjAhKkzxnrs8GX37PZst6_7D8uCoQxZfjOVDxEtm7NEatgA8F1CIrP4NiL5PXg", "name": "Rasunda", "lat": 59.29775400000000, "lon": 18.07176200000000, "bs": 20, "bc": 31, "rs": 25, "rc": 26, "ys": 24, "yc": 20},{"id": "aac2cace24a5451fbf09d7c8c10c07ad.16", "url": "https://lh3.googleusercontent.com/9Ylnj0UPTSlLpog446COSHdthuSFqYSwW-eCCLr9Icld2zL27tHBaZjRyg8slODfWBgbuaippJYzg3gx3jfKSE0YXbu1", "name": "Blackeberg T Station", "lat": 59.34873900000000, "lon": 17.88223900000000, "bs": 4, "bc": 46, "rs": 12, "rc": 81, "ys": 8, "yc": 75},{"id": "aac8b0452b1840dd88ac5497a74348f4.16", "url": "https://lh3.googleusercontent.com/K3ZYegIoumtkyNgcviV5I1LILp3PMtWEz35pHDXjtYn9cdbugY2UD37XXMh-h76sq6jGz5D4tDEGCc373Jjd5tVEXw", "name": "Västertorps Historia 2/7", "lat": 59.29193900000000, "lon": 17.97378200000000, "bs": 13, "bc": 57, "rs": 6, "rc": 12, "ys": 17, "yc": 57},{"id": "aaf74c8f559c41b88d2bbd583f39af95.16", "url": "https://lh3.googleusercontent.com/jytn2kRx8HSgE0vPrYd1lqCwEwtiSDc6P5pYcJ-quC74bmYaiGGh3VYnkmyfPwbrSNLSovaK4GKe7wco0VKOATF6UPLbxexyBTcNr7Hxag", "name": "Tuffsen", "lat": 59.31833800000000, "lon": 18.01943100000000, "bs": 9, "bc": 38, "rs": 18, "rc": 56, "ys": 9, "yc": 50},{"id": "ab2edfa3768249a2aeeb725f97b27443.16", "url": "https://lh3.googleusercontent.com/Jipwze-FQRbCGs15y1fVOOJqs9faNLnz-EMfZrPR1qGDRvfv_MI2eRLywFxb6eYXWA8eh_muXawJIAinsox9bSQwAg", "name": "Graphic Leaves", "lat": 59.29677700000000, "lon": 18.00030100000000, "bs": 7, "bc": 62, "rs": 6, "rc": 31, "ys": 16, "yc": 74},{"id": "ab73e7b13a064e13a5051323c5d0a1ec.16", "url": "https://lh3.googleusercontent.com/jDk3zt2zrsHSY7pxB5PnUNqo2bujHgsmJ_irHNotkS2hXf12Uf9uXfhO3CJtwl7BEOAklE9e6ZHTnGhkURihRlFWR-0", "name": "Mötande Havet", "lat": 59.33822000000000, "lon": 18.08746900000000, "bs": 13, "bc": 55, "rs": 14, "rc": 31, "ys": 13, "yc": 49},{"id": "ac8fcaae62ac44a8b47602d95e50709f.16", "url": "https://lh3.googleusercontent.com/u7xQt4RwbYI3M2PGWVwjcLG_xr2y5MDZOP20e20RN-2uSMSQeg0UOuHr07Vfv_SiaxC4Rg0yFAbrcA9llzju9_q1ay5I", "name": "Äpple", "lat": 59.33365800000000, "lon": 18.01990500000000, "bs": 15, "bc": 58, "rs": 11, "rc": 48, "ys": 8, "yc": 46},{"id": "acfe34b381f24d21bb85c60976a71275.16", "url": "https://lh3.googleusercontent.com/YF9U8M5hYdjKfS5KXz7gVwpUe_M-UaGWDnC6uulBd-U6m2b3nxexumy7g7jJgWrKSpWAw25HEgSjyXQrHbPbzJfp3rxd", "name": "Mingel", "lat": 59.35072300000000, "lon": 18.07217400000000, "bs": 16, "bc": 81, "rs": 5, "rc": 47, "ys": 6, "yc": 47},{"id": "ad0773898268425fb2583a9b204b066a.16", "url": "https://lh3.googleusercontent.com/su40oNHv7CJqFStf_ZL4NbrPugstwHRy9QRrADh6yHuk-v2OqTmf04mC54E1fYqk3sylQ_al9H1rlBtSQBR-VWqh8w", "name": "Älvsjö kyrkoklocka", "lat": 59.27637300000000, "lon": 17.99389000000000, "bs": 14, "bc": 66, "rs": 13, "rc": 66, "ys": 11, "yc": 1},{"id": "ad924f2470874430aed4ad581fce348c.16", "url": "https://lh3.googleusercontent.com/QS7sKHBq-g3gQ2iyejRLawtCSO_yEI07pk0tJ4K1bbI3Hz9bjmyqoidf3nAHRNlNmljnm_hmHwOmnyUW5XKNzEC8vg", "name": "Årstadal Tvärbanestation", "lat": 59.30588000000000, "lon": 18.02568400000000, "bs": 12, "bc": 70, "rs": 9, "rc": 77, "ys": 8, "yc": 30},{"id": "ae488f210c744b0e98935821ed51ee7d.16", "url": "https://lh3.googleusercontent.com/tD3B95QepHPkVg2TlROEn8R3d7TCo3IjisYDQ_U57PDKMhqdv5A34-1OVjrxq07csQ6aUGcPG4oBdqFU-CK0LUBH1Utv", "name": "Smiling Buddha", "lat": 59.30112000000000, "lon": 17.98996900000000, "bs": 13, "bc": 48, "rs": 21, "rc": 49, "ys": 5, "yc": 15},{"id": "ae66b4c349ca462cacabe01f3e1a0031.11", "url": "https://lh3.googleusercontent.com/NeAiH22tkgXENby4fqzLew0Qt6rdW9HRG19d9BbbkzFl6qWbibGqkyEnxzuPwg5ImP3Jg_a6hMz_FyDJGfUj_e4ZU1c", "name": "Gullmarsplan Bus Terminal", "lat": 59.29774400000000, "lon": 18.08177500000000, "bs": 7, "bc": 94, "rs": 7, "rc": 83, "ys": 6, "yc": 91},{"id": "ae76621ba006498eb29bfcf0bb5f6ea5.11", "url": "https://lh3.googleusercontent.com/QPTCI0d6RdKmbEGIXmTM0sTvbxND05s_tl6HXlMLfMXerA4fRZmSxm3Fw0W1GeG5ECq1oEysQCpQwYMv-1zK5BMVuQ", "name": "Seglats", "lat": 59.30490200000000, "lon": 18.08882700000000, "bs": 6, "bc": 44, "rs": 10, "rc": 70, "ys": 11, "yc": 78},{"id": "af4ca087df33460a901febefb418683b.11", "url": "https://lh3.googleusercontent.com/bVFP_zg10jRZsFCw60DzQX1WTjsI3FXGJwSCPInhcl6365LimITepStgGE54743DaaZr3pcQ5tfxakglRRtFhHj3mPrq", "name": "Engelbrektskyrkan", "lat": 59.34387500000000, "lon": 18.06804400000000, "bs": 15, "bc": 57, "rs": 13, "rc": 59, "ys": 8, "yc": 22},{"id": "b05962f1585748358fe7360346c4017e.16", "url": "https://lh3.googleusercontent.com/E6-gyTemiNI7JFKsDy66hf3xE_Ri9xjTVEzPdSAsWLK6U_k4P14cJzQFSBfUDiVetUBvduWViF8gpS-R7cB0Ri_x2Cdh", "name": "Systrarna", "lat": 59.29466600000000, "lon": 17.97055700000000, "bs": 21, "bc": 40, "rs": 10, "rc": 26, "ys": 15, "yc": 43},{"id": "b080a8722c3c484bb55fe8bc177c3501.16", "url": "https://lh3.googleusercontent.com/cMvvfFoKqt6BHlnvUDrPHy4qQeB5IdKXADmgqTJuNcV823FaiIq05Pq0UfuH-e11Hlgl6WwdXivdHaCxOb45rCziakw", "name": "Här Och Nu, Mitt I Livet", "lat": 59.30552200000000, "lon": 18.08178700000000, "bs": 11, "bc": 58, "rs": 11, "rc": 47, "ys": 11, "yc": 60},{"id": "b0f62ae8a4324d33bb35f0e6c79357ca.16", "url": "https://lh3.googleusercontent.com/xXoIZ6MIvhiM_UiwTMnlptZIrODOzKsXj41242wPvevWRCiM8C9sK2J3ggUAcq-4afheXKn93ZyWjEEbuT_1KrhSFhG3", "name": "Stockholm Waterfront Congress", "lat": 59.32943700000000, "lon": 18.05709300000000, "bs": 5, "bc": 195, "rs": 3, "rc": 153, "ys": 3, "yc": 127},{"id": "b150217084234f00b7eb96c9a28a48ed.16", "url": "https://lh3.googleusercontent.com/G6G5WmG2pq1zl0RVLCjFaD2Ojh0OGyB7mbcj1C8dhilxb2yP1vw9373rNzAixIn9LyP34rAADZsf8PxFoTmn6E_nW8Ho", "name": "Långbro gård", "lat": 59.27995800000000, "lon": 17.99206100000000, "bs": 16, "bc": 31, "rs": 33, "rc": 36, "ys": 8, "yc": 15},{"id": "b243ad0b3c744762a7fd74dbe736d711.16", "url": "https://lh3.googleusercontent.com/g38pCbdY3H44WxVvl1_8EabkM4HppE2MGTwRi4DzbOgEbM9XFSIFJs-HrUG4CjJBegDE6RVO1slOZ6jvcJDphdKQBUY", "name": "Hagsätra Kapell", "lat": 59.26160100000000, "lon": 18.01486400000000, "bs": 13, "bc": 47, "rs": 6, "rc": 38, "ys": 15, "yc": 61},{"id": "b2c81a87c1f545d48ce7ca0037b8edaa.16", "url": "https://lh3.googleusercontent.com/eLv-FBmWaNTDLaG0Xw3jCgw1daSC8JA_E1suCYmlcV5rFWLAxk8x0pLXg8Ae4M4gaMK4XLbIXHM9Z6mYFOpcpxbQfIBK", "name": "Stoned", "lat": 59.34739300000000, "lon": 18.04558000000000, "bs": 22, "bc": 53, "rs": 8, "rc": 43, "ys": 7, "yc": 31},{"id": "b43c87203cea474a96f35d2ecb0fe21d.11", "url": "https://lh3.googleusercontent.com/CA2z1ybgcrBBjOsAe1rZWlToasYCtTA4rK7gO9T-b6zBkXN-SuEdeWarscHpza-eK78jbrrm-bu7NIP6_3fXlw4fGg", "name": "Remembering Willy Brandt", "lat": 59.29505800000000, "lon": 18.10731100000000, "bs": 11, "bc": 30, "rs": 22, "rc": 52, "ys": 10, "yc": 28},{"id": "b4f3d2e766734bdfa4e076161e8e91e3.16", "url": "https://lh3.googleusercontent.com/WjhSbE4xqNKUbR5TJ06X1VJzDKav9G5hafdlkef5J1__VieC3cQcvksptnlMO5Ii-W7s-tHq-CIKBvsKpnn4mU5BYyo", "name": "Ihopkrupen", "lat": 59.34534800000000, "lon": 18.06325500000000, "bs": 9, "bc": 88, "rs": 9, "rc": 88, "ys": 6, "yc": 25},{"id": "b5143d236b4e4ec08be9ffe76a4108d2.11", "url": "https://lh3.googleusercontent.com/3EDwn6nv_dbIYGrjk_RhPbALUpRu1wtAzwkOLGaHSPeiwOTw5YCddJcjPvWDCB7abT_CBeXSvxEBx0Jf_NnqrR_Kuh-o", "name": "Tanto cats", "lat": 59.31111100000000, "lon": 18.05000000000000, "bs": 23, "bc": 36, "rs": 13, "rc": 18, "ys": 22, "yc": 32},{"id": "b6870824d39349a4845db0ec71d3826e.16", "url": "https://lh3.googleusercontent.com/X0Ob9_-CZAmRjAh99hf8UZO2Hq3HwvX2OAI_yLuyfFN-RtEmPcZOcWCR2ZIFWog_WJVBxAk29wjEIlma5hs-ywhLnxs", "name": "Träskulpturer i Äventyrsparken", "lat": 59.28259900000000, "lon": 17.97524400000000, "bs": 6, "bc": 36, "rs": 22, "rc": 58, "ys": 8, "yc": 38},{"id": "b7ce70cbf1774e2495a6f7172fed22bb.16", "url": "https://lh3.googleusercontent.com/fBLh0YPjpXi5n-fM7ckQAx_52m0qxBQnxnVZA5Mwvf3gj552PGoPQOeEu0_s36vsrP9zBw7TRkyNiLrFVo5G7kYU8dM", "name": "Bruna lekplatsen", "lat": 59.28357200000000, "lon": 18.04761500000000, "bs": 5, "bc": 52, "rs": 12, "rc": 103, "ys": 3, "yc": 84},{"id": "b8cb414595e0478ea213131b27be33a9.16", "url": "https://lh3.googleusercontent.com/vT6oTlh77TdtcXdkeN3VtmtKJAirC9mdGFdhEkJ58xPxAx0_KQzX3V8WSs-GpLSCmJIktNr3t-ztDTLAgN5iErbYuV8", "name": "Stående figur", "lat": 59.31214100000000, "lon": 18.07462800000000, "bs": 7, "bc": 96, "rs": 9, "rc": 103, "ys": 3, "yc": 54},{"id": "b90f273a22984499a0591ff69c655177.16", "url": "https://lh3.googleusercontent.com/bYKmHiy51U_kjZVosn7whWcfs-AlFhjXPdQofnlK4sxIcNPnST40FRqB6RdDZyMfGJowtKZ69zw12A75EJl8KZ_bUFg", "name": "Djur i Cirkel", "lat": 59.27391600000000, "lon": 18.02430700000000, "bs": 17, "bc": 70, "rs": 7, "rc": 29, "ys": 6, "yc": 61},{"id": "b9c2dd39e30e4d0792a20ff99ca850f1.16", "url": "https://lh3.googleusercontent.com/CNWAbrJhAH61AXPKBl1TtBoh46lfcsPZxNthfGuVIzYBLhhG1LnzXs3AEVD-Az1kN-wvG1XixJH7yahHf-Of9uzsqQ", "name": "Barn Med Fisk", "lat": 59.32766400000000, "lon": 18.05521500000000, "bs": 12, "bc": 64, "rs": 7, "rc": 52, "ys": 10, "yc": 68},{"id": "ba9e0b6914594b539dd15c05d3fc8a9c.16", "url": "https://lh3.googleusercontent.com/52oe0YTbPjG7kHADCygy1yYDgXC4AbHuMjFMYuU6BBdl419_U_wPSjRWKkjcmqH7D735ObpVdnIRRN6hVAtnsZBQGeA", "name": "Bugs in Stone", "lat": 59.29958400000000, "lon": 18.07671700000000, "bs": 9, "bc": 46, "rs": 28, "rc": 45, "ys": 4, "yc": 26},