[{"id": "05a6dd2338d8424cb63af726329147dd.16", "url": "https://lh3.googleusercontent.com/q80PgeGuYejHG3RzqhyOC9-ok8jco_swIExCKLGTYMhppC8y5BTVxZI63L7uyF8xw97YOis2LiTQ3UqH1j-1eSfFRHU", "name": "Fladder", "lat": 59.27125300000000, "lon": 17.89694700000000, "bs": 81, "bc": 16, "rs": 27, "rc": 6, "ys": 21, "yc": 15},{"id": "0fede1fe97fa41b889f21865910bc213.16", "url": "http://lh3.googleusercontent.com/dkjF1BoU3_VmUOYFjFWkgulcCWuOakDIK_2BH2iB5aetFI3_sCzELBhRjrFYIpgRwZAGunNew6DDzegAR9NSAzxfCw", "name": "Varvsarbetarhuset", "lat": 59.29606100000000, "lon": 17.91073600000000, "bs": 94, "bc": 8, "rs": 74, "rc": 7, "ys": 46, "yc": 3},{"id": "12425cc63615420aab7e73a002528be6.16", "url": "https://lh3.googleusercontent.com/RDFiDcSuBRxqhvOAbeUpivQPVGHR7Zoj2a-eIuduVboVQr8rJwNtx4t3hQa0C43lzT0Y-o64CRr-fHUYLr2NW-cuflg", "name": "Utescenen", "lat": 59.25536100000000, "lon": 18.03931700000000, "bs": 73, "bc": 9, "rs": 61, "rc": 10, "ys": 33, "yc": 10},{"id": "144017a7aa9a394584d35f55df407f8e.16", "url": "https://lh3.googleusercontent.com/NsSMAnaQkTHp-i8Zm797kHnQ7uVddOTZKiAQYz6ooOcb30xCP_iaxTXneiJdc7oyuU4zuWLaUDkVZs2asoVrXd3LADxrmZ_sQDPEsAny", "name": "Pollineringsträdgård Kyrkhamn", "lat": 59.39166500000000, "lon": 17.77335700000000, "bs": 83, "bc": 6, "rs": 120, "rc": 4, "ys": 128, "yc": 5},{"id": "18e2ccc67b354f4b9abd982f56d69558.16", "url": "https://lh3.googleusercontent.com/fNA6IZi_1tlzRApo2pBi_vTNAqJMdgR2HOTPKb_iKjmDMM2WcVqsFCo3-jbz92XgsbBnCmgzGmP-FozCKu6CoptdVZo", "name": "Känn på mossan", "lat": 59.29917500000000, "lon": 17.92153700000000, "bs": 62, "bc": 14, "rs": 47, "rc": 9, "ys": 23, "yc": 7},{"id": "19c73d02858f45b48be42f6ce090948c.16", "url": "https://lh3.googleusercontent.com/0e2M9u9MwRko2t-a_9icshAK4DIOv8CjpTRLbvcxCXI-5BFUeFj729mfFHjyjMvLyPo4q4WB58Y136QSdRFIdBth2Ew", "name": "Fort Lingon", "lat": 59.38708100000000, "lon": 17.80175000000000, "bs": 91, "bc": 18, "rs": 8, "rc": 6, "ys": 7, "yc": 13},{"id": "1fda3948de6940308bbfc59808d59fc6.16", "url": "https://lh3.googleusercontent.com/FHMu9xYUnkEGWocupXg55Dn_OqyiTc1LQFOhpCvDvytU4bZZzbn8Tghr-C5SPwyfTL8kyjPJiALVW20GHZakzFabbe0", "name": "Husby ishall", "lat": 59.41091200000000, "lon": 17.92103600000000, "bs": 108, "bc": 14, "rs": 5, "rc": 5, "ys": 27, "yc": 9},{"id": "21b6648112ec493a87e734979070e7d9.16", "url": "https://lh3.googleusercontent.com/zRJu5YGtCYDmK3FlN6Lr2caAUvbstUc8SH9lObnNFf1NKZ833Fxphjde88cGuDmX-cdMZCYAB-bkOQdX-dFmf8_GeqAq_PaeTqO0VfQ", "name": "Gravfält Och Stensträngar", "lat": 59.42834800000000, "lon": 17.89806500000000, "bs": 315, "bc": 1, "rs": 206, "rc": 1, "ys": 472, "yc": 2},{"id": "2392583c7ad24254b662c41a37d3907e.16", "url": "https://lh3.googleusercontent.com/jQRBSo7UcM0FvkW7hXDEWU-ViLIkmzcedGaq5S11LKTINzkhO1xNQ9IpWO3h4Ps8VAfwpO8RdhGFpV-s6e-WAeuo7Q8", "name": "Flaten", "lat": 59.25360300000000, "lon": 18.14551900000000, "bs": 112, "bc": 6, "rs": 95, "rc": 3, "ys": 83, "yc": 9},{"id": "29ce21c928ae4958960028a23491c1b5.16", "url": "https://lh3.googleusercontent.com/eI9GkVuHMVWpcbBRmiFM4t6nuotMIRF34KL8xDdzlxBoCBPx43MOococL6C0vC_bDGAZqeCpKZkJkLO2iv8obOQhxQc", "name": "Gravfält Flysta", "lat": 59.36499000000000, "lon": 17.90753600000000, "bs": 102, "bc": 11, "rs": 29, "rc": 5, "ys": 45, "yc": 10},{"id": "35d95e98d0d9493585deceab94f0e964.16", "url": "https://lh3.googleusercontent.com/nqx2hTGoeXMVHeIIBnCXmHb2D1yCV9xO1J7cZd-18PxCO4LnOHx36QeGuYqvRwpCRnBBdZEuNNPJ1tdFF1CtU6sdGXA", "name": "Second Bridge over small water, Hjulsta", "lat": 59.39301000000000, "lon": 17.88720000000000, "bs": 156, "bc": 7, "rs": 95, "rc": 4, "ys": 69, "yc": 4},{"id": "382ef5a4d7c642e78e499ddd6f8dabf0.16", "url": "https://lh3.googleusercontent.com/6h6uqkDy5nxdccg5iM0ceEK2uNBGiOmVXwwGXUfn7uXZvm5lXGZiCElvQRnlIekakDyyl7sE_q4xNnCpiL9fBjmsmtQ", "name": "Wooden Horses", "lat": 59.40845300000000, "lon": 17.89812700000000, "bs": 104, "bc": 11, "rs": 44, "rc": 9, "ys": 33, "yc": 6},{"id": "38a7e51cc6ba4cd883c56e3805b8b90e.16", "url": "https://lh3.googleusercontent.com/TFol29rwpGLeBqY8ZjYxCn7s1-_hsMG4CIcx4Gf9hXrR55a3bXcnXDtg8yttejtGRYlVxZ6wnRNPue4PJ7TqfTP31Ok", "name": "Vattentorn vid Fagersjötoppen", "lat": 59.25370000000000, "lon": 18.06341300000000, "bs": 342, "bc": 3, "rs": 250, "rc": 2, "ys": 75, "yc": 3},{"id": "3be79c649e403e85ae632254882ed9f2.16", "url": "https://lh3.googleusercontent.com/-9blLOmCEA6gYNB2K323ZFi4j9-_8DrBfn_oIbpZN9thGhUYJeFvpDuXN0CUUheHJlfTbysaD3wnjYxOBUGeFXyqQWGk0tksLNG6JVYh", "name": "Sätra varv", "lat": 59.29603600000000, "lon": 17.90836800000000, "bs": 887, "bc": 1, "rs": 119, "rc": 1, "ys": 0, "yc": 0},{"id": "4aca8e60c53f4734bd883061f33889b8.11", "url": "https://lh3.googleusercontent.com/rLUL6h2oGTJhSAtXk0qjqheC1wg8VDXNRseRcFlofoaFw4HabnPdRo3pDUwLVAnyCXKaiDhWkTQwv8wZImOp1j6k4lM", "name": "Bussolyckan i Måbødalen", "lat": 59.40024000000000, "lon": 17.92548300000000, "bs": 48, "bc": 8, "rs": 40, "rc": 6, "ys": 62, "yc": 7},{"id": "4ddd3aca723045b2bec7d763d9ca0b56.16", "url": "https://lh3.googleusercontent.com/iKaytDHaIvtRjpXg8AdGX6I9ko7-g6Lz9ndhtgswd-8OMg6py4b27RqF15qhuWatrWdPP60WwsMrhXo4pQtUVedW-94", "name": "Tidens väg – South Start/Finish", "lat": 59.40187400000000, "lon": 17.89649800000000, "bs": 208, "bc": 6, "rs": 31, "rc": 4, "ys": 59, "yc": 6},{"id": "5aa4e0d11a6a439791b69b25d8543578.16", "url": "https://lh3.googleusercontent.com/JcaTMkRtN7aVStS4cwJVALEYMHVWgjtTOclE77Qy-7K8J_mXBbVw7ogHRXyY1E2bA-QEE9ZMmxVrqqFgD8UusYv7lBU", "name": "Järva Kilstråk Mitt På Ängen", "lat": 59.39848600000000, "lon": 17.92593900000000, "bs": 96, "bc": 6, "rs": 196, "rc": 1, "ys": 164, "yc": 6},{"id": "5b3db887f8064b7281d0cff36326bfb3.16", "url": "https://lh3.googleusercontent.com/yBPaqlgzrx0cK4T0Cxw4N6e1k_fk7w_5bMPdao22Fs8Q-TN6jX86wJrZDnts5YUMLD2VFoK7pqMwfWt1qGhnifkjOmXD", "name": "Skärholmens Gårds fontänstaty", "lat": 59.28334000000000, "lon": 17.88904900000000, "bs": 96, "bc": 13, "rs": 35, "rc": 12, "ys": 5, "yc": 3},{"id": "5cf2bb1ae6e545ba9b033a4928a90948.16", "url": "https://lh3.googleusercontent.com/bYS2e_uF3Incs4qoBjzLseqdssL2xPlTn32c0nCzfSX1UpL3jLMZ5RrA0wzLkTd0uEc0-YUomZaE111TSHCBF7NIjw", "name": "Old Skijump Tower", "lat": 59.35894000000000, "lon": 18.07629000000000, "bs": 272, "bc": 1, "rs": 156, "rc": 3, "ys": 298, "yc": 3},{"id": "709c0719e9d7465abaebf5c2d0f941da.16", "url": "https://lh3.googleusercontent.com/1mbxgWxETgV5Tjj7kPs85-qcpUsg0rD7fLZqZNhJVfSeVnVj9ru-e6u5OmnxpNW-_R4i3ssvFu8E1K_1PGAC_DbFuwQ", "name": "Thielska Galleriet", "lat": 59.32179900000000, "lon": 18.14810700000000, "bs": 108, "bc": 10, "rs": 28, "rc": 6, "ys": 68, "yc": 7},{"id": "77054e0c79a631519508f01834fc5934.16", "url": "https://lh3.googleusercontent.com/gQTtdxkV3BP48iI6Iz1WccVlBXP0hDFpZZu0keRhg-YxP3hUYRKQFdnDIuVz-4oYgOi4BmnxoT__5G1MZwYWVhGUoro4zN6fvOit1Z4J", "name": "Bromsten sport field", "lat": 59.38033400000000, "lon": 17.92779800000000, "bs": 92, "bc": 12, "rs": 65, "rc": 4, "ys": 63, "yc": 6},{"id": "789db356a9ba4949b406e0631777e5ca.16", "url": "https://lh3.googleusercontent.com/R4x-gS4U-k3gRuyF-mNIOGQXa1wD-XZq63c1VI-pgcG57vhogd9NJgtqo2lpqDF3WPKC1qoTZ_UNE0P8XbmW-4GzFtM", "name": "Gungor och klättertorn", "lat": 59.37795000000000, "lon": 17.86850200000000, "bs": 76, "bc": 22, "rs": 4, "rc": 13, "ys": 4, "yc": 9},{"id": "7cc3a1cfa78341dbb02b42249b3599dd.16", "url": "http://lh3.googleusercontent.com/F-D4Py9DAdrin1Ote8Uug1TbnomqIP1mIhzWiLqsFZ--UT9Sr4qTVG1HnTfpKFXZTrrWJhIAig_Jg-z72wHSil6u20c", "name": "Boplats & Gravfält", "lat": 59.42570800000000, "lon": 17.90097000000000, "bs": 529, "bc": 1, "rs": 22, "rc": 1, "ys": 1077, "yc": 1},{"id": "871ad7901af543169641aa5fdf1fe0da.16", "url": "https://lh3.googleusercontent.com/xOuVgZ9OsIZv6CnMF4VdVfBo_zxMiPe8xZaGUHmW65phXyNet23x07LCsi7fKDYePAC7mzyEGLRxrpjmdEZoNNRIRg", "name": "Hipp Hipp Hurra", "lat": 59.32011600000000, "lon": 18.11435600000000, "bs": 89, "bc": 12, "rs": 44, "rc": 6, "ys": 58, "yc": 7},{"id": "886d889ab08944368fc68d2e73d6050a.16", "url": "https://lh3.googleusercontent.com/NIOyLXPiWlXR4AbJTr984ZSQZl2gLXT9zMtflR-MafPv-pIAcr6PYfaYViaw3IoLhmOItoKpCdgphETft8Q0X3COSA", "name": "Sätra Reservoaren", "lat": 59.28951200000000, "lon": 17.90532200000000, "bs": 297, "bc": 5, "rs": 21, "rc": 5, "ys": 0, "yc": 0},{"id": "8a98b183f64e4a6b883c5628eaf2dd79.16", "url": "https://lh3.googleusercontent.com/GW8P24E-QGux5K_HCpSGsS-ja6fVGmjw9ODwnIy9_4BkEdgLWgzI7ngCKVz3d2Ug_CtVH-10XLz4zT1FvGGgdcfgWvfM", "name": "Häradsvägen", "lat": 59.42488600000000, "lon": 17.90616500000000, "bs": 146, "bc": 6, "rs": 48, "rc": 5, "ys": 88, "yc": 7},{"id": "926a91b25a383c2d93a1c7daa32a1002.16", "url": "https://lh3.googleusercontent.com/zyNpYGcPD5hZRWBZDyrimNA_bjUbcUIUVKGYLyXmlxtNp2dX8eAx50QhrH_Y3PDKMA1GgvFUL_B-tYNQCMwmJ7tI3qlMqnatwONsHCQy", "name": "Lilla Skuggan", "lat": 59.36704300000000, "lon": 18.08932900000000, "bs": 101, "bc": 6, "rs": 62, "rc": 7, "ys": 0, "yc": 0},{"id": "96d2f00553774372ac2e741fb536759b.16", "url": "https://lh3.googleusercontent.com/FVavZ3PsCHtvSZGX1eRee3WXVY-RGrzvztk3HCUKPVliB0Yev6KEcNo6fGzTUIcVwGTmXSTsTplQRBK-1Es16CXMdN9w", "name": "Tusculum", "lat": 59.28301400000000, "lon": 17.88327400000000, "bs": 912, "bc": 1, "rs": 198, "rc": 2, "ys": 19, "yc": 2},{"id": "99d7f88b869b4ef5b254bc747eb7d53d.16", "url": "https://lh3.googleusercontent.com/-T-ZXMUQnr-3icfZNLA_JHhrFfhao1RnV4Q5B1sZ5IAhrsWtEKaT2B9QOUYvPUsv3M85ZbmPFFs9ZuBmWnb_h3260HfZ", "name": "Husby gravfält", "lat": 59.40789100000000, "lon": 17.91643500000000, "bs": 115, "bc": 13, "rs": 13, "rc": 9, "ys": 20, "yc": 7},{"id": "b025a6111395416580ce370f64dd7164.16", "url": "https://lh3.googleusercontent.com/W1MOyMp_HMxqVciZFqHoK0X86MqYJWQ84jlwiQxmIJFZvRrlv5ELxjt7S6YHWWq8tpSS9xwrEt1zMPYMnPgr1qXTp3E", "name": "Laxholmsbacken Lekplats och Sandlåda", "lat": 59.27394400000000, "lon": 17.87512100000000, "bs": 73, "bc": 12, "rs": 47, "rc": 12, "ys": 30, "yc": 5},{"id": "b5329485d09839f7b0203140cf1898a0.16", "url": "https://lh3.googleusercontent.com/xBZeie5XiAYmEp_DLCY446HDlFU37km8-cA2sDizqAt-K3PpjPXpP-L4yP4fVqIQNyWX2luzAoKSglRBZZGX539j_ym7n5W4lJJDSBVYfQ", "name": "Ärvinge Groddamm", "lat": 59.39665600000000, "lon": 17.93159800000000, "bs": 126, "bc": 7, "rs": 109, "rc": 6, "ys": 23, "yc": 3},{"id": "b7e99fb3c56a36429a24ee44e39b0b63.16", "url": "https://lh3.googleusercontent.com/OKPz8pUGERQYmGyS-_vRWLJXUCCx0AZFIuEm_7Gx6wu0LtOT-zxGzZd9EYe3OIvZC8FvY2eoEJEhVtNzEQ69nDtXryGmkumtzaridC0", "name": "Lekparken i skrubba koloniområde", "lat": 59.24370500000000, "lon": 18.17930700000000, "bs": 97, "bc": 6, "rs": 71, "rc": 5, "ys": 35, "yc": 3},{"id": "c8bc42e72ec03a51bdaba4f2410e0fa3.16", "url": "https://lh3.googleusercontent.com/PQofkvZgBL61nlvi69uocCRTRIwpR2TjCBT_0V3qFKlwItYL7DIcoERppLLj4kSFztfblD3P15Cy8VBQud9pieKqdGc", "name": "Hansta hage", "lat": 59.42346200000000, "lon": 17.90214100000000, "bs": 50, "bc": 4, "rs": 72, "rc": 4, "ys": 64, "yc": 1},{"id": "ca6e671fac9d422389af7c1512582467.16", "url": "https://lh3.googleusercontent.com/u3SRJBHhC9IzVD1GsOJKsSP5qIxMC0T8ADfvqGWyb6pzKRaukZX5k0offOb7d7vDCGX_Ho5ERgQOGiOv2FUnvHswvJU", "name": "Cyklopen Aktivitetshus", "lat": 59.25943300000000, "lon": 18.04108000000000, "bs": 112, "bc": 11, "rs": 36, "rc": 10, "ys": 20, "yc": 9},{"id": "d6b2d4029f503ee68cf0678914d66922.16", "url": "https://lh3.googleusercontent.com/nvfJfzqZht5jJt5MiU2gceSCdnFVFUQyojs_tMRgiGw9kOPlK3IfxYz0DIwOolsgnSgMS6Cni3_qsc30nPBI8q_4hSzz0fhLtaVf5Isx", "name": "Järva discgolfpark hål 11", "lat": 59.40472200000000, "lon": 17.89879100000000, "bs": 130, "bc": 3, "rs": 20, "rc": 2, "ys": 75, "yc": 1},{"id": "e46aa3e11c394acf81f852ded43b5dd1.11", "url": "https://lh3.googleusercontent.com/D5ac7cO9QRXlDZ1RY2OUDaekztUJm8-HwUV3sUt7U6s1t4Hi58_yNZuExQwd_XG6U5PdP5k72TZhEx844lbWxWsWG1o", "name": "Solvalla Radartorn", "lat": 59.36340000000000, "lon": 17.93775200000000, "bs": 649, "bc": 2, "rs": 71, "rc": 1, "ys": 75, "yc": 2},{"id": "e5ecf7cf594e40ab9210cddb16bf7dbc.16", "url": "http://lh3.googleusercontent.com/FWbdXtSRU9_fA28SNJzYlg2FzTggjWiI48H2A-YR2mshs9heL-t50cJA-Wy6dnSuVKhG2zC-BIAq9ADM1wVOAhmG3jU", "name": "Playground at Varpholmsgränd", "lat": 59.28015500000000, "lon": 17.89643100000000, "bs": 75, "bc": 13, "rs": 27, "rc": 12, "ys": 26, "yc": 9},{"id": "f4870a3dd0a54ba289a14f209d339d1a.16", "url": "https://lh3.googleusercontent.com/PiWv91n1pPJ-btb9VLDAbVPwUTxk9SJpyu0ic-1k61aKA26xJn5X0Usi6WIgU_ES9PpuLcDN99AmOuC1pJ8XDwUiY6w", "name": "Storholms Lekplats", "lat": 59.27320100000000, "lon": 17.89133200000000, "bs": 93, "bc": 16, "rs": 18, "rc": 15, "ys": 6, "yc": 3},{"id": "f5be0b4c56554ab2ac4ac07e139133b3.16", "url": "https://lh3.googleusercontent.com/65wnT8PJUJZe5U3ZAkl4xJ12XM1cAI6u7g1kt3nq1stNSKwbFEhzemWZra_vSs5v_6i7R2_5Kx65eDtLdZNZLhtwFGw", "name": "Johannesdals Gård", "lat": 59.27841100000000, "lon": 17.87351100000000, "bs": 154, "bc": 7, "rs": 70, "rc": 4, "ys": 57, "yc": 4},{"id": "f74377e4cace4283b5f9a3b4a5955490.16", "url": "https://lh3.googleusercontent.com/4A_TSrHmUDTPOzBdLJkNpGz4v-tchhXu1Q8xfpJbacC_ERQhg4SaawG3aItKRZYmOkl3Q1RuY3TKnCNI8w0WpKXPuw", "name": "Pilbågparkens lekplats", "lat": 59.37225900000000, "lon": 17.90613800000000, "bs": 74, "bc": 15, "rs": 19, "rc": 5, "ys": 37, "yc": 14},{"id": "fe64dfc0492f4dc58da2bc53ea7af12b.16", "url": "https://lh3.googleusercontent.com/UpQg5HNVPsCFM-epL2VGaO8EDhlWej2RJJ2rRQBS4C-a1heK_Mp8I-BkahFgr1nM4oIrwiWlATfwmac5QOTxT0EwGw", "name": "Stekelhotell", "lat": 59.34860900000000, "lon": 17.93218800000000, "bs": 224, "bc": 3, "rs": 280, "rc": 3, "ys": 98, "yc": 2}]
