[{"id": "05a6dd2338d8424cb63af726329147dd.16", "url": "https://lh3.googleusercontent.com/q80PgeGuYejHG3RzqhyOC9-ok8jco_swIExCKLGTYMhppC8y5BTVxZI63L7uyF8xw97YOis2LiTQ3UqH1j-1eSfFRHU", "name": "Fladder", "lat": 59.27125300000000, "lon": 17.89694700000000, "bs": 77, "bc": 17, "rs": 25, "rc": 7, "ys": 21, "yc": 15},{"id": "0d0ca9874e7848f0978f960666555921.16", "url": "https://lh3.googleusercontent.com/Y9XAeUttcTl2oE66pYmmDZNEqRcAxN9C-s4d2RmP-fsr6ukte5kxESTySiW-0ASNhVW5GmCFAADvUU8PmwApxpQvIUo", "name": "Kärleksstigen", "lat": 59.32789200000000, "lon": 18.13767600000000, "bs": 122, "bc": 10, "rs": 50, "rc": 8, "ys": 14, "yc": 9},{"id": "0fede1fe97fa41b889f21865910bc213.16", "url": "http://lh3.googleusercontent.com/dkjF1BoU3_VmUOYFjFWkgulcCWuOakDIK_2BH2iB5aetFI3_sCzELBhRjrFYIpgRwZAGunNew6DDzegAR9NSAzxfCw", "name": "Varvsarbetarhuset", "lat": 59.29606100000000, "lon": 17.91073600000000, "bs": 94, "bc": 8, "rs": 74, "rc": 7, "ys": 46, "yc": 3},{"id": "18e2ccc67b354f4b9abd982f56d69558.16", "url": "https://lh3.googleusercontent.com/fNA6IZi_1tlzRApo2pBi_vTNAqJMdgR2HOTPKb_iKjmDMM2WcVqsFCo3-jbz92XgsbBnCmgzGmP-FozCKu6CoptdVZo", "name": "Känn på mossan", "lat": 59.29917500000000, "lon": 17.92153700000000, "bs": 62, "bc": 14, "rs": 47, "rc": 9, "ys": 23, "yc": 7},{"id": "3be79c649e403e85ae632254882ed9f2.16", "url": "https://lh3.googleusercontent.com/-9blLOmCEA6gYNB2K323ZFi4j9-_8DrBfn_oIbpZN9thGhUYJeFvpDuXN0CUUheHJlfTbysaD3wnjYxOBUGeFXyqQWGk0tksLNG6JVYh", "name": "Sätra varv", "lat": 59.29603600000000, "lon": 17.90836800000000, "bs": 887, "bc": 1, "rs": 119, "rc": 1, "ys": 0, "yc": 0},{"id": "5b3db887f8064b7281d0cff36326bfb3.16", "url": "https://lh3.googleusercontent.com/yBPaqlgzrx0cK4T0Cxw4N6e1k_fk7w_5bMPdao22Fs8Q-TN6jX86wJrZDnts5YUMLD2VFoK7pqMwfWt1qGhnifkjOmXD", "name": "Skärholmens Gårds fontänstaty", "lat": 59.28334000000000, "lon": 17.88904900000000, "bs": 96, "bc": 13, "rs": 35, "rc": 12, "ys": 5, "yc": 3},{"id": "5d730e09a8f041148e6b47ccda6b78b4.16", "url": "https://lh3.googleusercontent.com/8_QrNay6djGmwF_ayIYgrefeH8yBeHBIGE-diD3e77Z7uHxERFrGYd9OxIeSequbcazC3hsD9eI2tKoMEwIjox-WWQ", "name": "Herakles", "lat": 59.32041900000000, "lon": 18.11380500000000, "bs": 79, "bc": 15, "rs": 34, "rc": 8, "ys": 28, "yc": 12},{"id": "709c0719e9d7465abaebf5c2d0f941da.16", "url": "https://lh3.googleusercontent.com/1mbxgWxETgV5Tjj7kPs85-qcpUsg0rD7fLZqZNhJVfSeVnVj9ru-e6u5OmnxpNW-_R4i3ssvFu8E1K_1PGAC_DbFuwQ", "name": "Thielska Galleriet", "lat": 59.32179900000000, "lon": 18.14810700000000, "bs": 108, "bc": 10, "rs": 28, "rc": 6, "ys": 68, "yc": 7},{"id": "81a046c93cc34456a8ddfa704256adc4.16", "url": "https://lh3.googleusercontent.com/peo8pymlVD-KYgLrMdkauFXnYQi-yGKj5ZJ-rtaEApa52ecAx4Ang4PwkMiQdozi9VgSX8vrk_nA2Yi1drZ-j0JxIME", "name": "Frälsningsarméns Härbärge", "lat": 59.30119300000000, "lon": 18.01826500000000, "bs": 115, "bc": 5, "rs": 69, "rc": 3, "ys": 178, "yc": 5},{"id": "871ad7901af543169641aa5fdf1fe0da.16", "url": "https://lh3.googleusercontent.com/xOuVgZ9OsIZv6CnMF4VdVfBo_zxMiPe8xZaGUHmW65phXyNet23x07LCsi7fKDYePAC7mzyEGLRxrpjmdEZoNNRIRg", "name": "Hipp Hipp Hurra", "lat": 59.32011600000000, "lon": 18.11435600000000, "bs": 77, "bc": 14, "rs": 38, "rc": 7, "ys": 50, "yc": 8},{"id": "886d889ab08944368fc68d2e73d6050a.16", "url": "https://lh3.googleusercontent.com/NIOyLXPiWlXR4AbJTr984ZSQZl2gLXT9zMtflR-MafPv-pIAcr6PYfaYViaw3IoLhmOItoKpCdgphETft8Q0X3COSA", "name": "Sätra Reservoaren", "lat": 59.28951200000000, "lon": 17.90532200000000, "bs": 297, "bc": 5, "rs": 21, "rc": 5, "ys": 0, "yc": 0},{"id": "dd4e126a7bb34f7f803529b3baa0be40.16", "url": "http://lh3.googleusercontent.com/aONhxHynImNIdRtKaU4fPN1MQO0kSrIAZVsobMpjkjFSpZJwGTjk3EaO5bA-ikBM09pD4Bh4ZbfdqSqFWowpioLPK80", "name": "Stenlabyrinten", "lat": 59.33506200000000, "lon": 18.12933800000000, "bs": 69, "bc": 4, "rs": 108, "rc": 4, "ys": 166, "yc": 6},{"id": "e5ecf7cf594e40ab9210cddb16bf7dbc.16", "url": "http://lh3.googleusercontent.com/FWbdXtSRU9_fA28SNJzYlg2FzTggjWiI48H2A-YR2mshs9heL-t50cJA-Wy6dnSuVKhG2zC-BIAq9ADM1wVOAhmG3jU", "name": "Playground at Varpholmsgränd", "lat": 59.28015500000000, "lon": 17.89643100000000, "bs": 89, "bc": 14, "rs": 26, "rc": 13, "ys": 26, "yc": 9},{"id": "f4870a3dd0a54ba289a14f209d339d1a.16", "url": "https://lh3.googleusercontent.com/PiWv91n1pPJ-btb9VLDAbVPwUTxk9SJpyu0ic-1k61aKA26xJn5X0Usi6WIgU_ES9PpuLcDN99AmOuC1pJ8XDwUiY6w", "name": "Storholms Lekplats", "lat": 59.27320100000000, "lon": 17.89133200000000, "bs": 93, "bc": 16, "rs": 18, "rc": 15, "ys": 6, "yc": 3}]
