[{"id": "07bc172c8ca04496aaad629d6b429963.16", "url": "http://lh3.googleusercontent.com/TS_EPheUYi4qenMi0MpQg_us6xlpO01xY3u1Z_cQWz5-dJ_MOUrkx1r8JLmkzyf4nnj_ibiwY6LWxHXgskXMue5JM7w", "name": "Enskede Gårds Koloniträdgårdar", "lat": 59.28959200000000, "lon": 18.06462900000000, "bs": 4, "bc": 14, "rs": 55, "rc": 26, "ys": 4, "yc": 15},{"id": "09e21b7317604bdcb9840cfcf02767be.16", "url": "https://lh3.googleusercontent.com/qo_0GTkMNvCCw92-w-H7m0V8ZZlXOYezxtCpxHy8yYMREbc5Q-RhNojFLHXrFwhieWpEFBby0hB4q1uM7io1kCmKEkWo", "name": "Varning för stora barn", "lat": 59.30292400000000, "lon": 18.09168700000000, "bs": 3, "bc": 31, "rs": 29, "rc": 46, "ys": 6, "yc": 23},{"id": "0efb8f282d8e4dff9c23445828520bf5.16", "url": "https://lh3.googleusercontent.com/8FhsDREJBnL6Y4GCD88Eo4sUMVrkTmfA-bT6-oNdDzOVbk970BIsVWbR9vvVRs6jQ3puGAT6bTFS-w2UDM4bOqei2cU", "name": "Stegrande Häst", "lat": 59.38181200000000, "lon": 17.81071600000000, "bs": 4, "bc": 35, "rs": 5, "rc": 33, "ys": 22, "yc": 59},{"id": "2457be009ae2457cab42693e96a150a6.16", "url": "http://lh3.googleusercontent.com/EwJJMJQGcbx6eHtQLxxbOdEdJmLuhHUmD5NAfn-LgVX1cYph2p_2UKZjAjUI2RdkdfUFkohaCWk0UR2qPgVW8Dhfhn4", "name": "Lekplats Ekebergabacken", "lat": 59.24974600000000, "lon": 18.10285700000000, "bs": 3, "bc": 61, "rs": 21, "rc": 63, "ys": 9, "yc": 3},{"id": "375fe272cc02447e86b613dbed0bb375.16", "url": "https://lh3.googleusercontent.com/Yu-AAAi8gHHIk6lyZ3zgfUfeWgwW_-RacdTalPnBoheIDZ1-m6PQSeA9-o4e8GJC57XJXnJxvtoJihbIgH3TEpmnlCE", "name": "Klätterställningen i Önskeringen", "lat": 59.26413800000000, "lon": 18.03722200000000, "bs": 2, "bc": 14, "rs": 1, "rc": 25, "ys": 36, "yc": 42},{"id": "4d4613ec6a01469ca19e9046df56519c.16", "url": "https://lh3.googleusercontent.com/BQloytZKZOWhHrRKzfui45HPIl8hHfJULXwjigUMjKXJfmMohcJmTbgO1OV9_ElhF6_B5BvFLvi3tICmV7JApXQ5M1E", "name": "Lekplats Grimstagatan 106", "lat": 59.35610000000000, "lon": 17.87386300000000, "bs": 2, "bc": 39, "rs": 33, "rc": 46, "ys": 0, "yc": 5},{"id": "527c4ae06d95464ba13e7eb9352e3656.16", "url": "https://lh3.googleusercontent.com/k0sHExgYUsGUzaBloK1-Gxp7Yqpv74riJWIsbbI_Ks9H398jAJkSUEoI5ID-9fPYdxj_TS77kHlv-aKG5YxukrsW6O4", "name": "Solbergaskogens utegym", "lat": 59.28540300000000, "lon": 18.00586000000000, "bs": 1, "bc": 14, "rs": 21, "rc": 37, "ys": 24, "yc": 33},{"id": "572bf80bfd7b4334b3bdddc9a0ad9654.16", "url": "https://lh3.googleusercontent.com/X73lPqbzVoTd403QjqGlyYXiUFRArM5wythdb4J5SMHXFhsdoL46s6PBjwY1Ne5kdNdAEkfCQJJevkCp2yvltnz7VJ4", "name": "Stålkonst", "lat": 59.34462300000000, "lon": 18.05053600000000, "bs": 3, "bc": 48, "rs": 7, "rc": 77, "ys": 11, "yc": 81},{"id": "5c74f18e34d534a48a0dbda1fac2272f.16", "url": "https://lh3.googleusercontent.com/ORURtJa_fLxvRytuxKIxZBZNFLeqgh-PH3DZrE27J-gUSMqiflfqfFBPBjSixMG_fe30iwOtpl-D2PSiouXU5R1zIjZJHbed4F_3LLGT", "name": "Hundrastgården", "lat": 59.23495300000000, "lon": 18.11512100000000, "bs": 3, "bc": 36, "rs": 12, "rc": 40, "ys": 0, "yc": 0},{"id": "62a67ce357d43f369d69140577ccb2ec.16", "url": "https://lh3.googleusercontent.com/CPDUCfxOESUtklYTMpHH0MrXEE8p8P7ZROr-GsvzvdaiHQnTg47hlYuJRioZtxJ0iV1LCKBDD-Dh_u0R3-jO--lgg-N5", "name": "Kyrksjön West Entrance", "lat": 59.35013900000000, "lon": 17.91058300000000, "bs": 2, "bc": 1, "rs": 70, "rc": 1, "ys": 0, "yc": 0},{"id": "6dd878c0d987408aa406496815f23937.16", "url": "https://lh3.googleusercontent.com/uUpuHTOv5zPrNCGN_NOb4_pWGvUjdicna3XvT5l8TrcMATTEJ9pE0j5XErzkhOv3Yf5U6RBonioaWt1dtGBvPYb9nP8", "name": "Pelare", "lat": 59.36498000000000, "lon": 18.05863800000000, "bs": 2, "bc": 26, "rs": 28, "rc": 53, "ys": 1, "yc": 15},{"id": "7ec01f8f8e4f4d8ea54c7d3dd617c8e9.16", "url": "https://lh3.googleusercontent.com/uZpzgWQcuDMw-Ujnu0kHjKRdn7w4ZhwNkBiidHheDhkwU64XB9Pc1q4Q79WjpiFdAsuYUCDpDWWcQ_U0SGBt8cNhiNM", "name": "Spottkoppen", "lat": 59.33024200000000, "lon": 18.05812200000000, "bs": 4, "bc": 182, "rs": 3, "rc": 167, "ys": 3, "yc": 144},{"id": "826b4be8272445db83150472d43aab34.11", "url": "https://lh3.googleusercontent.com/3-lZoWhNKxBDIgnJU4520yRFoFdjv_w0tvCmoZ0rapm_1qs1KHHZUFVrcr3fGUX591S4b4ojU6XZlq6srT_hqIkH0A", "name": "Mer än bara vänner", "lat": 59.30294600000000, "lon": 18.09273800000000, "bs": 3, "bc": 24, "rs": 43, "rc": 33, "ys": 4, "yc": 12},{"id": "9a20371a565a4bb094801fc28e6cf282.16", "url": "https://lh3.googleusercontent.com/BCiH5bEkvi8Yeh3Gd5y5I2L5zfjWZnfFhEvKywHXGm2kNWou_OWCepEdBZ0tg37QauzmEG1HdujjHDnaRoY_SDbGy0dR", "name": "Gravfält, Stensträng Och Skålgropssten", "lat": 59.43589700000000, "lon": 17.90423700000000, "bs": 0, "bc": 0, "rs": 0, "rc": 0, "ys": 0, "yc": 0},{"id": "9a7e171db3564cf7802ac8c728c4b98c.16", "url": "https://lh3.googleusercontent.com/jT_xZ2EI0z-O4JYkFymJ5Ut-Z5zZCzAF03XQyI_IvBOyh69IOPuqRBJVI0LXsEjbd5HHDstLN1VD5HLxhBwUFVcv3g", "name": "Postiljonen", "lat": 59.24213700000000, "lon": 18.09149000000000, "bs": 3, "bc": 97, "rs": 6, "rc": 119, "ys": 5, "yc": 96},{"id": "a5237d85a0a94c16bb868276b4dbb4e0.16", "url": "https://lh3.googleusercontent.com/PR73WxM7MQm5_cO7rYV-AFO82CDseOfiIfocGnbLkJFYD6rHo0q2oG7WvGIzX28-ijJrB6IP_1dww9-VnhUoTgPY_coM", "name": "Klätterkanan", "lat": 59.29484400000000, "lon": 17.99729800000000, "bs": 3, "bc": 53, "rs": 8, "rc": 84, "ys": 8, "yc": 87},{"id": "abb64e43277540d5bb37a67ad7170ed1.16", "url": "https://lh3.googleusercontent.com/AMXuT-7QAn7WIjYblRPl_laahJUopsDiVY9y9lyx91bppz4Pm3GKevdb0-lpnA7rmwLX5V1Fx5G39wg8H6doCUfeIN0", "name": "Paviljongen University", "lat": 59.36499200000000, "lon": 18.06003300000000, "bs": 3, "bc": 45, "rs": 1, "rc": 16, "ys": 24, "yc": 60},{"id": "bcba9c919cc44e28bfc9f3e087fee4d7.16", "url": "https://lh3.googleusercontent.com/241Rxj3R0yvqf04Qw9W-yFT-Mgf8HDFRRTtgIGzX7A4di94bbH8rRQTsmBFZbYr8XhreIymnn3Z2u8vD2u7uTNdaVw", "name": "Önskeringens Parklek", "lat": 59.26351700000000, "lon": 18.03730700000000, "bs": 1, "bc": 41, "rs": 1, "rc": 29, "ys": 20, "yc": 75},{"id": "c0fed2ce2e41407786361b702961796b.16", "url": "http://lh3.googleusercontent.com/94FYAibAcLrCx7ElGeckjvT3olh5a54Ul3gAMIFglV3z20cgX9U6OAGpkioOK-GvOBnHJ9H2x-CKSoExX4eYeIEQn-M1", "name": "Lekplats Nordmarksvägen 70", "lat": 59.23424400000000, "lon": 18.10846700000000, "bs": 3, "bc": 15, "rs": 47, "rc": 30, "ys": 6, "yc": 19},{"id": "d39ccd7dcdc1494aa1cf5293c8b3a1de.16", "url": "https://lh3.googleusercontent.com/gaWDJhSgOGzzRWxfnPp86s8WzW0tE1_Pxfj6oxZi-3EQsoeZaRXf-wNAtLhDclr8hwey16-EWmNSR_BnK94Q7IzKKxE", "name": "Enskede Gård", "lat": 59.28849900000000, "lon": 18.06641900000000, "bs": 4, "bc": 9, "rs": 66, "rc": 22, "ys": 4, "yc": 14},{"id": "f483077c2f75408eb482f0487a9c8c33.16", "url": "https://lh3.googleusercontent.com/qo6Lnb--OqI67dpk3hZwrTVE8dJajso0KU6X0epqyiFyxT2Tilhu9Fh95tnt3P_CMAUapNMaz8lDN2SXLGoeZ8RgcmID", "name": "Orionteatern", "lat": 59.30827300000000, "lon": 18.09003000000000, "bs": 2, "bc": 44, "rs": 18, "rc": 77, "ys": 2, "yc": 52}]
