[{"id": "03f1c8d21d51452482d03a4b01834ee8.16", "url": "https://lh3.googleusercontent.com/eGLAUZ0pUvlTQ8iFH1bO_aVcfuE5iCxzgZpf_gvie2BkAGi5Zb9I3K7ej18QPdhD8G6BmaAGBwD_mI3fkeGktDimiI8", "name": "Gravfältet Vid Glia", "lat": 59.35010500000000, "lon": 17.93723800000000, "bs": 94, "bc": 8, "rs": 60, "rc": 3, "ys": 98, "yc": 9},{"id": "05a6dd2338d8424cb63af726329147dd.16", "url": "https://lh3.googleusercontent.com/q80PgeGuYejHG3RzqhyOC9-ok8jco_swIExCKLGTYMhppC8y5BTVxZI63L7uyF8xw97YOis2LiTQ3UqH1j-1eSfFRHU", "name": "Fladder", "lat": 59.27125300000000, "lon": 17.89694700000000, "bs": 77, "bc": 17, "rs": 25, "rc": 7, "ys": 21, "yc": 15},{"id": "0724a107863e4b7faff214673a51bc63.16", "url": "https://lh3.googleusercontent.com/YEmr8K-iM5lKn1snIzNM_cHiEtf7xGcjbc6hbCFvsBw18Tbyt-rD47x0jufV9ItGchb1JdEy2bfXnQ0C8nmixk71IFA", "name": "Judarskogens Naturreservat", "lat": 59.33410900000000, "lon": 17.91082300000000, "bs": 64, "bc": 11, "rs": 98, "rc": 4, "ys": 56, "yc": 11},{"id": "083d0c11d3c73be4b338241da7c0a16f.16", "url": "https://lh3.googleusercontent.com/DaLIcWuYOwBO7upYIz5XbTfE-PVuZw2onK6pJ5mM9b7f9c7oLSwZWrpPp_Cs8x90UnNyn1oef6nG7SiXk-Wbt-L-f_dIVXXwICKJPZY", "name": "Igelbäcken Gångbro", "lat": 59.41198400000000, "lon": 17.90029500000000, "bs": 149, "bc": 5, "rs": 128, "rc": 6, "ys": 47, "yc": 6},{"id": "0aee7ba86a2445e997805a1a00500dbd.16", "url": "https://lh3.googleusercontent.com/NHRl8RbmyuinYut0EvpdtFE1mei9ZSWH1qQp6oPlyGAaKuswpGupZrJoU1HMIDg0-RY1HJ0zaAmJSY4qHj6FBugPOdk", "name": "Posing Cat", "lat": 59.34283400000000, "lon": 17.90778500000000, "bs": 76, "bc": 19, "rs": 20, "rc": 11, "ys": 14, "yc": 12},{"id": "0fb954d4450c4472aeebf02c30da9874.16", "url": "https://lh3.googleusercontent.com/RHyIngujRLGF0eN3vX69NajNeUJXV3MNAMHzNNw-8wTcYIuwTVYtxP_OxcsJ0GMrT7DLdEqV0rCEuNmIBg_yIdOKjw", "name": "Farstanäset", "lat": 59.23478900000000, "lon": 18.07929400000000, "bs": 88, "bc": 5, "rs": 151, "rc": 8, "ys": 75, "yc": 3},{"id": "0fede1fe97fa41b889f21865910bc213.16", "url": "http://lh3.googleusercontent.com/dkjF1BoU3_VmUOYFjFWkgulcCWuOakDIK_2BH2iB5aetFI3_sCzELBhRjrFYIpgRwZAGunNew6DDzegAR9NSAzxfCw", "name": "Varvsarbetarhuset", "lat": 59.29606100000000, "lon": 17.91073600000000, "bs": 94, "bc": 8, "rs": 74, "rc": 7, "ys": 46, "yc": 3},{"id": "18e2ccc67b354f4b9abd982f56d69558.16", "url": "https://lh3.googleusercontent.com/fNA6IZi_1tlzRApo2pBi_vTNAqJMdgR2HOTPKb_iKjmDMM2WcVqsFCo3-jbz92XgsbBnCmgzGmP-FozCKu6CoptdVZo", "name": "Känn på mossan", "lat": 59.29917500000000, "lon": 17.92153700000000, "bs": 62, "bc": 14, "rs": 47, "rc": 9, "ys": 23, "yc": 7},{"id": "1ea641a2a548463fb424a005cf82686d.16", "url": "https://lh3.googleusercontent.com/tDi56_iu6sOyN3GBfRT47LiVqxoxeQk3RM3DOW1VewniLXgIvaeZTXMsv-tK0e2-EYTtQHVN_21_njoeFhLbQk5Wv4M", "name": "Bahnhof Mobile Server Hall", "lat": 59.40973600000000, "lon": 17.95283700000000, "bs": 195, "bc": 7, "rs": 31, "rc": 4, "ys": 35, "yc": 2},{"id": "1fda3948de6940308bbfc59808d59fc6.16", "url": "https://lh3.googleusercontent.com/FHMu9xYUnkEGWocupXg55Dn_OqyiTc1LQFOhpCvDvytU4bZZzbn8Tghr-C5SPwyfTL8kyjPJiALVW20GHZakzFabbe0", "name": "Husby ishall", "lat": 59.41091200000000, "lon": 17.92103600000000, "bs": 108, "bc": 14, "rs": 5, "rc": 5, "ys": 27, "yc": 9},{"id": "21b6648112ec493a87e734979070e7d9.16", "url": "https://lh3.googleusercontent.com/zRJu5YGtCYDmK3FlN6Lr2caAUvbstUc8SH9lObnNFf1NKZ833Fxphjde88cGuDmX-cdMZCYAB-bkOQdX-dFmf8_GeqAq_PaeTqO0VfQ", "name": "Gravfält Och Stensträngar", "lat": 59.42834800000000, "lon": 17.89806500000000, "bs": 315, "bc": 1, "rs": 206, "rc": 1, "ys": 472, "yc": 2},{"id": "35d95e98d0d9493585deceab94f0e964.16", "url": "https://lh3.googleusercontent.com/nqx2hTGoeXMVHeIIBnCXmHb2D1yCV9xO1J7cZd-18PxCO4LnOHx36QeGuYqvRwpCRnBBdZEuNNPJ1tdFF1CtU6sdGXA", "name": "Second Bridge over small water, Hjulsta", "lat": 59.39301000000000, "lon": 17.88720000000000, "bs": 156, "bc": 7, "rs": 95, "rc": 4, "ys": 69, "yc": 4},{"id": "38a7e51cc6ba4cd883c56e3805b8b90e.16", "url": "https://lh3.googleusercontent.com/TFol29rwpGLeBqY8ZjYxCn7s1-_hsMG4CIcx4Gf9hXrR55a3bXcnXDtg8yttejtGRYlVxZ6wnRNPue4PJ7TqfTP31Ok", "name": "Vattentorn vid Fagersjötoppen", "lat": 59.25370000000000, "lon": 18.06341300000000, "bs": 342, "bc": 3, "rs": 250, "rc": 2, "ys": 75, "yc": 3},{"id": "3be79c649e403e85ae632254882ed9f2.16", "url": "https://lh3.googleusercontent.com/-9blLOmCEA6gYNB2K323ZFi4j9-_8DrBfn_oIbpZN9thGhUYJeFvpDuXN0CUUheHJlfTbysaD3wnjYxOBUGeFXyqQWGk0tksLNG6JVYh", "name": "Sätra varv", "lat": 59.29603600000000, "lon": 17.90836800000000, "bs": 887, "bc": 1, "rs": 119, "rc": 1, "ys": 0, "yc": 0},{"id": "4218c4c875534dd99a3477996a00c4ba.16", "url": "https://lh3.googleusercontent.com/7tOp_lSePPZbeuoz5sVgUDcdBpBBhyr27Zsn7jy2vBjEa4Jn9U4zHvGmVh-jdpdpagrk5xWnvfRhg0vTA9-g3WGNq5so", "name": "Dansen Fontän", "lat": 59.29037000000000, "lon": 17.95180100000000, "bs": 69, "bc": 25, "rs": 2, "rc": 8, "ys": 2, "yc": 18},{"id": "445097a1465743a0b6ee72b594b2d5ff.16", "url": "https://lh3.googleusercontent.com/JqY521-h4hGB0CJzNCVu6K6VSw_au4XlYUsgfFdLYpsX0nQun4SBTwgeIv-DtOSfg9teybqfYJREtFwDBB5xrOEyv2Y", "name": "Lekplatsen Nyckelpigsparken", "lat": 59.36251700000000, "lon": 17.90821600000000, "bs": 144, "bc": 9, "rs": 33, "rc": 8, "ys": 38, "yc": 9},{"id": "5aa4e0d11a6a439791b69b25d8543578.16", "url": "https://lh3.googleusercontent.com/JcaTMkRtN7aVStS4cwJVALEYMHVWgjtTOclE77Qy-7K8J_mXBbVw7ogHRXyY1E2bA-QEE9ZMmxVrqqFgD8UusYv7lBU", "name": "Järva Kilstråk Mitt På Ängen", "lat": 59.39848600000000, "lon": 17.92593900000000, "bs": 96, "bc": 6, "rs": 196, "rc": 1, "ys": 164, "yc": 6},{"id": "5b3db887f8064b7281d0cff36326bfb3.16", "url": "https://lh3.googleusercontent.com/yBPaqlgzrx0cK4T0Cxw4N6e1k_fk7w_5bMPdao22Fs8Q-TN6jX86wJrZDnts5YUMLD2VFoK7pqMwfWt1qGhnifkjOmXD", "name": "Skärholmens Gårds fontänstaty", "lat": 59.28334000000000, "lon": 17.88904900000000, "bs": 96, "bc": 13, "rs": 35, "rc": 12, "ys": 5, "yc": 3},{"id": "5d730e09a8f041148e6b47ccda6b78b4.16", "url": "https://lh3.googleusercontent.com/8_QrNay6djGmwF_ayIYgrefeH8yBeHBIGE-diD3e77Z7uHxERFrGYd9OxIeSequbcazC3hsD9eI2tKoMEwIjox-WWQ", "name": "Herakles", "lat": 59.32041900000000, "lon": 18.11380500000000, "bs": 79, "bc": 15, "rs": 34, "rc": 8, "ys": 28, "yc": 12},{"id": "76f2044a64e948d69fb0cf5809ff5016.16", "url": "https://lh3.googleusercontent.com/7PNHTsI-8ruA5y42z98YTztoPIVcFVEXOTcOh62XJ9JSOzwL3OOO1ezLvtMm5WI7kHlhHHp5aSOXo3WDYI72mDKNYw", "name": "Hansta Naturreservat - Östra ingången", "lat": 59.42505500000000, "lon": 17.91334000000000, "bs": 76, "bc": 6, "rs": 105, "rc": 3, "ys": 82, "yc": 8},{"id": "77054e0c79a631519508f01834fc5934.16", "url": "https://lh3.googleusercontent.com/gQTtdxkV3BP48iI6Iz1WccVlBXP0hDFpZZu0keRhg-YxP3hUYRKQFdnDIuVz-4oYgOi4BmnxoT__5G1MZwYWVhGUoro4zN6fvOit1Z4J", "name": "Bromsten sport field", "lat": 59.38033400000000, "lon": 17.92779800000000, "bs": 92, "bc": 12, "rs": 65, "rc": 4, "ys": 63, "yc": 6},{"id": "7cc3a1cfa78341dbb02b42249b3599dd.16", "url": "http://lh3.googleusercontent.com/F-D4Py9DAdrin1Ote8Uug1TbnomqIP1mIhzWiLqsFZ--UT9Sr4qTVG1HnTfpKFXZTrrWJhIAig_Jg-z72wHSil6u20c", "name": "Boplats & Gravfält", "lat": 59.42570800000000, "lon": 17.90097000000000, "bs": 529, "bc": 1, "rs": 22, "rc": 1, "ys": 1077, "yc": 1},{"id": "871ad7901af543169641aa5fdf1fe0da.16", "url": "https://lh3.googleusercontent.com/bFh0DZe1apz_SN4m_4MZVw0aLmwRhMjO1CInxeGMz5DVp28qlSSEuqIersYnspNCS5wg31H9zN77FJ6LZU9HJJFMxg", "name": "Hipp Hipp Hurra", "lat": 59.32011600000000, "lon": 18.11435600000000, "bs": 77, "bc": 14, "rs": 38, "rc": 7, "ys": 50, "yc": 8},{"id": "886d889ab08944368fc68d2e73d6050a.16", "url": "https://lh3.googleusercontent.com/NIOyLXPiWlXR4AbJTr984ZSQZl2gLXT9zMtflR-MafPv-pIAcr6PYfaYViaw3IoLhmOItoKpCdgphETft8Q0X3COSA", "name": "Sätra Reservoaren", "lat": 59.28951200000000, "lon": 17.90532200000000, "bs": 297, "bc": 5, "rs": 21, "rc": 5, "ys": 0, "yc": 0},{"id": "8a98b183f64e4a6b883c5628eaf2dd79.16", "url": "https://lh3.googleusercontent.com/GW8P24E-QGux5K_HCpSGsS-ja6fVGmjw9ODwnIy9_4BkEdgLWgzI7ngCKVz3d2Ug_CtVH-10XLz4zT1FvGGgdcfgWvfM", "name": "Häradsvägen", "lat": 59.42488600000000, "lon": 17.90616500000000, "bs": 131, "bc": 7, "rs": 48, "rc": 5, "ys": 88, "yc": 7},{"id": "926a91b25a383c2d93a1c7daa32a1002.16", "url": "https://lh3.googleusercontent.com/zyNpYGcPD5hZRWBZDyrimNA_bjUbcUIUVKGYLyXmlxtNp2dX8eAx50QhrH_Y3PDKMA1GgvFUL_B-tYNQCMwmJ7tI3qlMqnatwONsHCQy", "name": "Lilla Skuggan", "lat": 59.36704300000000, "lon": 18.08932900000000, "bs": 101, "bc": 6, "rs": 62, "rc": 7, "ys": 0, "yc": 0},{"id": "96d2f00553774372ac2e741fb536759b.16", "url": "https://lh3.googleusercontent.com/FVavZ3PsCHtvSZGX1eRee3WXVY-RGrzvztk3HCUKPVliB0Yev6KEcNo6fGzTUIcVwGTmXSTsTplQRBK-1Es16CXMdN9w", "name": "Tusculum", "lat": 59.28301400000000, "lon": 17.88327400000000, "bs": 912, "bc": 1, "rs": 198, "rc": 2, "ys": 19, "yc": 2},{"id": "9e6049c4c1fc4eb6b1a61bfa07d8b9ea.16", "url": "https://lh3.googleusercontent.com/7uJsij7ob7d5xJx1TKNPpueiQ8Y7vFYA-SB0f1vxNOsDGwWMK6X426Lxlfy-geRzLTz1B917S9171rf_XmF06ooMYfI", "name": "Two Horsemen Without Men", "lat": 59.27632500000000, "lon": 17.88521000000000, "bs": 115, "bc": 11, "rs": 25, "rc": 9, "ys": 48, "yc": 7},{"id": "a0a7b18da0834f71b5682e483af9211c.16", "url": "https://lh3.googleusercontent.com/XSJilgs4Oe4iGdzo-ia_7LeHYi3N1nRM8KR93kVQLXabQyb2yaP2QxK1teFjkWoR8Cs7owRknkT5o5VDlBUbtyilcw", "name": "Ryttare", "lat": 59.27564700000000, "lon": 17.90179100000000, "bs": 67, "bc": 18, "rs": 26, "rc": 18, "ys": 13, "yc": 3},{"id": "a399708db69e4cbb89d1bd532a08bf31.16", "url": "https://lh3.googleusercontent.com/bbi2R2MVq2qvmkEDZeTkMUF-8RqWEWX-oyWg9DJ2enqUOyxe77D8OBjiKaoeamVtaG9ndvRkBfLdDS_hnUxpdU_Qgw", "name": "Concrete Artwork", "lat": 59.33493000000000, "lon": 18.13549700000000, "bs": 114, "bc": 10, "rs": 73, "rc": 9, "ys": 9, "yc": 3},{"id": "b7e99fb3c56a36429a24ee44e39b0b63.16", "url": "https://lh3.googleusercontent.com/OKPz8pUGERQYmGyS-_vRWLJXUCCx0AZFIuEm_7Gx6wu0LtOT-zxGzZd9EYe3OIvZC8FvY2eoEJEhVtNzEQ69nDtXryGmkumtzaridC0", "name": "Lekparken i skrubba koloniområde", "lat": 59.24370500000000, "lon": 18.17930700000000, "bs": 97, "bc": 6, "rs": 71, "rc": 5, "ys": 35, "yc": 3},{"id": "bd44abc01d6e4965a47ef137fcfd30cf.16", "url": "https://lh3.googleusercontent.com/KuaMpcGEL-1lP0NjYE50JBZCujnSHzOel9nZ64kHGWGez6tD0ZP8iYMgH5GA1FhkhHZ7JEywzkjGw56CVDzbchUXmiQ", "name": "Grimsta Naturreservat", "lat": 59.33924800000000, "lon": 17.88589300000000, "bs": 37, "bc": 8, "rs": 91, "rc": 8, "ys": 61, "yc": 8},{"id": "c03e770bcaac49f6ab2e880fb803ecdd.16", "url": "https://lh3.googleusercontent.com/-J7_PaSXL3KL28ca2Sl2EQaV67-Px1ZnLiTI5euK5s9-K6BNdJNUimQakQW63Ms5tAhNnHpzBVX0wSPK7VQfk09Y-gw", "name": "Tidens väg - Kolkärr", "lat": 59.40222900000000, "lon": 17.89527400000000, "bs": 373, "bc": 4, "rs": 50, "rc": 1, "ys": 15, "yc": 4},{"id": "c6e05e02159a46dcb8df0c70f325410d.16", "url": "https://lh3.googleusercontent.com/krxSlffkHfnzg5JlOiJNdLreJ1Q_jiYg3HV8hk-tGFzaj_rKVJstqjyXRSkcfE7cVofuATH7uTr68JQD3xCcFTFiJq8j", "name": "Frihetens Port", "lat": 59.32203700000000, "lon": 18.13347700000000, "bs": 171, "bc": 8, "rs": 56, "rc": 6, "ys": 49, "yc": 4},{"id": "cde1a64aaeff49d4a236215439735200.16", "url": "https://lh3.googleusercontent.com/yzW1YYtiUKrPGooWKKoMLMhLJXHJ4GgK0Y_Rkh3JPmldnB-Ry7yFn4FpbTcw1Jyyoyet3XH9z9hrouzrobCr83p_KdPq", "name": "Kista Gårds Koloniträdgårdsförening", "lat": 59.40191200000000, "lon": 17.92786600000000, "bs": 78, "bc": 12, "rs": 66, "rc": 7, "ys": 52, "yc": 8},{"id": "d6b2d4029f503ee68cf0678914d66922.16", "url": "https://lh3.googleusercontent.com/nvfJfzqZht5jJt5MiU2gceSCdnFVFUQyojs_tMRgiGw9kOPlK3IfxYz0DIwOolsgnSgMS6Cni3_qsc30nPBI8q_4hSzz0fhLtaVf5Isx", "name": "Järva discgolfpark hål 11", "lat": 59.40472200000000, "lon": 17.89879100000000, "bs": 130, "bc": 3, "rs": 20, "rc": 2, "ys": 75, "yc": 1},{"id": "dd4e126a7bb34f7f803529b3baa0be40.16", "url": "http://lh3.googleusercontent.com/aONhxHynImNIdRtKaU4fPN1MQO0kSrIAZVsobMpjkjFSpZJwGTjk3EaO5bA-ikBM09pD4Bh4ZbfdqSqFWowpioLPK80", "name": "Stenlabyrinten", "lat": 59.33506200000000, "lon": 18.12933800000000, "bs": 69, "bc": 4, "rs": 108, "rc": 4, "ys": 166, "yc": 6},{"id": "e46aa3e11c394acf81f852ded43b5dd1.11", "url": "https://lh3.googleusercontent.com/D5ac7cO9QRXlDZ1RY2OUDaekztUJm8-HwUV3sUt7U6s1t4Hi58_yNZuExQwd_XG6U5PdP5k72TZhEx844lbWxWsWG1o", "name": "Solvalla Radartorn", "lat": 59.36340000000000, "lon": 17.93775200000000, "bs": 649, "bc": 2, "rs": 71, "rc": 1, "ys": 75, "yc": 2},{"id": "e9d3330f7c0c4335b80655085c1ec661.16", "url": "https://lh3.googleusercontent.com/z9bcz5jWOPRi7OHzC7IJgiNWiQgkHwzOAGav7QTQVD7A4NjXLgpkrbWWdq68r9cX4p-6TnLmjbF8Z6Xk_WI1xTtMyK8", "name": "Den Blå Älgen", "lat": 59.37135000000000, "lon": 17.83975400000000, "bs": 80, "bc": 20, "rs": 8, "rc": 12, "ys": 3, "yc": 8},{"id": "f4870a3dd0a54ba289a14f209d339d1a.16", "url": "https://lh3.googleusercontent.com/PiWv91n1pPJ-btb9VLDAbVPwUTxk9SJpyu0ic-1k61aKA26xJn5X0Usi6WIgU_ES9PpuLcDN99AmOuC1pJ8XDwUiY6w", "name": "Storholms Lekplats", "lat": 59.27320100000000, "lon": 17.89133200000000, "bs": 90, "bc": 17, "rs": 19, "rc": 16, "ys": 6, "yc": 3},{"id": "f5be0b4c56554ab2ac4ac07e139133b3.16", "url": "https://lh3.googleusercontent.com/65wnT8PJUJZe5U3ZAkl4xJ12XM1cAI6u7g1kt3nq1stNSKwbFEhzemWZra_vSs5v_6i7R2_5Kx65eDtLdZNZLhtwFGw", "name": "Johannesdals Gård", "lat": 59.27841100000000, "lon": 17.87351100000000, "bs": 154, "bc": 7, "rs": 70, "rc": 4, "ys": 57, "yc": 4},{"id": "fe64dfc0492f4dc58da2bc53ea7af12b.16", "url": "https://lh3.googleusercontent.com/UpQg5HNVPsCFM-epL2VGaO8EDhlWej2RJJ2rRQBS4C-a1heK_Mp8I-BkahFgr1nM4oIrwiWlATfwmac5QOTxT0EwGw", "name": "Stekelhotell", "lat": 59.34860900000000, "lon": 17.93218800000000, "bs": 224, "bc": 3, "rs": 280, "rc": 3, "ys": 98, "yc": 2}]
