[{"id": "03f1c8d21d51452482d03a4b01834ee8.16", "url": "https://lh3.googleusercontent.com/eGLAUZ0pUvlTQ8iFH1bO_aVcfuE5iCxzgZpf_gvie2BkAGi5Zb9I3K7ej18QPdhD8G6BmaAGBwD_mI3fkeGktDimiI8", "name": "Gravfältet Vid Glia", "lat": 59.35010500000000, "lon": 17.93723800000000},{"id": "05a6dd2338d8424cb63af726329147dd.16", "url": "https://lh3.googleusercontent.com/q80PgeGuYejHG3RzqhyOC9-ok8jco_swIExCKLGTYMhppC8y5BTVxZI63L7uyF8xw97YOis2LiTQ3UqH1j-1eSfFRHU", "name": "Fladder", "lat": 59.27125300000000, "lon": 17.89694700000000},{"id": "083d0c11d3c73be4b338241da7c0a16f.16", "url": "https://lh3.googleusercontent.com/DaLIcWuYOwBO7upYIz5XbTfE-PVuZw2onK6pJ5mM9b7f9c7oLSwZWrpPp_Cs8x90UnNyn1oef6nG7SiXk-Wbt-L-f_dIVXXwICKJPZY", "name": "Igelbäcken Gångbro", "lat": 59.41198400000000, "lon": 17.90029500000000},{"id": "0aee7ba86a2445e997805a1a00500dbd.16", "url": "https://lh3.googleusercontent.com/NHRl8RbmyuinYut0EvpdtFE1mei9ZSWH1qQp6oPlyGAaKuswpGupZrJoU1HMIDg0-RY1HJ0zaAmJSY4qHj6FBugPOdk", "name": "Posing Cat", "lat": 59.34283400000000, "lon": 17.90778500000000},{"id": "0c0593747943341faadca7726523e8d0.16", "url": "https://lh3.googleusercontent.com/tmDsJxBvy6jiPHb4PqW7y9meBpdBhg1AwzWMhiWThZnoAWcz58kJp_PPkzuEN40nhFE5UZVQO3Gn6VFSXOb2-TKNUKo", "name": "Småbjörkens lekplats", "lat": 59.38104600000000, "lon": 17.92475500000000},{"id": "0d0ca9874e7848f0978f960666555921.16", "url": "https://lh3.googleusercontent.com/Y9XAeUttcTl2oE66pYmmDZNEqRcAxN9C-s4d2RmP-fsr6ukte5kxESTySiW-0ASNhVW5GmCFAADvUU8PmwApxpQvIUo", "name": "Kärleksstigen", "lat": 59.32789200000000, "lon": 18.13767600000000},{"id": "0fb954d4450c4472aeebf02c30da9874.16", "url": "https://lh3.googleusercontent.com/RHyIngujRLGF0eN3vX69NajNeUJXV3MNAMHzNNw-8wTcYIuwTVYtxP_OxcsJ0GMrT7DLdEqV0rCEuNmIBg_yIdOKjw", "name": "Farstanäset", "lat": 59.23478900000000, "lon": 18.07929400000000},{"id": "0fede1fe97fa41b889f21865910bc213.16", "url": "http://lh3.googleusercontent.com/dkjF1BoU3_VmUOYFjFWkgulcCWuOakDIK_2BH2iB5aetFI3_sCzELBhRjrFYIpgRwZAGunNew6DDzegAR9NSAzxfCw", "name": "Varvsarbetarhuset", "lat": 59.29606100000000, "lon": 17.91073600000000},{"id": "1435a9e1998c43cb9602a55b651366a8.16", "url": "https://lh3.googleusercontent.com/jss8VDxvhmVOy0ipFabliRSWevGwuidHFY0ehiRNTKpKUTJD-lxWicF_sIbG7g8IXzc6Ns3S6Wj2pkRsHmVjea-w1g", "name": "Flock III", "lat": 59.39064000000000, "lon": 17.90408700000000},{"id": "144017a7aa9a394584d35f55df407f8e.16", "url": "https://lh3.googleusercontent.com/NsSMAnaQkTHp-i8Zm797kHnQ7uVddOTZKiAQYz6ooOcb30xCP_iaxTXneiJdc7oyuU4zuWLaUDkVZs2asoVrXd3LADxrmZ_sQDPEsAny", "name": "Pollineringsträdgård Kyrkhamn", "lat": 59.39166500000000, "lon": 17.77335700000000},{"id": "196da3fae0b5403faeb32d9c96aa1e31.16", "url": "https://lh3.googleusercontent.com/cNfXxdHJf5E2rSgRAqDjqXQ-xfFzHLSplL_e6B4VXbriZ4JqXJfXKoBw-ohvNdLXmGommg_kjN6W_L_gL5_O1BhQvhdL", "name": "Kvinna och hundar i sten", "lat": 59.41150200000000, "lon": 17.92846600000000},{"id": "19c73d02858f45b48be42f6ce090948c.16", "url": "https://lh3.googleusercontent.com/0e2M9u9MwRko2t-a_9icshAK4DIOv8CjpTRLbvcxCXI-5BFUeFj729mfFHjyjMvLyPo4q4WB58Y136QSdRFIdBth2Ew", "name": "Fort Lingon", "lat": 59.38708100000000, "lon": 17.80175000000000},{"id": "1ea641a2a548463fb424a005cf82686d.16", "url": "https://lh3.googleusercontent.com/tDi56_iu6sOyN3GBfRT47LiVqxoxeQk3RM3DOW1VewniLXgIvaeZTXMsv-tK0e2-EYTtQHVN_21_njoeFhLbQk5Wv4M", "name": "Bahnhof Mobile Server Hall", "lat": 59.40973600000000, "lon": 17.95283700000000},{"id": "1fda3948de6940308bbfc59808d59fc6.16", "url": "https://lh3.googleusercontent.com/FHMu9xYUnkEGWocupXg55Dn_OqyiTc1LQFOhpCvDvytU4bZZzbn8Tghr-C5SPwyfTL8kyjPJiALVW20GHZakzFabbe0", "name": "Husby ishall", "lat": 59.41091200000000, "lon": 17.92103600000000},{"id": "21b6648112ec493a87e734979070e7d9.16", "url": "https://lh3.googleusercontent.com/zRJu5YGtCYDmK3FlN6Lr2caAUvbstUc8SH9lObnNFf1NKZ833Fxphjde88cGuDmX-cdMZCYAB-bkOQdX-dFmf8_GeqAq_PaeTqO0VfQ", "name": "Gravfält Och Stensträngar", "lat": 59.42834800000000, "lon": 17.89806500000000},{"id": "2392583c7ad24254b662c41a37d3907e.16", "url": "https://lh3.googleusercontent.com/jQRBSo7UcM0FvkW7hXDEWU-ViLIkmzcedGaq5S11LKTINzkhO1xNQ9IpWO3h4Ps8VAfwpO8RdhGFpV-s6e-WAeuo7Q8", "name": "Flaten", "lat": 59.25360300000000, "lon": 18.14551900000000},{"id": "29ce21c928ae4958960028a23491c1b5.16", "url": "https://lh3.googleusercontent.com/eI9GkVuHMVWpcbBRmiFM4t6nuotMIRF34KL8xDdzlxBoCBPx43MOococL6C0vC_bDGAZqeCpKZkJkLO2iv8obOQhxQc", "name": "Gravfält Flysta", "lat": 59.36499000000000, "lon": 17.90753600000000},{"id": "35d95e98d0d9493585deceab94f0e964.16", "url": "https://lh3.googleusercontent.com/nqx2hTGoeXMVHeIIBnCXmHb2D1yCV9xO1J7cZd-18PxCO4LnOHx36QeGuYqvRwpCRnBBdZEuNNPJ1tdFF1CtU6sdGXA", "name": "Second Bridge over small water, Hjulsta", "lat": 59.39301000000000, "lon": 17.88720000000000},{"id": "382ef5a4d7c642e78e499ddd6f8dabf0.16", "url": "https://lh3.googleusercontent.com/6h6uqkDy5nxdccg5iM0ceEK2uNBGiOmVXwwGXUfn7uXZvm5lXGZiCElvQRnlIekakDyyl7sE_q4xNnCpiL9fBjmsmtQ", "name": "Wooden Horses", "lat": 59.40845300000000, "lon": 17.89812700000000},{"id": "38a7e51cc6ba4cd883c56e3805b8b90e.16", "url": "https://lh3.googleusercontent.com/TFol29rwpGLeBqY8ZjYxCn7s1-_hsMG4CIcx4Gf9hXrR55a3bXcnXDtg8yttejtGRYlVxZ6wnRNPue4PJ7TqfTP31Ok", "name": "Vattentorn vid Fagersjötoppen", "lat": 59.25370000000000, "lon": 18.06341300000000},{"id": "3be79c649e403e85ae632254882ed9f2.16", "url": "https://lh3.googleusercontent.com/-9blLOmCEA6gYNB2K323ZFi4j9-_8DrBfn_oIbpZN9thGhUYJeFvpDuXN0CUUheHJlfTbysaD3wnjYxOBUGeFXyqQWGk0tksLNG6JVYh", "name": "Sätra varv", "lat": 59.29603600000000, "lon": 17.90836800000000},{"id": "3f412eb2a6434ae69cd6b25a25ac28f6.16", "url": "https://lh3.googleusercontent.com/DaAZ1KhLTjUAwxJZ0xxl62B9pAlBtrhe2OwesYuWtnYZanVxUc9ciwKJyXUQKe63Hz7cwaWFJK6IdnafaJmDPaBa_CeO", "name": "Bäckravinen", "lat": 59.24189100000000, "lon": 18.15840000000000},{"id": "43db512fa8734a95b32c4c8a64e7e5a4.16", "url": "https://lh3.googleusercontent.com/S819Z4gMQeZ90yVCKy1XAao-SUFb4FLOqbZYZOSoI2tpbnaxl-pSAhbgNZCWBztElqxMH5GIodT59FXZQ1F-9qv2qaY", "name": "Old Windmill", "lat": 59.32000300000000, "lon": 18.11603900000000},{"id": "445097a1465743a0b6ee72b594b2d5ff.16", "url": "https://lh3.googleusercontent.com/JqY521-h4hGB0CJzNCVu6K6VSw_au4XlYUsgfFdLYpsX0nQun4SBTwgeIv-DtOSfg9teybqfYJREtFwDBB5xrOEyv2Y", "name": "Lekplatsen Nyckelpigsparken", "lat": 59.36251700000000, "lon": 17.90821600000000},{"id": "4606247613054df9b479670d7384daa8.16", "url": "https://lh3.googleusercontent.com/skze6xh3z9irTGQZwHEmQ0PXZy2ut643b6VgtQjzjrGKh9IGfhxt5gXnmyaXEqVvjQzM7D4lxt1fnlU4sL06_SrscZZQ", "name": "Stockholms Länstenen", "lat": 59.41659600000000, "lon": 17.93283300000000},{"id": "4ddd3aca723045b2bec7d763d9ca0b56.16", "url": "https://lh3.googleusercontent.com/iKaytDHaIvtRjpXg8AdGX6I9ko7-g6Lz9ndhtgswd-8OMg6py4b27RqF15qhuWatrWdPP60WwsMrhXo4pQtUVedW-94", "name": "Tidens väg – South Start/Finish", "lat": 59.40187400000000, "lon": 17.89649800000000},{"id": "52142b74149247a9ac1060049282c63a.16", "url": "https://lh3.googleusercontent.com/iNN5CD9irWeVfTtlHC0WU7OmS65oDWPICWRyx88My74aoF3zlO_6j7lWEysToqA5T68cMKLqT5gD_N4HjdMoEN-Pvf0", "name": "Ekhagens Bollplan", "lat": 59.37050400000000, "lon": 18.05553000000000},{"id": "5794bd8196784e97b1c5b2938e6d8be6.16", "url": "https://lh3.googleusercontent.com/f_sGkk-Luf8VKJ0JfT3PafRy-JoZZ-6TcxGmITKyjK7VWKEiU2g8P0GITwtdnM8XT5SnfZswGmY-0it9b2qvkFqZ1f4", "name": "Kungliga Djurgårdens Motionsspår", "lat": 59.36992000000000, "lon": 18.06891500000000},{"id": "5a3311bfabea49e5a5a1df26bc9295ed.16", "url": "https://lh3.googleusercontent.com/aFDcIAoAAOC_T2rEuv8yEc_oPcVPcyWE1MpoVaZYHG2VRYS-4ZbYrUT9DdZmh_Q9aQXrXvr3cGQcykRrxiEaQaCBaks", "name": "Verksamheter på Smedsudden", "lat": 59.32476200000000, "lon": 18.02328600000000},{"id": "5aa4e0d11a6a439791b69b25d8543578.16", "url": "https://lh3.googleusercontent.com/JcaTMkRtN7aVStS4cwJVALEYMHVWgjtTOclE77Qy-7K8J_mXBbVw7ogHRXyY1E2bA-QEE9ZMmxVrqqFgD8UusYv7lBU", "name": "Järva Kilstråk Mitt På Ängen", "lat": 59.39848600000000, "lon": 17.92593900000000},{"id": "5b3db887f8064b7281d0cff36326bfb3.16", "url": "https://lh3.googleusercontent.com/yBPaqlgzrx0cK4T0Cxw4N6e1k_fk7w_5bMPdao22Fs8Q-TN6jX86wJrZDnts5YUMLD2VFoK7pqMwfWt1qGhnifkjOmXD", "name": "Skärholmens Gårds fontänstaty", "lat": 59.28334000000000, "lon": 17.88904900000000},{"id": "5c42f8ccb7be47a6a334c5a5a5405afa.16", "url": "https://lh3.googleusercontent.com/Xoo5Rl-dwdwBNeoZCftA3brdgPAgO1f9lRVLjLeGmvyIm0mf7bfuyZjdPjjmaDZUKO2jqNSc5Sn8sLAmCpxfBS4PgtA", "name": "Flatens Historia", "lat": 59.25388700000000, "lon": 18.14276300000000},{"id": "63fdf348ba2a45e98b4a544e87cc9838.16", "url": "https://lh3.googleusercontent.com/Eb4XmBm_3es3GSZyq3xcRX2WiU3LOoy10mR6NDf7wNYL2cxGWwAPwyj1hnkxhm3paaOYcZpxooTtwUg05u0kRWIz0Q", "name": "Missionskyrkan", "lat": 59.37733400000000, "lon": 17.82100400000000},{"id": "6adf35db677b4b62a56f989b97e1770b.16", "url": "http://lh3.googleusercontent.com/MhsdG89iy9cEL6klgfiGR1x0rIMPFsm-IydXXNpt7i0DoxYw2N02A8xQ6ikPLE8Eia2bXPg99GLHOG3Sjri5nbU-b8gN", "name": "Lustiga huset", "lat": 59.27438500000000, "lon": 17.87095500000000},{"id": "6e7ccaa7b2614c2385fcd3cd17a4b80d.16", "url": "https://lh3.googleusercontent.com/742kvpppJDPFBNVcvG6ZF_A11h6vmUWPrQkz00bDD4rl28dAGYdVn1k29dZosuHsdMpDK_LDX30EEuoOHtqHhV0-WlHP", "name": "Svart Katt, Ingen Vit Katt", "lat": 59.28257900000000, "lon": 17.91607300000000},{"id": "6f930508b4d242e294a32be62cf2c0c3.16", "url": "http://lh3.googleusercontent.com/oQMefHNs97IdFdvSkK-Da3RQnM-YScKKv_X0c3OXD_qeYWySZMHa4lk8IHIr4mBEeNv6SJXVkJlPV8dH4QbzfkLx3ZA", "name": "Lekplats Kv. Lapptåget", "lat": 59.38972400000000, "lon": 17.82003700000000},{"id": "709c0719e9d7465abaebf5c2d0f941da.16", "url": "https://lh3.googleusercontent.com/1mbxgWxETgV5Tjj7kPs85-qcpUsg0rD7fLZqZNhJVfSeVnVj9ru-e6u5OmnxpNW-_R4i3ssvFu8E1K_1PGAC_DbFuwQ", "name": "Thielska Galleriet", "lat": 59.32179900000000, "lon": 18.14810700000000},{"id": "732d5207d94f47a3bd3cd5b70a70fcf2.16", "url": "https://lh3.googleusercontent.com/tSGPlYf46_mci3CEhmH16ZZHAXXmp8TapLcGHEjouSWz2fXt6_N2xNqWq5q2ztuFcdbfrNRgjrBOB9-8lCvJ2W8jxAs", "name": "Gravfältet Ålstensängen", "lat": 59.31748400000000, "lon": 17.95359900000000},{"id": "75cc3ca5841d4fa7bcd0efca90c4afe7.16", "url": "https://lh3.googleusercontent.com/w9ETPbw1npkXa6uCYPJHYHtNIIoPqzsDTbjFyaZNJ5RpD5oURLbZqkKTeOXxmas0LR5_P6Qg7v2Hx4FJmMv9ox25nR4", "name": "Strandkyrkogården", "lat": 59.23974500000000, "lon": 18.18525900000000},{"id": "76f2044a64e948d69fb0cf5809ff5016.16", "url": "https://lh3.googleusercontent.com/7PNHTsI-8ruA5y42z98YTztoPIVcFVEXOTcOh62XJ9JSOzwL3OOO1ezLvtMm5WI7kHlhHHp5aSOXo3WDYI72mDKNYw", "name": "Hansta Naturreservat - Östra ingången", "lat": 59.42505500000000, "lon": 17.91334000000000},{"id": "77054e0c79a631519508f01834fc5934.16", "url": "https://lh3.googleusercontent.com/gQTtdxkV3BP48iI6Iz1WccVlBXP0hDFpZZu0keRhg-YxP3hUYRKQFdnDIuVz-4oYgOi4BmnxoT__5G1MZwYWVhGUoro4zN6fvOit1Z4J", "name": "Bromsten sport field", "lat": 59.38033400000000, "lon": 17.92779800000000},{"id": "77d1835b30ce4ef08566580d60273a72.16", "url": "https://lh3.googleusercontent.com/f69w_lVchNuSoOXFCBciqQ7PqY9knMXeA_GxSYBJ4qRq4A9ilfldNH3j1tHV9j_5R5IPEi2b7vrkCNm5tdDDjm9QqQ", "name": "Giraffkran", "lat": 59.32020600000000, "lon": 18.09871400000000},{"id": "789db356a9ba4949b406e0631777e5ca.16", "url": "https://lh3.googleusercontent.com/R4x-gS4U-k3gRuyF-mNIOGQXa1wD-XZq63c1VI-pgcG57vhogd9NJgtqo2lpqDF3WPKC1qoTZ_UNE0P8XbmW-4GzFtM", "name": "Gungor och klättertorn", "lat": 59.37795000000000, "lon": 17.86850200000000},{"id": "81a47d3001234afda3ab726c78119f48.16", "url": "http://lh3.googleusercontent.com/AlRvTHi3f40tfRVJ7BJwyDmtKyOQ035VW5O-S1AW1SuyM13vdvn6RQtbOqf-C8UW3fyDDy2OX0FvrjYHaF3buhP2pJYeQ6DyOBJ4mzBb", "name": "Fågelskylt", "lat": 59.32391600000000, "lon": 18.14406900000000},{"id": "834f6a2eed244334a33b23e4ca514579.16", "url": "http://lh3.googleusercontent.com/QGi-SqyZlenwINdRs_1W9dLIEmSj_RW1E-i4KcZzxEOEYrTWIJQXnCllcSRgfgw51dKmp6qqM7Pt80Aqzf19897hQjE", "name": "Fantastiska musen", "lat": 59.23258200000000, "lon": 18.09841100000000},{"id": "8578e7f6752032be97e19a9e065f5f6d.16", "url": "https://lh3.googleusercontent.com/e9N_4WILNx9Is9V8ymbFcAMNDXf2jlVY0Xbz8JrfPRmTXMnzwTlFETlnDFyEvzp50PRZ_7QsNOHWQBCC08yGerAzzbvVfT7DAVDLd4sgRg", "name": "Sälg", "lat": 59.33155000000000, "lon": 18.15168200000000},{"id": "8762236f811b398d88911d9c163ade19.16", "url": "https://lh3.googleusercontent.com/oMxIsnGGtmzBDU3YtbeIBXBrBe0vROCTwJ8L5kTqBlRkN2b4yZKQuXPfuh9PIvFewMXgBVEaSegp59fAV2GktDVeMHlpkGY3AeaurZ0", "name": "Hundrastgård", "lat": 59.34198200000000, "lon": 17.91792700000000},{"id": "886d889ab08944368fc68d2e73d6050a.16", "url": "https://lh3.googleusercontent.com/NIOyLXPiWlXR4AbJTr984ZSQZl2gLXT9zMtflR-MafPv-pIAcr6PYfaYViaw3IoLhmOItoKpCdgphETft8Q0X3COSA", "name": "Sätra Reservoaren", "lat": 59.28951200000000, "lon": 17.90532200000000},{"id": "8a98b183f64e4a6b883c5628eaf2dd79.16", "url": "https://lh3.googleusercontent.com/GW8P24E-QGux5K_HCpSGsS-ja6fVGmjw9ODwnIy9_4BkEdgLWgzI7ngCKVz3d2Ug_CtVH-10XLz4zT1FvGGgdcfgWvfM", "name": "Häradsvägen", "lat": 59.42488600000000, "lon": 17.90616500000000},{"id": "923521a13c3e403eb6c295169b8117f1.16", "url": "https://lh3.googleusercontent.com/jo2bQYlRbPDRJTYryXd6w94uZcuAiRViOUnDovPEVAdywOJZ0lVLUFcU_EVRwCt1-NPO7kkTbbQCV3swNBUTA0IrTA", "name": "Resonatorfabriken", "lat": 59.27148500000000, "lon": 18.00885300000000},{"id": "96d2f00553774372ac2e741fb536759b.16", "url": "https://lh3.googleusercontent.com/FVavZ3PsCHtvSZGX1eRee3WXVY-RGrzvztk3HCUKPVliB0Yev6KEcNo6fGzTUIcVwGTmXSTsTplQRBK-1Es16CXMdN9w", "name": "Tusculum", "lat": 59.28301400000000, "lon": 17.88327400000000},{"id": "99d7f88b869b4ef5b254bc747eb7d53d.16", "url": "https://lh3.googleusercontent.com/-T-ZXMUQnr-3icfZNLA_JHhrFfhao1RnV4Q5B1sZ5IAhrsWtEKaT2B9QOUYvPUsv3M85ZbmPFFs9ZuBmWnb_h3260HfZ", "name": "Husby gravfält", "lat": 59.40789100000000, "lon": 17.91643500000000},{"id": "9e6049c4c1fc4eb6b1a61bfa07d8b9ea.16", "url": "https://lh3.googleusercontent.com/7uJsij7ob7d5xJx1TKNPpueiQ8Y7vFYA-SB0f1vxNOsDGwWMK6X426Lxlfy-geRzLTz1B917S9171rf_XmF06ooMYfI", "name": "Two Horsemen Without Men", "lat": 59.27632500000000, "lon": 17.88521000000000},{"id": "a399708db69e4cbb89d1bd532a08bf31.16", "url": "https://lh3.googleusercontent.com/bbi2R2MVq2qvmkEDZeTkMUF-8RqWEWX-oyWg9DJ2enqUOyxe77D8OBjiKaoeamVtaG9ndvRkBfLdDS_hnUxpdU_Qgw", "name": "Concrete Artwork", "lat": 59.33493000000000, "lon": 18.13549700000000},{"id": "a9f79984d701445e907855492c7ef4c2.16", "url": "https://lh3.googleusercontent.com/xl6d0nlD0TZvZjiYrYZt2kvyOGIzGNZjfOjVAQRr8bZ7M7VWXg-7g6JiCSPLMOfH6Sr43QASxQrziGZfAmeesUVnpEI", "name": "Kyrksjölötens Naturreservat", "lat": 59.34494700000000, "lon": 17.92552300000000},{"id": "ab9e0316df1b45bd9357103d8555b61b.16", "url": "https://lh3.googleusercontent.com/RXBXjh7xf-CUBSBQjOcHK-rYAJxCb0o73H7WnZhsnqdkFqkjxtVuDlY4-rIP-oX751BhUOVhiO-vUf_PHURag8PBlJs", "name": "Mellangårdens IP", "lat": 59.38160600000000, "lon": 17.88005100000000},{"id": "ac9ba5a8b42648d7888c66b708c89a75.16", "url": "https://lh3.googleusercontent.com/8dLCViM06l7RQ9TRkUud5IKlWT-AQjbFwijKxEffMnoB3n15q-rgT4PTj-_70JIlTu5dD_pb06VD6M4Es6eGzbFljYlq", "name": "Yxmannen", "lat": 59.32276700000000, "lon": 18.15534000000000},{"id": "b5329485d09839f7b0203140cf1898a0.16", "url": "https://lh3.googleusercontent.com/xBZeie5XiAYmEp_DLCY446HDlFU37km8-cA2sDizqAt-K3PpjPXpP-L4yP4fVqIQNyWX2luzAoKSglRBZZGX539j_ym7n5W4lJJDSBVYfQ", "name": "Ärvinge Groddamm", "lat": 59.39665600000000, "lon": 17.93159800000000},{"id": "b7e99fb3c56a36429a24ee44e39b0b63.16", "url": "https://lh3.googleusercontent.com/OKPz8pUGERQYmGyS-_vRWLJXUCCx0AZFIuEm_7Gx6wu0LtOT-zxGzZd9EYe3OIvZC8FvY2eoEJEhVtNzEQ69nDtXryGmkumtzaridC0", "name": "Lekparken i skrubba koloniområde", "lat": 59.24370500000000, "lon": 18.17930700000000},{"id": "c03e770bcaac49f6ab2e880fb803ecdd.16", "url": "https://lh3.googleusercontent.com/-J7_PaSXL3KL28ca2Sl2EQaV67-Px1ZnLiTI5euK5s9-K6BNdJNUimQakQW63Ms5tAhNnHpzBVX0wSPK7VQfk09Y-gw", "name": "Tidens väg - Kolkärr", "lat": 59.40222900000000, "lon": 17.89527400000000},{"id": "c6e05e02159a46dcb8df0c70f325410d.16", "url": "https://lh3.googleusercontent.com/krxSlffkHfnzg5JlOiJNdLreJ1Q_jiYg3HV8hk-tGFzaj_rKVJstqjyXRSkcfE7cVofuATH7uTr68JQD3xCcFTFiJq8j", "name": "Frihetens Port", "lat": 59.32203700000000, "lon": 18.13347700000000},{"id": "c8afa3cde3c9423d8a505622e7c5c210.16", "url": "http://lh3.googleusercontent.com/RMhHGg2a26geKcPNfQryIG1K3CDDoGK44X3_ih-q_efvlSHj6Sde-K1CnfDm93M-piRiwL268_iyg5g8KLd3O8_8Jnc_", "name": "Rågsved Affären", "lat": 59.25263700000000, "lon": 18.02883200000000},{"id": "c9c90714dde5343289e005f74e5e24eb.16", "url": "https://lh3.googleusercontent.com/ZQ9ObJPMem8Pw1VRFGCq6NcTQcKufphsEhJFqY4qj8vHVWrmPpN2A21-1Izdw7GkrniWyQi6iMtYwqePgr4b_dv8cZk", "name": "Lekplats", "lat": 59.38020200000000, "lon": 17.86724000000000},{"id": "ca6e671fac9d422389af7c1512582467.16", "url": "https://lh3.googleusercontent.com/u3SRJBHhC9IzVD1GsOJKsSP5qIxMC0T8ADfvqGWyb6pzKRaukZX5k0offOb7d7vDCGX_Ho5ERgQOGiOv2FUnvHswvJU", "name": "Cyklopen Aktivitetshus", "lat": 59.25943300000000, "lon": 18.04108000000000},{"id": "cdc8cf66cb5f4738a3c7dd3b4c30af30.16", "url": "http://lh3.googleusercontent.com/7Xx0cIAko4_Bkm1deJAHg8gVZh2bjMBOVfUG12gtl_LlFjlB0AMo5-7yklfchz6Nw-H2jDsHQ21WEVtxMkuf5kph0xw", "name": "Ett Stort Mynt", "lat": 59.27098700000000, "lon": 17.88551900000000},{"id": "cde1a64aaeff49d4a236215439735200.16", "url": "https://lh3.googleusercontent.com/yzW1YYtiUKrPGooWKKoMLMhLJXHJ4GgK0Y_Rkh3JPmldnB-Ry7yFn4FpbTcw1Jyyoyet3XH9z9hrouzrobCr83p_KdPq", "name": "Kista Gårds Koloniträdgårdsförening", "lat": 59.40191200000000, "lon": 17.92786600000000},{"id": "d6b2d4029f503ee68cf0678914d66922.16", "url": "https://lh3.googleusercontent.com/nvfJfzqZht5jJt5MiU2gceSCdnFVFUQyojs_tMRgiGw9kOPlK3IfxYz0DIwOolsgnSgMS6Cni3_qsc30nPBI8q_4hSzz0fhLtaVf5Isx", "name": "Järva discgolfpark hål 11", "lat": 59.40472200000000, "lon": 17.89879100000000},{"id": "d824b3e21aa54484a9f7f23d27fe53ce.16", "url": "https://lh3.googleusercontent.com/-CKJu1qQ3CLvIRZAtc1l4w5GVgBXP3RCk8AkeTrryfW6rWKIJRySnmIR7T4-0MPZF5U5CxE-Jg3sM0-9bgTmkiox0iLj1xkQNgq6gMbb", "name": "Ekelunds Torp", "lat": 59.29236100000000, "lon": 17.90795600000000},{"id": "e46aa3e11c394acf81f852ded43b5dd1.11", "url": "https://lh3.googleusercontent.com/D5ac7cO9QRXlDZ1RY2OUDaekztUJm8-HwUV3sUt7U6s1t4Hi58_yNZuExQwd_XG6U5PdP5k72TZhEx844lbWxWsWG1o", "name": "Solvalla Radartorn", "lat": 59.36340000000000, "lon": 17.93775200000000},{"id": "e5ecf7cf594e40ab9210cddb16bf7dbc.16", "url": "http://lh3.googleusercontent.com/FWbdXtSRU9_fA28SNJzYlg2FzTggjWiI48H2A-YR2mshs9heL-t50cJA-Wy6dnSuVKhG2zC-BIAq9ADM1wVOAhmG3jU", "name": "Playground at Varpholmsgränd", "lat": 59.28015500000000, "lon": 17.89643100000000},{"id": "e6ffc166ba67417db27ed47ea31beef5.16", "url": "https://lh3.googleusercontent.com/J1d4F-0KuquZVBJ2fAyMK4DgYsRbayKafURRjg_B8zgdzpe8_nzf743dV5yYCLlqdi-It4aAaWyff5McAn1ZeK_VCEo", "name": "Padelverket", "lat": 59.27280500000000, "lon": 18.00438200000000},{"id": "e945f90dc7354ea69b36f0e2bcbc08b4.16", "url": "https://lh3.googleusercontent.com/aXEAvGHKFHt7xWJoP3S-0XZHuvP-uMOoRKa9tc0spEJkntH2aBr07a81mM1kStU4MjlMfawElmys-Q-50A1QJ3lzlINB", "name": "Sätrastrandsbadet Utegym", "lat": 59.28657200000000, "lon": 17.89340900000000},{"id": "e9d3330f7c0c4335b80655085c1ec661.16", "url": "https://lh3.googleusercontent.com/z9bcz5jWOPRi7OHzC7IJgiNWiQgkHwzOAGav7QTQVD7A4NjXLgpkrbWWdq68r9cX4p-6TnLmjbF8Z6Xk_WI1xTtMyK8", "name": "Den Blå Älgen", "lat": 59.37135000000000, "lon": 17.83975400000000},{"id": "f0563367171b412c82b4ea867bdb2132.11", "url": "https://lh3.googleusercontent.com/Aysgt4vpBLvFkjnRLkTw7GDW6m7Iw_lIRVOll-mD8ZqEqLLhuG_AdZZSNesYxGhYiXQ7XW1pr_xs0XsM7OfmHmqV0Q", "name": "Åsnan", "lat": 59.40667600000000, "lon": 17.92021000000000},{"id": "f33c5b1ecd0f33ac80db47bbd613cfe4.16", "url": "https://lh3.googleusercontent.com/PJxcpd1_q0umzUuKDvtTHmDnULLtDfR2em7fOvNBrrIw8nRCsDyzwjuv4oLXQtHB3LfrBwt9rlSi621UYXyngeyJrmmc", "name": "Lambarö lastbrygga", "lat": 59.36597700000000, "lon": 17.81311200000000},{"id": "f5be0b4c56554ab2ac4ac07e139133b3.16", "url": "https://lh3.googleusercontent.com/65wnT8PJUJZe5U3ZAkl4xJ12XM1cAI6u7g1kt3nq1stNSKwbFEhzemWZra_vSs5v_6i7R2_5Kx65eDtLdZNZLhtwFGw", "name": "Johannesdals Gård", "lat": 59.27841100000000, "lon": 17.87351100000000},{"id": "fbc7d1f91b7244c8aee0a9e921c91819.16", "url": "https://lh3.googleusercontent.com/4reAOMM8mjfb_L-t6hFFd3n0v6vAXqsD4_OfQgj24gRYXmdegYij5rYWacr2SKL8y2mBK061JU4JJWI85A59asN9z54", "name": "Runstenen i Eneby", "lat": 59.35928000000000, "lon": 17.91240800000000},{"id": "fe64dfc0492f4dc58da2bc53ea7af12b.16", "url": "https://lh3.googleusercontent.com/UpQg5HNVPsCFM-epL2VGaO8EDhlWej2RJJ2rRQBS4C-a1heK_Mp8I-BkahFgr1nM4oIrwiWlATfwmac5QOTxT0EwGw", "name": "Stekelhotell", "lat": 59.34860900000000, "lon": 17.93218800000000}]
