[{"id": "03f1c8d21d51452482d03a4b01834ee8.16", "url": "https://lh3.googleusercontent.com/eGLAUZ0pUvlTQ8iFH1bO_aVcfuE5iCxzgZpf_gvie2BkAGi5Zb9I3K7ej18QPdhD8G6BmaAGBwD_mI3fkeGktDimiI8", "name": "Gravfältet Vid Glia", "lat": 59.35010500000000, "lon": 17.93723800000000, "bs": 101, "bc": 6, "rs": 60, "rc": 3, "ys": 66, "yc": 7},{"id": "05a6dd2338d8424cb63af726329147dd.16", "url": "https://lh3.googleusercontent.com/q80PgeGuYejHG3RzqhyOC9-ok8jco_swIExCKLGTYMhppC8y5BTVxZI63L7uyF8xw97YOis2LiTQ3UqH1j-1eSfFRHU", "name": "Fladder", "lat": 59.27125300000000, "lon": 17.89694700000000, "bs": 78, "bc": 11, "rs": 33, "rc": 4, "ys": 26, "yc": 11},{"id": "0aee7ba86a2445e997805a1a00500dbd.16", "url": "https://lh3.googleusercontent.com/NHRl8RbmyuinYut0EvpdtFE1mei9ZSWH1qQp6oPlyGAaKuswpGupZrJoU1HMIDg0-RY1HJ0zaAmJSY4qHj6FBugPOdk", "name": "Posing Cat", "lat": 59.34283400000000, "lon": 17.90778500000000, "bs": 94, "bc": 11, "rs": 22, "rc": 7, "ys": 12, "yc": 5},{"id": "0fede1fe97fa41b889f21865910bc213.16", "url": "http://lh3.googleusercontent.com/dkjF1BoU3_VmUOYFjFWkgulcCWuOakDIK_2BH2iB5aetFI3_sCzELBhRjrFYIpgRwZAGunNew6DDzegAR9NSAzxfCw", "name": "Varvsarbetarhuset", "lat": 59.29606100000000, "lon": 17.91073600000000, "bs": 86, "bc": 7, "rs": 73, "rc": 6, "ys": 46, "yc": 3},{"id": "19c73d02858f45b48be42f6ce090948c.16", "url": "https://lh3.googleusercontent.com/0e2M9u9MwRko2t-a_9icshAK4DIOv8CjpTRLbvcxCXI-5BFUeFj729mfFHjyjMvLyPo4q4WB58Y136QSdRFIdBth2Ew", "name": "Fort Lingon", "lat": 59.38708100000000, "lon": 17.80175000000000, "bs": 94, "bc": 13, "rs": 3, "rc": 4, "ys": 6, "yc": 9},{"id": "21112805facb4eb8823130d73a54dea6.16", "url": "https://lh3.googleusercontent.com/k-inupGbxQSaxDDRpOqjpD65l187FNgjfw3IwQ29BfTQJ8BP17wnqGSeXNo9IoSo8thyPVIjAX2EfBz6bzRRvAE6Kb0", "name": "Scen", "lat": 59.40682800000000, "lon": 17.91966100000000, "bs": 77, "bc": 10, "rs": 46, "rc": 8, "ys": 21, "yc": 6},{"id": "2392583c7ad24254b662c41a37d3907e.16", "url": "https://lh3.googleusercontent.com/jQRBSo7UcM0FvkW7hXDEWU-ViLIkmzcedGaq5S11LKTINzkhO1xNQ9IpWO3h4Ps8VAfwpO8RdhGFpV-s6e-WAeuo7Q8", "name": "Flaten", "lat": 59.25360300000000, "lon": 18.14551900000000, "bs": 101, "bc": 4, "rs": 95, "rc": 3, "ys": 80, "yc": 7},{"id": "382ef5a4d7c642e78e499ddd6f8dabf0.16", "url": "https://lh3.googleusercontent.com/6h6uqkDy5nxdccg5iM0ceEK2uNBGiOmVXwwGXUfn7uXZvm5lXGZiCElvQRnlIekakDyyl7sE_q4xNnCpiL9fBjmsmtQ", "name": "Wooden Horses", "lat": 59.40845300000000, "lon": 17.89812700000000, "bs": 143, "bc": 6, "rs": 60, "rc": 4, "ys": 46, "yc": 3},{"id": "38a7e51cc6ba4cd883c56e3805b8b90e.16", "url": "https://lh3.googleusercontent.com/TFol29rwpGLeBqY8ZjYxCn7s1-_hsMG4CIcx4Gf9hXrR55a3bXcnXDtg8yttejtGRYlVxZ6wnRNPue4PJ7TqfTP31Ok", "name": "Vattentorn vid Fagersjötoppen", "lat": 59.25370000000000, "lon": 18.06341300000000, "bs": 638, "bc": 1, "rs": 241, "rc": 1, "ys": 91, "yc": 2},{"id": "3be79c649e403e85ae632254882ed9f2.16", "url": "https://lh3.googleusercontent.com/-9blLOmCEA6gYNB2K323ZFi4j9-_8DrBfn_oIbpZN9thGhUYJeFvpDuXN0CUUheHJlfTbysaD3wnjYxOBUGeFXyqQWGk0tksLNG6JVYh", "name": "Sätra varv", "lat": 59.29603600000000, "lon": 17.90836800000000, "bs": 0, "bc": 0, "rs": 0, "rc": 0, "ys": 0, "yc": 0},{"id": "445097a1465743a0b6ee72b594b2d5ff.16", "url": "https://lh3.googleusercontent.com/JqY521-h4hGB0CJzNCVu6K6VSw_au4XlYUsgfFdLYpsX0nQun4SBTwgeIv-DtOSfg9teybqfYJREtFwDBB5xrOEyv2Y", "name": "Lekplatsen Nyckelpigsparken", "lat": 59.36251700000000, "lon": 17.90821600000000, "bs": 138, "bc": 6, "rs": 32, "rc": 5, "ys": 48, "yc": 6},{"id": "5b3db887f8064b7281d0cff36326bfb3.16", "url": "https://lh3.googleusercontent.com/yBPaqlgzrx0cK4T0Cxw4N6e1k_fk7w_5bMPdao22Fs8Q-TN6jX86wJrZDnts5YUMLD2VFoK7pqMwfWt1qGhnifkjOmXD", "name": "Skärholmens Gårds fontänstaty", "lat": 59.28334000000000, "lon": 17.88904900000000, "bs": 91, "bc": 10, "rs": 36, "rc": 9, "ys": 5, "yc": 3},{"id": "5c42f8ccb7be47a6a334c5a5a5405afa.16", "url": "https://lh3.googleusercontent.com/Xoo5Rl-dwdwBNeoZCftA3brdgPAgO1f9lRVLjLeGmvyIm0mf7bfuyZjdPjjmaDZUKO2jqNSc5Sn8sLAmCpxfBS4PgtA", "name": "Flatens Historia", "lat": 59.25388700000000, "lon": 18.14276300000000, "bs": 150, "bc": 3, "rs": 22, "rc": 2, "ys": 90, "yc": 2},{"id": "6e7ccaa7b2614c2385fcd3cd17a4b80d.16", "url": "https://lh3.googleusercontent.com/742kvpppJDPFBNVcvG6ZF_A11h6vmUWPrQkz00bDD4rl28dAGYdVn1k29dZosuHsdMpDK_LDX30EEuoOHtqHhV0-WlHP", "name": "Svart Katt, Ingen Vit Katt", "lat": 59.28257900000000, "lon": 17.91607300000000, "bs": 87, "bc": 13, "rs": 8, "rc": 6, "ys": 3, "yc": 7},{"id": "709c0719e9d7465abaebf5c2d0f941da.16", "url": "https://lh3.googleusercontent.com/1mbxgWxETgV5Tjj7kPs85-qcpUsg0rD7fLZqZNhJVfSeVnVj9ru-e6u5OmnxpNW-_R4i3ssvFu8E1K_1PGAC_DbFuwQ", "name": "Thielska Galleriet", "lat": 59.32179900000000, "lon": 18.14810700000000, "bs": 107, "bc": 7, "rs": 18, "rc": 5, "ys": 62, "yc": 4},{"id": "747b5d6ef8ea34d09ac8ab6fbd8355b0.16", "url": "https://lh3.googleusercontent.com/zJpe024yeRhW7ag4edUC1Vu5YQulcYdw-kwVgSPNaM7q-WPz6dNhStPNmDULdy5qmZGJmQVgG5Dzg46hUjvq2JV4tPKKSSHDuVkHrSpr", "name": "Vägvisare Drevvikens Strandstig", "lat": 59.24046300000000, "lon": 18.15304700000000, "bs": 140, "bc": 1, "rs": 46, "rc": 1, "ys": 362, "yc": 3},{"id": "77054e0c79a631519508f01834fc5934.16", "url": "https://lh3.googleusercontent.com/gQTtdxkV3BP48iI6Iz1WccVlBXP0hDFpZZu0keRhg-YxP3hUYRKQFdnDIuVz-4oYgOi4BmnxoT__5G1MZwYWVhGUoro4zN6fvOit1Z4J", "name": "Bromsten sport field", "lat": 59.38033400000000, "lon": 17.92779800000000, "bs": 83, "bc": 7, "rs": 65, "rc": 4, "ys": 106, "yc": 3},{"id": "789db356a9ba4949b406e0631777e5ca.16", "url": "https://lh3.googleusercontent.com/R4x-gS4U-k3gRuyF-mNIOGQXa1wD-XZq63c1VI-pgcG57vhogd9NJgtqo2lpqDF3WPKC1qoTZ_UNE0P8XbmW-4GzFtM", "name": "Gungor och klättertorn", "lat": 59.37795000000000, "lon": 17.86850200000000, "bs": 86, "bc": 14, "rs": 5, "rc": 11, "ys": 5, "yc": 3},{"id": "7cc3a1cfa78341dbb02b42249b3599dd.16", "url": "http://lh3.googleusercontent.com/F-D4Py9DAdrin1Ote8Uug1TbnomqIP1mIhzWiLqsFZ--UT9Sr4qTVG1HnTfpKFXZTrrWJhIAig_Jg-z72wHSil6u20c", "name": "Boplats & Gravfält", "lat": 59.42570800000000, "lon": 17.90097000000000, "bs": 0, "bc": 0, "rs": 0, "rc": 0, "ys": 1077, "yc": 1},{"id": "834f6a2eed244334a33b23e4ca514579.16", "url": "http://lh3.googleusercontent.com/QGi-SqyZlenwINdRs_1W9dLIEmSj_RW1E-i4KcZzxEOEYrTWIJQXnCllcSRgfgw51dKmp6qqM7Pt80Aqzf19897hQjE", "name": "Fantastiska musen", "lat": 59.23258200000000, "lon": 18.09841100000000, "bs": 79, "bc": 15, "rs": 2, "rc": 7, "ys": 5, "yc": 10},{"id": "8578e7f6752032be97e19a9e065f5f6d.16", "url": "https://lh3.googleusercontent.com/e9N_4WILNx9Is9V8ymbFcAMNDXf2jlVY0Xbz8JrfPRmTXMnzwTlFETlnDFyEvzp50PRZ_7QsNOHWQBCC08yGerAzzbvVfT7DAVDLd4sgRg", "name": "Sälg", "lat": 59.33155000000000, "lon": 18.15168200000000, "bs": 127, "bc": 5, "rs": 91, "rc": 5, "ys": 0, "yc": 0},{"id": "886d889ab08944368fc68d2e73d6050a.16", "url": "https://lh3.googleusercontent.com/NIOyLXPiWlXR4AbJTr984ZSQZl2gLXT9zMtflR-MafPv-pIAcr6PYfaYViaw3IoLhmOItoKpCdgphETft8Q0X3COSA", "name": "Sätra Reservoaren", "lat": 59.28951200000000, "lon": 17.90532200000000, "bs": 377, "bc": 2, "rs": 31, "rc": 3, "ys": 0, "yc": 0},{"id": "892aa34dea274361ab34e3fb82b2c551.16", "url": "https://lh3.googleusercontent.com/hKRBru09SQfKh4XV9PORorqAKKOVN5mdkP7wYO15w5WQ247dVXkQErxqipWKKZFJTcCrYJs7_XGTuhhVxp7BYjcaGg", "name": "Sätraskogen Discgolf", "lat": 59.29448300000000, "lon": 17.91140200000000, "bs": 68, "bc": 11, "rs": 22, "rc": 8, "ys": 39, "yc": 6},{"id": "99d7f88b869b4ef5b254bc747eb7d53d.16", "url": "https://lh3.googleusercontent.com/-T-ZXMUQnr-3icfZNLA_JHhrFfhao1RnV4Q5B1sZ5IAhrsWtEKaT2B9QOUYvPUsv3M85ZbmPFFs9ZuBmWnb_h3260HfZ", "name": "Husby gravfält", "lat": 59.40789100000000, "lon": 17.91643500000000, "bs": 104, "bc": 10, "rs": 12, "rc": 7, "ys": 27, "yc": 5},{"id": "a9f79984d701445e907855492c7ef4c2.16", "url": "https://lh3.googleusercontent.com/xl6d0nlD0TZvZjiYrYZt2kvyOGIzGNZjfOjVAQRr8bZ7M7VWXg-7g6JiCSPLMOfH6Sr43QASxQrziGZfAmeesUVnpEI", "name": "Kyrksjölötens Naturreservat", "lat": 59.34494700000000, "lon": 17.92552300000000, "bs": 79, "bc": 11, "rs": 21, "rc": 12, "ys": 17, "yc": 7},{"id": "b025a6111395416580ce370f64dd7164.16", "url": "https://lh3.googleusercontent.com/W1MOyMp_HMxqVciZFqHoK0X86MqYJWQ84jlwiQxmIJFZvRrlv5ELxjt7S6YHWWq8tpSS9xwrEt1zMPYMnPgr1qXTp3E", "name": "Laxholmsbacken Lekplats och Sandlåda", "lat": 59.27394400000000, "lon": 17.87512100000000, "bs": 67, "bc": 8, "rs": 46, "rc": 9, "ys": 32, "yc": 3},{"id": "b7e99fb3c56a36429a24ee44e39b0b63.16", "url": "https://lh3.googleusercontent.com/OKPz8pUGERQYmGyS-_vRWLJXUCCx0AZFIuEm_7Gx6wu0LtOT-zxGzZd9EYe3OIvZC8FvY2eoEJEhVtNzEQ69nDtXryGmkumtzaridC0", "name": "Lekparken i skrubba koloniområde", "lat": 59.24370500000000, "lon": 18.17930700000000, "bs": 97, "bc": 6, "rs": 71, "rc": 5, "ys": 35, "yc": 3},{"id": "c25a88bab36b467faeca9e382981a2b0.16", "url": "https://lh3.googleusercontent.com/34u18hz0HTcKS96zAN4AWxYw-_fzSXI1YIzCbIoramUv1wkUX2jSsj2o8cjbH_hFdApVJbJ8hYmFBFKHfchPk4VgewI", "name": "Minneslund", "lat": 59.23528500000000, "lon": 18.18519700000000, "bs": 92, "bc": 2, "rs": 354, "rc": 2, "ys": 267, "yc": 1},{"id": "c6e05e02159a46dcb8df0c70f325410d.16", "url": "https://lh3.googleusercontent.com/krxSlffkHfnzg5JlOiJNdLreJ1Q_jiYg3HV8hk-tGFzaj_rKVJstqjyXRSkcfE7cVofuATH7uTr68JQD3xCcFTFiJq8j", "name": "Frihetens Port", "lat": 59.32203700000000, "lon": 18.13347700000000, "bs": 150, "bc": 5, "rs": 64, "rc": 5, "ys": 29, "yc": 2},{"id": "cdc8cf66cb5f4738a3c7dd3b4c30af30.16", "url": "http://lh3.googleusercontent.com/7Xx0cIAko4_Bkm1deJAHg8gVZh2bjMBOVfUG12gtl_LlFjlB0AMo5-7yklfchz6Nw-H2jDsHQ21WEVtxMkuf5kph0xw", "name": "Ett Stort Mynt", "lat": 59.27098700000000, "lon": 17.88551900000000, "bs": 96, "bc": 8, "rs": 33, "rc": 5, "ys": 49, "yc": 7},{"id": "d47af58a1a11441f9b579b599c43a6bf.16", "url": "https://lh3.googleusercontent.com/aUyStNjdxU8O6Yyny14mZ_J56NmaZDxeuoHSMAZifkck4QMG_XRH35p8KcHCwCvVrskCiNZLrPbMab0fZ6OpitkYc0A", "name": "Gebers Totempåle", "lat": 59.24444800000000, "lon": 18.13714700000000, "bs": 0, "bc": 0, "rs": 1029, "rc": 1, "ys": 0, "yc": 0},{"id": "d824b3e21aa54484a9f7f23d27fe53ce.16", "url": "https://lh3.googleusercontent.com/-CKJu1qQ3CLvIRZAtc1l4w5GVgBXP3RCk8AkeTrryfW6rWKIJRySnmIR7T4-0MPZF5U5CxE-Jg3sM0-9bgTmkiox0iLj1xkQNgq6gMbb", "name": "Ekelunds Torp", "lat": 59.29236100000000, "lon": 17.90795600000000, "bs": 385, "bc": 2, "rs": 19, "rc": 2, "ys": 41, "yc": 3},{"id": "e46aa3e11c394acf81f852ded43b5dd1.11", "url": "https://lh3.googleusercontent.com/D5ac7cO9QRXlDZ1RY2OUDaekztUJm8-HwUV3sUt7U6s1t4Hi58_yNZuExQwd_XG6U5PdP5k72TZhEx844lbWxWsWG1o", "name": "Solvalla Radartorn", "lat": 59.36340000000000, "lon": 17.93775200000000, "bs": 1012, "bc": 1, "rs": 0, "rc": 0, "ys": 142, "yc": 1},{"id": "e5ecf7cf594e40ab9210cddb16bf7dbc.16", "url": "http://lh3.googleusercontent.com/FWbdXtSRU9_fA28SNJzYlg2FzTggjWiI48H2A-YR2mshs9heL-t50cJA-Wy6dnSuVKhG2zC-BIAq9ADM1wVOAhmG3jU", "name": "Playground at Varpholmsgränd", "lat": 59.28015500000000, "lon": 17.89643100000000, "bs": 70, "bc": 9, "rs": 32, "rc": 9, "ys": 27, "yc": 8},{"id": "e6ffc166ba67417db27ed47ea31beef5.16", "url": "https://lh3.googleusercontent.com/J1d4F-0KuquZVBJ2fAyMK4DgYsRbayKafURRjg_B8zgdzpe8_nzf743dV5yYCLlqdi-It4aAaWyff5McAn1ZeK_VCEo", "name": "Padelverket", "lat": 59.27280500000000, "lon": 18.00438200000000, "bs": 87, "bc": 7, "rs": 85, "rc": 5, "ys": 40, "yc": 6},{"id": "e9d3330f7c0c4335b80655085c1ec661.16", "url": "https://lh3.googleusercontent.com/z9bcz5jWOPRi7OHzC7IJgiNWiQgkHwzOAGav7QTQVD7A4NjXLgpkrbWWdq68r9cX4p-6TnLmjbF8Z6Xk_WI1xTtMyK8", "name": "Den Blå Älgen", "lat": 59.37135000000000, "lon": 17.83975400000000, "bs": 95, "bc": 12, "rs": 12, "rc": 6, "ys": 5, "yc": 6},{"id": "f33c5b1ecd0f33ac80db47bbd613cfe4.16", "url": "https://lh3.googleusercontent.com/PJxcpd1_q0umzUuKDvtTHmDnULLtDfR2em7fOvNBrrIw8nRCsDyzwjuv4oLXQtHB3LfrBwt9rlSi621UYXyngeyJrmmc", "name": "Lambarö lastbrygga", "lat": 59.36597700000000, "lon": 17.81311200000000, "bs": 205, "bc": 5, "rs": 25, "rc": 3, "ys": 60, "yc": 3},{"id": "f5be0b4c56554ab2ac4ac07e139133b3.16", "url": "https://lh3.googleusercontent.com/65wnT8PJUJZe5U3ZAkl4xJ12XM1cAI6u7g1kt3nq1stNSKwbFEhzemWZra_vSs5v_6i7R2_5Kx65eDtLdZNZLhtwFGw", "name": "Johannesdals Gård", "lat": 59.27841100000000, "lon": 17.87351100000000, "bs": 188, "bc": 5, "rs": 51, "rc": 2, "ys": 57, "yc": 4},{"id": "fbc7d1f91b7244c8aee0a9e921c91819.16", "url": "https://lh3.googleusercontent.com/4reAOMM8mjfb_L-t6hFFd3n0v6vAXqsD4_OfQgj24gRYXmdegYij5rYWacr2SKL8y2mBK061JU4JJWI85A59asN9z54", "name": "Runstenen i Eneby", "lat": 59.35928000000000, "lon": 17.91240800000000, "bs": 108, "bc": 7, "rs": 63, "rc": 6, "ys": 59, "yc": 2}]
