[{"id": "03a8d0f6820c45a799f30353121201b7.16", "url": "https://lh3.googleusercontent.com/yFVM9r-hjRHQcoLw3IwujKXZTOkuvQrd5oNNEuh2AR7VLatYsKY_fqGOfjwUNeiMcTRZ3A7zANowhHqb05QVkpeRKPA", "name": "Boplats Vid Ängen", "lat": 59.24429800000000, "lon": 18.14186400000000},{"id": "07bc172c8ca04496aaad629d6b429963.16", "url": "http://lh3.googleusercontent.com/TS_EPheUYi4qenMi0MpQg_us6xlpO01xY3u1Z_cQWz5-dJ_MOUrkx1r8JLmkzyf4nnj_ibiwY6LWxHXgskXMue5JM7w", "name": "Enskede Gårds Koloniträdgårdar", "lat": 59.28959200000000, "lon": 18.06462900000000},{"id": "09e21b7317604bdcb9840cfcf02767be.16", "url": "https://lh3.googleusercontent.com/qo_0GTkMNvCCw92-w-H7m0V8ZZlXOYezxtCpxHy8yYMREbc5Q-RhNojFLHXrFwhieWpEFBby0hB4q1uM7io1kCmKEkWo", "name": "Varning för stora barn", "lat": 59.30292400000000, "lon": 18.09168700000000},{"id": "0efb8f282d8e4dff9c23445828520bf5.16", "url": "https://lh3.googleusercontent.com/8FhsDREJBnL6Y4GCD88Eo4sUMVrkTmfA-bT6-oNdDzOVbk970BIsVWbR9vvVRs6jQ3puGAT6bTFS-w2UDM4bOqei2cU", "name": "Stegrande Häst", "lat": 59.38181200000000, "lon": 17.81071600000000},{"id": "107ceeef083146b09c773ff7c413e782.16", "url": "https://lh3.googleusercontent.com/YDitM8kGt3eXgVh_0JK_RlE3qhQ6aw9Y1tZ3rwtiUjiFwvmOxc0m2NKqWaIy-iMDSKk-6j2Vhjw7cuOWMxdOtFSqRMp5", "name": "Rinkerhövdingen", "lat": 59.38452500000000, "lon": 17.93146200000000},{"id": "2457be009ae2457cab42693e96a150a6.16", "url": "http://lh3.googleusercontent.com/EwJJMJQGcbx6eHtQLxxbOdEdJmLuhHUmD5NAfn-LgVX1cYph2p_2UKZjAjUI2RdkdfUFkohaCWk0UR2qPgVW8Dhfhn4", "name": "Lekplats Ekebergabacken", "lat": 59.24974600000000, "lon": 18.10285700000000},{"id": "375fe272cc02447e86b613dbed0bb375.16", "url": "http://lh3.googleusercontent.com/Yu-AAAi8gHHIk6lyZ3zgfUfeWgwW_-RacdTalPnBoheIDZ1-m6PQSeA9-o4e8GJC57XJXnJxvtoJihbIgH3TEpmnlCE", "name": "Klätterställningen i Önskeringen", "lat": 59.26413800000000, "lon": 18.03722200000000},{"id": "4d4613ec6a01469ca19e9046df56519c.16", "url": "https://lh3.googleusercontent.com/BQloytZKZOWhHrRKzfui45HPIl8hHfJULXwjigUMjKXJfmMohcJmTbgO1OV9_ElhF6_B5BvFLvi3tICmV7JApXQ5M1E", "name": "Lekplats Grimstagatan 106", "lat": 59.35610000000000, "lon": 17.87386300000000},{"id": "527c4ae06d95464ba13e7eb9352e3656.16", "url": "https://lh3.googleusercontent.com/k0sHExgYUsGUzaBloK1-Gxp7Yqpv74riJWIsbbI_Ks9H398jAJkSUEoI5ID-9fPYdxj_TS77kHlv-aKG5YxukrsW6O4", "name": "Solbergaskogens utegym", "lat": 59.28540300000000, "lon": 18.00586000000000},{"id": "5c74f18e34d534a48a0dbda1fac2272f.16", "url": "https://lh3.googleusercontent.com/ORURtJa_fLxvRytuxKIxZBZNFLeqgh-PH3DZrE27J-gUSMqiflfqfFBPBjSixMG_fe30iwOtpl-D2PSiouXU5R1zIjZJHbed4F_3LLGT", "name": "Hundrastgården", "lat": 59.23495300000000, "lon": 18.11512100000000},{"id": "5cf2bb1ae6e545ba9b033a4928a90948.16", "url": "http://lh3.googleusercontent.com/bYS2e_uF3Incs4qoBjzLseqdssL2xPlTn32c0nCzfSX1UpL3jLMZ5RrA0wzLkTd0uEc0-YUomZaE111TSHCBF7NIjw", "name": "Old Skijump Tower", "lat": 59.35894000000000, "lon": 18.07629000000000},{"id": "6b937189075c4e92ae4d1338fa44cf7d.16", "url": "https://lh3.googleusercontent.com/-Ew7TwtESpSfZ82oMbJt-0bra-ectFWmUMJnWj0ySJG7AMNqENWgf51YRpUNcXtdU8XcQ055sankp5UVt5Zn9I87uro", "name": "Hästhagens Bollplan", "lat": 59.24211900000000, "lon": 18.10101700000000},{"id": "6dd878c0d987408aa406496815f23937.16", "url": "https://lh3.googleusercontent.com/uUpuHTOv5zPrNCGN_NOb4_pWGvUjdicna3XvT5l8TrcMATTEJ9pE0j5XErzkhOv3Yf5U6RBonioaWt1dtGBvPYb9nP8", "name": "Pelare", "lat": 59.36498000000000, "lon": 18.05863800000000},{"id": "7779d2075a3940d6a54bb04a7ba24309.16", "url": "https://lh3.googleusercontent.com/kBsWvQQFBYvlpXHglQ8ktGZ_J5DFwbf4Adl-jluX4ZmWWpYs7M62_mNutv0O_x1lHOWBggvByHAkR44WpE_wbfHhi84", "name": "Den två ögda statyn", "lat": 59.34655400000000, "lon": 18.09286800000000},{"id": "7ec01f8f8e4f4d8ea54c7d3dd617c8e9.16", "url": "https://lh3.googleusercontent.com/uZpzgWQcuDMw-Ujnu0kHjKRdn7w4ZhwNkBiidHheDhkwU64XB9Pc1q4Q79WjpiFdAsuYUCDpDWWcQ_U0SGBt8cNhiNM", "name": "Spottkoppen", "lat": 59.33024200000000, "lon": 18.05812200000000},{"id": "826b4be8272445db83150472d43aab34.11", "url": "https://lh3.googleusercontent.com/3-lZoWhNKxBDIgnJU4520yRFoFdjv_w0tvCmoZ0rapm_1qs1KHHZUFVrcr3fGUX591S4b4ojU6XZlq6srT_hqIkH0A", "name": "Mer än bara vänner", "lat": 59.30294600000000, "lon": 18.09273800000000},{"id": "91f41faf81754b4f9498c9e66df76595.16", "url": "https://lh3.googleusercontent.com/_8UxyNMSX8gbCXDkJvCA0sUf7PleFPiRntslTiFTc0c6siNEQnt3dAh8H7yuCKS5Erpp7bNb8mnHBDE4ATocOfJQ9w", "name": "Oxberget", "lat": 59.36195800000000, "lon": 18.09561300000000},{"id": "9a20371a565a4bb094801fc28e6cf282.16", "url": "https://lh3.googleusercontent.com/BCiH5bEkvi8Yeh3Gd5y5I2L5zfjWZnfFhEvKywHXGm2kNWou_OWCepEdBZ0tg37QauzmEG1HdujjHDnaRoY_SDbGy0dR", "name": "Gravfält, Stensträng Och Skålgropssten", "lat": 59.43589700000000, "lon": 17.90423700000000},{"id": "9a7e171db3564cf7802ac8c728c4b98c.16", "url": "https://lh3.googleusercontent.com/jT_xZ2EI0z-O4JYkFymJ5Ut-Z5zZCzAF03XQyI_IvBOyh69IOPuqRBJVI0LXsEjbd5HHDstLN1VD5HLxhBwUFVcv3g", "name": "Postiljonen", "lat": 59.24213700000000, "lon": 18.09149000000000},{"id": "a5237d85a0a94c16bb868276b4dbb4e0.16", "url": "https://lh3.googleusercontent.com/PR73WxM7MQm5_cO7rYV-AFO82CDseOfiIfocGnbLkJFYD6rHo0q2oG7WvGIzX28-ijJrB6IP_1dww9-VnhUoTgPY_coM", "name": "Klätterkanan", "lat": 59.29484400000000, "lon": 17.99729800000000},{"id": "abb64e43277540d5bb37a67ad7170ed1.16", "url": "https://lh3.googleusercontent.com/AMXuT-7QAn7WIjYblRPl_laahJUopsDiVY9y9lyx91bppz4Pm3GKevdb0-lpnA7rmwLX5V1Fx5G39wg8H6doCUfeIN0", "name": "Paviljongen University", "lat": 59.36499200000000, "lon": 18.06003300000000},{"id": "b7ce70cbf1774e2495a6f7172fed22bb.16", "url": "https://lh3.googleusercontent.com/fBLh0YPjpXi5n-fM7ckQAx_52m0qxBQnxnVZA5Mwvf3gj552PGoPQOeEu0_s36vsrP9zBw7TRkyNiLrFVo5G7kYU8dM", "name": "Bruna lekplatsen", "lat": 59.28357200000000, "lon": 18.04761500000000},{"id": "bcba9c919cc44e28bfc9f3e087fee4d7.16", "url": "https://lh3.googleusercontent.com/241Rxj3R0yvqf04Qw9W-yFT-Mgf8HDFRRTtgIGzX7A4di94bbH8rRQTsmBFZbYr8XhreIymnn3Z2u8vD2u7uTNdaVw", "name": "Önskeringens Parklek", "lat": 59.26351700000000, "lon": 18.03730700000000},{"id": "c0fed2ce2e41407786361b702961796b.16", "url": "http://lh3.googleusercontent.com/94FYAibAcLrCx7ElGeckjvT3olh5a54Ul3gAMIFglV3z20cgX9U6OAGpkioOK-GvOBnHJ9H2x-CKSoExX4eYeIEQn-M1", "name": "Lekplats Nordmarksvägen 70", "lat": 59.23424400000000, "lon": 18.10846700000000},{"id": "d2af40f1852640d0b40d036b064ff8e7.16", "url": "https://lh3.googleusercontent.com/IoJKfWA1_WvOS2DKFPCxneGXyH8cRQv51hzstJ8WGzwjRPdI-AYgoMqugbSMJAekG71wgrRHMUE_Da-9UMUqktHgQmE", "name": "Vertical Landscape", "lat": 59.35591200000000, "lon": 18.08747800000000},{"id": "d39ccd7dcdc1494aa1cf5293c8b3a1de.16", "url": "https://lh3.googleusercontent.com/gaWDJhSgOGzzRWxfnPp86s8WzW0tE1_Pxfj6oxZi-3EQsoeZaRXf-wNAtLhDclr8hwey16-EWmNSR_BnK94Q7IzKKxE", "name": "Enskede Gård", "lat": 59.28849900000000, "lon": 18.06641900000000},{"id": "ddeb2ff3606a457aaa45a4cc94f295e4.11", "url": "http://lh3.googleusercontent.com/7omTAhSmck98Jdo8jb7HRRb8QfIOX5tfmslVOipVFWVCvf3RSIc91-m_NPuISz4E_tgPUUWJO5Si9fPhYTomIPSHayGo", "name": "Bromsten, Stockholm", "lat": 59.37863900000000, "lon": 17.91864400000000},{"id": "f0e051275b323734889e475122fa25ad.16", "url": "https://lh3.googleusercontent.com/uf5myNkSerfQc_kaGDsG1u9zkwexV0WDja6ZGtlwdDmu6TxeNz6-xr3OYz_vG9AnXP_7bxiLl_PZm7BnqGU0G-mfqZS4w5gnmt0BdQGt", "name": "Fotbollsplan", "lat": 59.38684800000000, "lon": 17.81123500000000},{"id": "f483077c2f75408eb482f0487a9c8c33.16", "url": "https://lh3.googleusercontent.com/qo6Lnb--OqI67dpk3hZwrTVE8dJajso0KU6X0epqyiFyxT2Tilhu9Fh95tnt3P_CMAUapNMaz8lDN2SXLGoeZ8RgcmID", "name": "Orionteatern", "lat": 59.30827300000000, "lon": 18.09003000000000},{"id": "f74d171bac56480a8105ecf5c6e39af7.16", "url": "https://lh3.googleusercontent.com/4FXTQa1ERskTODrFaNXh9A-xt7ccZmCcuPEjsZzAZlkt_SwEqK0h61EE6VtwkerIZG9FioqdTT2CkE0aCn9HxDveqAc", "name": "Idlångens Lekplats", "lat": 59.29251000000000, "lon": 18.05584500000000}]
