[{"id": "05a6dd2338d8424cb63af726329147dd.16", "url": "https://lh3.googleusercontent.com/q80PgeGuYejHG3RzqhyOC9-ok8jco_swIExCKLGTYMhppC8y5BTVxZI63L7uyF8xw97YOis2LiTQ3UqH1j-1eSfFRHU", "name": "Fladder", "lat": 59.27125300000000, "lon": 17.89694700000000, "bs": 81, "bc": 14, "rs": 31, "rc": 5, "ys": 23, "yc": 14},{"id": "0fede1fe97fa41b889f21865910bc213.16", "url": "http://lh3.googleusercontent.com/dkjF1BoU3_VmUOYFjFWkgulcCWuOakDIK_2BH2iB5aetFI3_sCzELBhRjrFYIpgRwZAGunNew6DDzegAR9NSAzxfCw", "name": "Varvsarbetarhuset", "lat": 59.29606100000000, "lon": 17.91073600000000, "bs": 94, "bc": 8, "rs": 74, "rc": 7, "ys": 46, "yc": 3},{"id": "1989f8e32a6941ebb09ef9604e92f174.16", "url": "https://lh3.googleusercontent.com/aZuVhYJlLmmrDJ-eHZA6pvPpFphhrEq3yVSmNHLq--eQi-VjrcSPUhm8Z3IUg9OpN0vsq3OIL1VI_TndSIysBpZAww", "name": "Venus Milo", "lat": 59.32267800000000, "lon": 18.14487100000000, "bs": 83, "bc": 12, "rs": 35, "rc": 10, "ys": 30, "yc": 6},{"id": "43db512fa8734a95b32c4c8a64e7e5a4.16", "url": "https://lh3.googleusercontent.com/S819Z4gMQeZ90yVCKy1XAao-SUFb4FLOqbZYZOSoI2tpbnaxl-pSAhbgNZCWBztElqxMH5GIodT59FXZQ1F-9qv2qaY", "name": "Old Windmill", "lat": 59.32000300000000, "lon": 18.11603900000000, "bs": 216, "bc": 5, "rs": 57, "rc": 3, "ys": 72, "yc": 5},{"id": "5cf2bb1ae6e545ba9b033a4928a90948.16", "url": "https://lh3.googleusercontent.com/bYS2e_uF3Incs4qoBjzLseqdssL2xPlTn32c0nCzfSX1UpL3jLMZ5RrA0wzLkTd0uEc0-YUomZaE111TSHCBF7NIjw", "name": "Old Skijump Tower", "lat": 59.35894000000000, "lon": 18.07629000000000, "bs": 272, "bc": 1, "rs": 156, "rc": 3, "ys": 298, "yc": 3},{"id": "5d730e09a8f041148e6b47ccda6b78b4.16", "url": "https://lh3.googleusercontent.com/8_QrNay6djGmwF_ayIYgrefeH8yBeHBIGE-diD3e77Z7uHxERFrGYd9OxIeSequbcazC3hsD9eI2tKoMEwIjox-WWQ", "name": "Herakles", "lat": 59.32041900000000, "lon": 18.11380500000000, "bs": 73, "bc": 14, "rs": 34, "rc": 8, "ys": 26, "yc": 11},{"id": "886d889ab08944368fc68d2e73d6050a.16", "url": "https://lh3.googleusercontent.com/NIOyLXPiWlXR4AbJTr984ZSQZl2gLXT9zMtflR-MafPv-pIAcr6PYfaYViaw3IoLhmOItoKpCdgphETft8Q0X3COSA", "name": "S채tra Reservoaren", "lat": 59.28951200000000, "lon": 17.90532200000000, "bs": 297, "bc": 5, "rs": 21, "rc": 5, "ys": 0, "yc": 0},{"id": "926a91b25a383c2d93a1c7daa32a1002.16", "url": "https://lh3.googleusercontent.com/zyNpYGcPD5hZRWBZDyrimNA_bjUbcUIUVKGYLyXmlxtNp2dX8eAx50QhrH_Y3PDKMA1GgvFUL_B-tYNQCMwmJ7tI3qlMqnatwONsHCQy", "name": "Lilla Skuggan", "lat": 59.36704300000000, "lon": 18.08932900000000, "bs": 101, "bc": 6, "rs": 62, "rc": 7, "ys": 0, "yc": 0},{"id": "96d2f00553774372ac2e741fb536759b.16", "url": "https://lh3.googleusercontent.com/FVavZ3PsCHtvSZGX1eRee3WXVY-RGrzvztk3HCUKPVliB0Yev6KEcNo6fGzTUIcVwGTmXSTsTplQRBK-1Es16CXMdN9w", "name": "Tusculum", "lat": 59.28301400000000, "lon": 17.88327400000000, "bs": 912, "bc": 1, "rs": 198, "rc": 2, "ys": 19, "yc": 2},{"id": "b7e99fb3c56a36429a24ee44e39b0b63.16", "url": "https://lh3.googleusercontent.com/OKPz8pUGERQYmGyS-_vRWLJXUCCx0AZFIuEm_7Gx6wu0LtOT-zxGzZd9EYe3OIvZC8FvY2eoEJEhVtNzEQ69nDtXryGmkumtzaridC0", "name": "Lekparken i skrubba koloniomr책de", "lat": 59.24370500000000, "lon": 18.17930700000000, "bs": 97, "bc": 6, "rs": 71, "rc": 5, "ys": 35, "yc": 3},{"id": "c25a88bab36b467faeca9e382981a2b0.16", "url": "https://lh3.googleusercontent.com/34u18hz0HTcKS96zAN4AWxYw-_fzSXI1YIzCbIoramUv1wkUX2jSsj2o8cjbH_hFdApVJbJ8hYmFBFKHfchPk4VgewI", "name": "Minneslund", "lat": 59.23528500000000, "lon": 18.18519700000000, "bs": 178, "bc": 3, "rs": 354, "rc": 2, "ys": 184, "yc": 2},{"id": "c6e05e02159a46dcb8df0c70f325410d.16", "url": "https://lh3.googleusercontent.com/krxSlffkHfnzg5JlOiJNdLreJ1Q_jiYg3HV8hk-tGFzaj_rKVJstqjyXRSkcfE7cVofuATH7uTr68JQD3xCcFTFiJq8j", "name": "Frihetens Port", "lat": 59.32203700000000, "lon": 18.13347700000000, "bs": 157, "bc": 6, "rs": 64, "rc": 5, "ys": 24, "yc": 3},{"id": "d824b3e21aa54484a9f7f23d27fe53ce.16", "url": "https://lh3.googleusercontent.com/-CKJu1qQ3CLvIRZAtc1l4w5GVgBXP3RCk8AkeTrryfW6rWKIJRySnmIR7T4-0MPZF5U5CxE-Jg3sM0-9bgTmkiox0iLj1xkQNgq6gMbb", "name": "Ekelunds Torp", "lat": 59.29236100000000, "lon": 17.90795600000000, "bs": 325, "bc": 3, "rs": 19, "rc": 2, "ys": 43, "yc": 4},{"id": "e46aa3e11c394acf81f852ded43b5dd1.11", "url": "https://lh3.googleusercontent.com/D5ac7cO9QRXlDZ1RY2OUDaekztUJm8-HwUV3sUt7U6s1t4Hi58_yNZuExQwd_XG6U5PdP5k72TZhEx844lbWxWsWG1o", "name": "Solvalla Radartorn", "lat": 59.36340000000000, "lon": 17.93775200000000, "bs": 649, "bc": 2, "rs": 71, "rc": 1, "ys": 75, "yc": 2},{"id": "e5ecf7cf594e40ab9210cddb16bf7dbc.16", "url": "http://lh3.googleusercontent.com/FWbdXtSRU9_fA28SNJzYlg2FzTggjWiI48H2A-YR2mshs9heL-t50cJA-Wy6dnSuVKhG2zC-BIAq9ADM1wVOAhmG3jU", "name": "Playground at Varpholmsgr채nd", "lat": 59.28015500000000, "lon": 17.89643100000000, "bs": 75, "bc": 13, "rs": 27, "rc": 12, "ys": 26, "yc": 9},{"id": "f4870a3dd0a54ba289a14f209d339d1a.16", "url": "https://lh3.googleusercontent.com/PiWv91n1pPJ-btb9VLDAbVPwUTxk9SJpyu0ic-1k61aKA26xJn5X0Usi6WIgU_ES9PpuLcDN99AmOuC1pJ8XDwUiY6w", "name": "Storholms Lekplats", "lat": 59.27320100000000, "lon": 17.89133200000000, "bs": 88, "bc": 15, "rs": 18, "rc": 14, "ys": 6, "yc": 3},{"id": "f5be0b4c56554ab2ac4ac07e139133b3.16", "url": "https://lh3.googleusercontent.com/65wnT8PJUJZe5U3ZAkl4xJ12XM1cAI6u7g1kt3nq1stNSKwbFEhzemWZra_vSs5v_6i7R2_5Kx65eDtLdZNZLhtwFGw", "name": "Johannesdals G책rd", "lat": 59.27841100000000, "lon": 17.87351100000000, "bs": 154, "bc": 7, "rs": 70, "rc": 4, "ys": 57, "yc": 4}]
