[{"id": "1215706953724014aa9813eb58d8854c.16", "url": "https://lh3.googleusercontent.com/1YkYu_BaJ_w4fNSdeedOCFXPNHvgzkQ1_5pgIG5lF1TclNDJANhUn40xMHGnSFRxCit-t6o5Bfuzm7MZrnuz1Eymwg", "name": "Långsätrastugan, scouts & orientering", "lat": 59.28768100000000, "lon": 17.90750100000000, "bs": 79, "bc": 10, "rs": 38, "rc": 11, "ys": 16, "yc": 3},{"id": "38a7e51cc6ba4cd883c56e3805b8b90e.16", "url": "https://lh3.googleusercontent.com/TFol29rwpGLeBqY8ZjYxCn7s1-_hsMG4CIcx4Gf9hXrR55a3bXcnXDtg8yttejtGRYlVxZ6wnRNPue4PJ7TqfTP31Ok", "name": "Vattentorn vid Fagersjötoppen", "lat": 59.25370000000000, "lon": 18.06341300000000, "bs": 638, "bc": 1, "rs": 241, "rc": 1, "ys": 91, "yc": 2},{"id": "3be79c649e403e85ae632254882ed9f2.16", "url": "https://lh3.googleusercontent.com/-9blLOmCEA6gYNB2K323ZFi4j9-_8DrBfn_oIbpZN9thGhUYJeFvpDuXN0CUUheHJlfTbysaD3wnjYxOBUGeFXyqQWGk0tksLNG6JVYh", "name": "Sätra varv", "lat": 59.29603600000000, "lon": 17.90836800000000, "bs": 0, "bc": 0, "rs": 0, "rc": 0, "ys": 0, "yc": 0},{"id": "5cf2bb1ae6e545ba9b033a4928a90948.16", "url": "http://lh3.googleusercontent.com/bYS2e_uF3Incs4qoBjzLseqdssL2xPlTn32c0nCzfSX1UpL3jLMZ5RrA0wzLkTd0uEc0-YUomZaE111TSHCBF7NIjw", "name": "Old Skijump Tower", "lat": 59.35894000000000, "lon": 18.07629000000000, "bs": 0, "bc": 0, "rs": 156, "rc": 3, "ys": 377, "yc": 2},{"id": "709c0719e9d7465abaebf5c2d0f941da.16", "url": "https://lh3.googleusercontent.com/1mbxgWxETgV5Tjj7kPs85-qcpUsg0rD7fLZqZNhJVfSeVnVj9ru-e6u5OmnxpNW-_R4i3ssvFu8E1K_1PGAC_DbFuwQ", "name": "Thielska Galleriet", "lat": 59.32179900000000, "lon": 18.14810700000000, "bs": 107, "bc": 7, "rs": 18, "rc": 5, "ys": 62, "yc": 4},{"id": "77054e0c79a631519508f01834fc5934.16", "url": "https://lh3.googleusercontent.com/gQTtdxkV3BP48iI6Iz1WccVlBXP0hDFpZZu0keRhg-YxP3hUYRKQFdnDIuVz-4oYgOi4BmnxoT__5G1MZwYWVhGUoro4zN6fvOit1Z4J", "name": "Bromsten sport field", "lat": 59.38033400000000, "lon": 17.92779800000000, "bs": 83, "bc": 7, "rs": 65, "rc": 4, "ys": 106, "yc": 3},{"id": "789db356a9ba4949b406e0631777e5ca.16", "url": "https://lh3.googleusercontent.com/R4x-gS4U-k3gRuyF-mNIOGQXa1wD-XZq63c1VI-pgcG57vhogd9NJgtqo2lpqDF3WPKC1qoTZ_UNE0P8XbmW-4GzFtM", "name": "Gungor och klättertorn", "lat": 59.37795000000000, "lon": 17.86850200000000, "bs": 86, "bc": 14, "rs": 5, "rc": 11, "ys": 5, "yc": 3},{"id": "886d889ab08944368fc68d2e73d6050a.16", "url": "https://lh3.googleusercontent.com/NIOyLXPiWlXR4AbJTr984ZSQZl2gLXT9zMtflR-MafPv-pIAcr6PYfaYViaw3IoLhmOItoKpCdgphETft8Q0X3COSA", "name": "Sätra Reservoaren", "lat": 59.28951200000000, "lon": 17.90532200000000, "bs": 377, "bc": 2, "rs": 31, "rc": 3, "ys": 0, "yc": 0},{"id": "ac9ba5a8b42648d7888c66b708c89a75.16", "url": "https://lh3.googleusercontent.com/8dLCViM06l7RQ9TRkUud5IKlWT-AQjbFwijKxEffMnoB3n15q-rgT4PTj-_70JIlTu5dD_pb06VD6M4Es6eGzbFljYlq", "name": "Yxmannen", "lat": 59.32276700000000, "lon": 18.15534000000000, "bs": 88, "bc": 8, "rs": 20, "rc": 9, "ys": 59, "yc": 7},{"id": "cdc8cf66cb5f4738a3c7dd3b4c30af30.16", "url": "http://lh3.googleusercontent.com/7Xx0cIAko4_Bkm1deJAHg8gVZh2bjMBOVfUG12gtl_LlFjlB0AMo5-7yklfchz6Nw-H2jDsHQ21WEVtxMkuf5kph0xw", "name": "Ett Stort Mynt", "lat": 59.27098700000000, "lon": 17.88551900000000, "bs": 96, "bc": 8, "rs": 33, "rc": 5, "ys": 49, "yc": 7},{"id": "d47af58a1a11441f9b579b599c43a6bf.16", "url": "https://lh3.googleusercontent.com/aUyStNjdxU8O6Yyny14mZ_J56NmaZDxeuoHSMAZifkck4QMG_XRH35p8KcHCwCvVrskCiNZLrPbMab0fZ6OpitkYc0A", "name": "Gebers Totempåle", "lat": 59.24444800000000, "lon": 18.13714700000000, "bs": 0, "bc": 0, "rs": 1029, "rc": 1, "ys": 0, "yc": 0},{"id": "d824b3e21aa54484a9f7f23d27fe53ce.16", "url": "https://lh3.googleusercontent.com/-CKJu1qQ3CLvIRZAtc1l4w5GVgBXP3RCk8AkeTrryfW6rWKIJRySnmIR7T4-0MPZF5U5CxE-Jg3sM0-9bgTmkiox0iLj1xkQNgq6gMbb", "name": "Ekelunds Torp", "lat": 59.29236100000000, "lon": 17.90795600000000, "bs": 385, "bc": 2, "rs": 19, "rc": 2, "ys": 41, "yc": 3},{"id": "e9d3330f7c0c4335b80655085c1ec661.16", "url": "https://lh3.googleusercontent.com/z9bcz5jWOPRi7OHzC7IJgiNWiQgkHwzOAGav7QTQVD7A4NjXLgpkrbWWdq68r9cX4p-6TnLmjbF8Z6Xk_WI1xTtMyK8", "name": "Den Blå Älgen", "lat": 59.37135000000000, "lon": 17.83975400000000, "bs": 95, "bc": 12, "rs": 12, "rc": 6, "ys": 5, "yc": 6},{"id": "f33c5b1ecd0f33ac80db47bbd613cfe4.16", "url": "https://lh3.googleusercontent.com/PJxcpd1_q0umzUuKDvtTHmDnULLtDfR2em7fOvNBrrIw8nRCsDyzwjuv4oLXQtHB3LfrBwt9rlSi621UYXyngeyJrmmc", "name": "Lambarö lastbrygga", "lat": 59.36597700000000, "lon": 17.81311200000000, "bs": 205, "bc": 5, "rs": 25, "rc": 3, "ys": 60, "yc": 3},{"id": "fbc7d1f91b7244c8aee0a9e921c91819.16", "url": "https://lh3.googleusercontent.com/4reAOMM8mjfb_L-t6hFFd3n0v6vAXqsD4_OfQgj24gRYXmdegYij5rYWacr2SKL8y2mBK061JU4JJWI85A59asN9z54", "name": "Runstenen i Eneby", "lat": 59.35928000000000, "lon": 17.91240800000000, "bs": 108, "bc": 7, "rs": 63, "rc": 6, "ys": 59, "yc": 2}]
