[{"id": "03f1c8d21d51452482d03a4b01834ee8.16", "url": "https://lh3.googleusercontent.com/eGLAUZ0pUvlTQ8iFH1bO_aVcfuE5iCxzgZpf_gvie2BkAGi5Zb9I3K7ej18QPdhD8G6BmaAGBwD_mI3fkeGktDimiI8", "name": "Gravfältet Vid Glia", "lat": 59.35010500000000, "lon": 17.93723800000000, "bs": 101, "bc": 6, "rs": 60, "rc": 3, "ys": 66, "yc": 7},{"id": "05a6dd2338d8424cb63af726329147dd.16", "url": "https://lh3.googleusercontent.com/q80PgeGuYejHG3RzqhyOC9-ok8jco_swIExCKLGTYMhppC8y5BTVxZI63L7uyF8xw97YOis2LiTQ3UqH1j-1eSfFRHU", "name": "Fladder", "lat": 59.27125300000000, "lon": 17.89694700000000, "bs": 78, "bc": 11, "rs": 33, "rc": 4, "ys": 26, "yc": 11},{"id": "0856d78c0ce04c2b93eeba8bb3f29861.16", "url": "https://lh3.googleusercontent.com/ec2M88rCbRzvWB0EWuBfxnUqb48CJwhLiXTK-RPo21fuPm1MTIu2QWHCt6qBPYmK8hJAQ2uH7xSvEmRdiwRssL7B3w", "name": "Växternas Invandring", "lat": 59.33629200000000, "lon": 17.91454800000000, "bs": 72, "bc": 11, "rs": 9, "rc": 7, "ys": 63, "yc": 6},{"id": "0fede1fe97fa41b889f21865910bc213.16", "url": "http://lh3.googleusercontent.com/dkjF1BoU3_VmUOYFjFWkgulcCWuOakDIK_2BH2iB5aetFI3_sCzELBhRjrFYIpgRwZAGunNew6DDzegAR9NSAzxfCw", "name": "Varvsarbetarhuset", "lat": 59.29606100000000, "lon": 17.91073600000000, "bs": 86, "bc": 7, "rs": 73, "rc": 6, "ys": 46, "yc": 3},{"id": "1215706953724014aa9813eb58d8854c.16", "url": "https://lh3.googleusercontent.com/1YkYu_BaJ_w4fNSdeedOCFXPNHvgzkQ1_5pgIG5lF1TclNDJANhUn40xMHGnSFRxCit-t6o5Bfuzm7MZrnuz1Eymwg", "name": "Långsätrastugan, scouts & orientering", "lat": 59.28768100000000, "lon": 17.90750100000000, "bs": 79, "bc": 10, "rs": 38, "rc": 11, "ys": 16, "yc": 3},{"id": "1ea641a2a548463fb424a005cf82686d.16", "url": "https://lh3.googleusercontent.com/tDi56_iu6sOyN3GBfRT47LiVqxoxeQk3RM3DOW1VewniLXgIvaeZTXMsv-tK0e2-EYTtQHVN_21_njoeFhLbQk5Wv4M", "name": "Bahnhof Mobile Server Hall", "lat": 59.40973600000000, "lon": 17.95283700000000, "bs": 239, "bc": 5, "rs": 25, "rc": 3, "ys": 35, "yc": 2},{"id": "29ce21c928ae4958960028a23491c1b5.16", "url": "https://lh3.googleusercontent.com/eI9GkVuHMVWpcbBRmiFM4t6nuotMIRF34KL8xDdzlxBoCBPx43MOococL6C0vC_bDGAZqeCpKZkJkLO2iv8obOQhxQc", "name": "Gravfält Flysta", "lat": 59.36499000000000, "lon": 17.90753600000000, "bs": 104, "bc": 9, "rs": 31, "rc": 4, "ys": 29, "yc": 9},{"id": "382ef5a4d7c642e78e499ddd6f8dabf0.16", "url": "https://lh3.googleusercontent.com/6h6uqkDy5nxdccg5iM0ceEK2uNBGiOmVXwwGXUfn7uXZvm5lXGZiCElvQRnlIekakDyyl7sE_q4xNnCpiL9fBjmsmtQ", "name": "Wooden Horses", "lat": 59.40845300000000, "lon": 17.89812700000000, "bs": 143, "bc": 6, "rs": 60, "rc": 4, "ys": 46, "yc": 3},{"id": "38a7e51cc6ba4cd883c56e3805b8b90e.16", "url": "https://lh3.googleusercontent.com/TFol29rwpGLeBqY8ZjYxCn7s1-_hsMG4CIcx4Gf9hXrR55a3bXcnXDtg8yttejtGRYlVxZ6wnRNPue4PJ7TqfTP31Ok", "name": "Vattentorn vid Fagersjötoppen", "lat": 59.25370000000000, "lon": 18.06341300000000, "bs": 638, "bc": 1, "rs": 241, "rc": 1, "ys": 91, "yc": 2},{"id": "3be79c649e403e85ae632254882ed9f2.16", "url": "https://lh3.googleusercontent.com/-9blLOmCEA6gYNB2K323ZFi4j9-_8DrBfn_oIbpZN9thGhUYJeFvpDuXN0CUUheHJlfTbysaD3wnjYxOBUGeFXyqQWGk0tksLNG6JVYh", "name": "Sätra varv", "lat": 59.29603600000000, "lon": 17.90836800000000, "bs": 0, "bc": 0, "rs": 0, "rc": 0, "ys": 0, "yc": 0},{"id": "52142b74149247a9ac1060049282c63a.16", "url": "https://lh3.googleusercontent.com/iNN5CD9irWeVfTtlHC0WU7OmS65oDWPICWRyx88My74aoF3zlO_6j7lWEysToqA5T68cMKLqT5gD_N4HjdMoEN-Pvf0", "name": "Ekhagens Bollplan", "lat": 59.37050400000000, "lon": 18.05553000000000, "bs": 79, "bc": 11, "rs": 33, "rc": 5, "ys": 31, "yc": 9},{"id": "5b3db887f8064b7281d0cff36326bfb3.16", "url": "https://lh3.googleusercontent.com/yBPaqlgzrx0cK4T0Cxw4N6e1k_fk7w_5bMPdao22Fs8Q-TN6jX86wJrZDnts5YUMLD2VFoK7pqMwfWt1qGhnifkjOmXD", "name": "Skärholmens Gårds fontänstaty", "lat": 59.28334000000000, "lon": 17.88904900000000, "bs": 91, "bc": 10, "rs": 36, "rc": 9, "ys": 5, "yc": 3},{"id": "5cf2bb1ae6e545ba9b033a4928a90948.16", "url": "http://lh3.googleusercontent.com/bYS2e_uF3Incs4qoBjzLseqdssL2xPlTn32c0nCzfSX1UpL3jLMZ5RrA0wzLkTd0uEc0-YUomZaE111TSHCBF7NIjw", "name": "Old Skijump Tower", "lat": 59.35894000000000, "lon": 18.07629000000000, "bs": 0, "bc": 0, "rs": 156, "rc": 3, "ys": 377, "yc": 2},{"id": "747b5d6ef8ea34d09ac8ab6fbd8355b0.16", "url": "https://lh3.googleusercontent.com/zJpe024yeRhW7ag4edUC1Vu5YQulcYdw-kwVgSPNaM7q-WPz6dNhStPNmDULdy5qmZGJmQVgG5Dzg46hUjvq2JV4tPKKSSHDuVkHrSpr", "name": "Vägvisare Drevvikens Strandstig", "lat": 59.24046300000000, "lon": 18.15304700000000, "bs": 140, "bc": 1, "rs": 46, "rc": 1, "ys": 362, "yc": 3},{"id": "77054e0c79a631519508f01834fc5934.16", "url": "https://lh3.googleusercontent.com/gQTtdxkV3BP48iI6Iz1WccVlBXP0hDFpZZu0keRhg-YxP3hUYRKQFdnDIuVz-4oYgOi4BmnxoT__5G1MZwYWVhGUoro4zN6fvOit1Z4J", "name": "Bromsten sport field", "lat": 59.38033400000000, "lon": 17.92779800000000, "bs": 83, "bc": 7, "rs": 65, "rc": 4, "ys": 106, "yc": 3},{"id": "7cc3a1cfa78341dbb02b42249b3599dd.16", "url": "http://lh3.googleusercontent.com/F-D4Py9DAdrin1Ote8Uug1TbnomqIP1mIhzWiLqsFZ--UT9Sr4qTVG1HnTfpKFXZTrrWJhIAig_Jg-z72wHSil6u20c", "name": "Boplats & Gravfält", "lat": 59.42570800000000, "lon": 17.90097000000000, "bs": 0, "bc": 0, "rs": 0, "rc": 0, "ys": 1077, "yc": 1},{"id": "834f6a2eed244334a33b23e4ca514579.16", "url": "http://lh3.googleusercontent.com/QGi-SqyZlenwINdRs_1W9dLIEmSj_RW1E-i4KcZzxEOEYrTWIJQXnCllcSRgfgw51dKmp6qqM7Pt80Aqzf19897hQjE", "name": "Fantastiska musen", "lat": 59.23258200000000, "lon": 18.09841100000000, "bs": 79, "bc": 16, "rs": 2, "rc": 7, "ys": 5, "yc": 11},{"id": "8578e7f6752032be97e19a9e065f5f6d.16", "url": "https://lh3.googleusercontent.com/e9N_4WILNx9Is9V8ymbFcAMNDXf2jlVY0Xbz8JrfPRmTXMnzwTlFETlnDFyEvzp50PRZ_7QsNOHWQBCC08yGerAzzbvVfT7DAVDLd4sgRg", "name": "Sälg", "lat": 59.33155000000000, "lon": 18.15168200000000, "bs": 127, "bc": 5, "rs": 91, "rc": 5, "ys": 0, "yc": 0},{"id": "886d889ab08944368fc68d2e73d6050a.16", "url": "https://lh3.googleusercontent.com/NIOyLXPiWlXR4AbJTr984ZSQZl2gLXT9zMtflR-MafPv-pIAcr6PYfaYViaw3IoLhmOItoKpCdgphETft8Q0X3COSA", "name": "Sätra Reservoaren", "lat": 59.28951200000000, "lon": 17.90532200000000, "bs": 377, "bc": 2, "rs": 31, "rc": 3, "ys": 0, "yc": 0},{"id": "892aa34dea274361ab34e3fb82b2c551.16", "url": "https://lh3.googleusercontent.com/hKRBru09SQfKh4XV9PORorqAKKOVN5mdkP7wYO15w5WQ247dVXkQErxqipWKKZFJTcCrYJs7_XGTuhhVxp7BYjcaGg", "name": "Sätraskogen Discgolf", "lat": 59.29448300000000, "lon": 17.91140200000000, "bs": 68, "bc": 11, "rs": 22, "rc": 8, "ys": 39, "yc": 6},{"id": "926a91b25a383c2d93a1c7daa32a1002.16", "url": "https://lh3.googleusercontent.com/zyNpYGcPD5hZRWBZDyrimNA_bjUbcUIUVKGYLyXmlxtNp2dX8eAx50QhrH_Y3PDKMA1GgvFUL_B-tYNQCMwmJ7tI3qlMqnatwONsHCQy", "name": "Lilla Skuggan", "lat": 59.36704300000000, "lon": 18.08932900000000, "bs": 69, "bc": 5, "rs": 66, "rc": 6, "ys": 0, "yc": 0},{"id": "99d7f88b869b4ef5b254bc747eb7d53d.16", "url": "https://lh3.googleusercontent.com/-T-ZXMUQnr-3icfZNLA_JHhrFfhao1RnV4Q5B1sZ5IAhrsWtEKaT2B9QOUYvPUsv3M85ZbmPFFs9ZuBmWnb_h3260HfZ", "name": "Husby gravfält", "lat": 59.40789100000000, "lon": 17.91643500000000, "bs": 99, "bc": 11, "rs": 12, "rc": 8, "ys": 27, "yc": 5},{"id": "9e6049c4c1fc4eb6b1a61bfa07d8b9ea.16", "url": "https://lh3.googleusercontent.com/7uJsij7ob7d5xJx1TKNPpueiQ8Y7vFYA-SB0f1vxNOsDGwWMK6X426Lxlfy-geRzLTz1B917S9171rf_XmF06ooMYfI", "name": "Two Horsemen Without Men", "lat": 59.27632500000000, "lon": 17.88521000000000, "bs": 86, "bc": 9, "rs": 28, "rc": 8, "ys": 54, "yc": 6},{"id": "ac9ba5a8b42648d7888c66b708c89a75.16", "url": "https://lh3.googleusercontent.com/8dLCViM06l7RQ9TRkUud5IKlWT-AQjbFwijKxEffMnoB3n15q-rgT4PTj-_70JIlTu5dD_pb06VD6M4Es6eGzbFljYlq", "name": "Yxmannen", "lat": 59.32276700000000, "lon": 18.15534000000000, "bs": 88, "bc": 8, "rs": 20, "rc": 9, "ys": 59, "yc": 7},{"id": "b025a6111395416580ce370f64dd7164.16", "url": "https://lh3.googleusercontent.com/W1MOyMp_HMxqVciZFqHoK0X86MqYJWQ84jlwiQxmIJFZvRrlv5ELxjt7S6YHWWq8tpSS9xwrEt1zMPYMnPgr1qXTp3E", "name": "Laxholmsbacken Lekplats och Sandlåda", "lat": 59.27394400000000, "lon": 17.87512100000000, "bs": 85, "bc": 9, "rs": 44, "rc": 10, "ys": 32, "yc": 3},{"id": "b5329485d09839f7b0203140cf1898a0.16", "url": "https://lh3.googleusercontent.com/xBZeie5XiAYmEp_DLCY446HDlFU37km8-cA2sDizqAt-K3PpjPXpP-L4yP4fVqIQNyWX2luzAoKSglRBZZGX539j_ym7n5W4lJJDSBVYfQ", "name": "Ärvinge Groddamm", "lat": 59.39665600000000, "lon": 17.93159800000000, "bs": 123, "bc": 6, "rs": 104, "rc": 5, "ys": 23, "yc": 3},{"id": "b7e99fb3c56a36429a24ee44e39b0b63.16", "url": "https://lh3.googleusercontent.com/OKPz8pUGERQYmGyS-_vRWLJXUCCx0AZFIuEm_7Gx6wu0LtOT-zxGzZd9EYe3OIvZC8FvY2eoEJEhVtNzEQ69nDtXryGmkumtzaridC0", "name": "Lekparken i skrubba koloniområde", "lat": 59.24370500000000, "lon": 18.17930700000000, "bs": 97, "bc": 6, "rs": 71, "rc": 5, "ys": 35, "yc": 3},{"id": "c25a88bab36b467faeca9e382981a2b0.16", "url": "https://lh3.googleusercontent.com/34u18hz0HTcKS96zAN4AWxYw-_fzSXI1YIzCbIoramUv1wkUX2jSsj2o8cjbH_hFdApVJbJ8hYmFBFKHfchPk4VgewI", "name": "Minneslund", "lat": 59.23528500000000, "lon": 18.18519700000000, "bs": 92, "bc": 2, "rs": 354, "rc": 2, "ys": 267, "yc": 1},{"id": "c6e05e02159a46dcb8df0c70f325410d.16", "url": "https://lh3.googleusercontent.com/krxSlffkHfnzg5JlOiJNdLreJ1Q_jiYg3HV8hk-tGFzaj_rKVJstqjyXRSkcfE7cVofuATH7uTr68JQD3xCcFTFiJq8j", "name": "Frihetens Port", "lat": 59.32203700000000, "lon": 18.13347700000000, "bs": 157, "bc": 6, "rs": 64, "rc": 5, "ys": 24, "yc": 3},{"id": "ca6e671fac9d422389af7c1512582467.16", "url": "https://lh3.googleusercontent.com/u3SRJBHhC9IzVD1GsOJKsSP5qIxMC0T8ADfvqGWyb6pzKRaukZX5k0offOb7d7vDCGX_Ho5ERgQOGiOv2FUnvHswvJU", "name": "Cyklopen Aktivitetshus", "lat": 59.25943300000000, "lon": 18.04108000000000, "bs": 115, "bc": 8, "rs": 47, "rc": 6, "ys": 19, "yc": 6},{"id": "cde1a64aaeff49d4a236215439735200.16", "url": "https://lh3.googleusercontent.com/yzW1YYtiUKrPGooWKKoMLMhLJXHJ4GgK0Y_Rkh3JPmldnB-Ry7yFn4FpbTcw1Jyyoyet3XH9z9hrouzrobCr83p_KdPq", "name": "Kista Gårds Koloniträdgårdsförening", "lat": 59.40191200000000, "lon": 17.92786600000000, "bs": 97, "bc": 8, "rs": 71, "rc": 6, "ys": 30, "yc": 4},{"id": "d47af58a1a11441f9b579b599c43a6bf.16", "url": "https://lh3.googleusercontent.com/aUyStNjdxU8O6Yyny14mZ_J56NmaZDxeuoHSMAZifkck4QMG_XRH35p8KcHCwCvVrskCiNZLrPbMab0fZ6OpitkYc0A", "name": "Gebers Totempåle", "lat": 59.24444800000000, "lon": 18.13714700000000, "bs": 0, "bc": 0, "rs": 1029, "rc": 1, "ys": 0, "yc": 0},{"id": "d824b3e21aa54484a9f7f23d27fe53ce.16", "url": "https://lh3.googleusercontent.com/-CKJu1qQ3CLvIRZAtc1l4w5GVgBXP3RCk8AkeTrryfW6rWKIJRySnmIR7T4-0MPZF5U5CxE-Jg3sM0-9bgTmkiox0iLj1xkQNgq6gMbb", "name": "Ekelunds Torp", "lat": 59.29236100000000, "lon": 17.90795600000000, "bs": 385, "bc": 2, "rs": 19, "rc": 2, "ys": 41, "yc": 3},{"id": "e46aa3e11c394acf81f852ded43b5dd1.11", "url": "https://lh3.googleusercontent.com/D5ac7cO9QRXlDZ1RY2OUDaekztUJm8-HwUV3sUt7U6s1t4Hi58_yNZuExQwd_XG6U5PdP5k72TZhEx844lbWxWsWG1o", "name": "Solvalla Radartorn", "lat": 59.36340000000000, "lon": 17.93775200000000, "bs": 1012, "bc": 1, "rs": 0, "rc": 0, "ys": 142, "yc": 1},{"id": "e5ecf7cf594e40ab9210cddb16bf7dbc.16", "url": "http://lh3.googleusercontent.com/FWbdXtSRU9_fA28SNJzYlg2FzTggjWiI48H2A-YR2mshs9heL-t50cJA-Wy6dnSuVKhG2zC-BIAq9ADM1wVOAhmG3jU", "name": "Playground at Varpholmsgränd", "lat": 59.28015500000000, "lon": 17.89643100000000, "bs": 79, "bc": 10, "rs": 29, "rc": 10, "ys": 27, "yc": 8},{"id": "e6ffc166ba67417db27ed47ea31beef5.16", "url": "https://lh3.googleusercontent.com/J1d4F-0KuquZVBJ2fAyMK4DgYsRbayKafURRjg_B8zgdzpe8_nzf743dV5yYCLlqdi-It4aAaWyff5McAn1ZeK_VCEo", "name": "Padelverket", "lat": 59.27280500000000, "lon": 18.00438200000000, "bs": 87, "bc": 7, "rs": 85, "rc": 5, "ys": 40, "yc": 6},{"id": "e9d3330f7c0c4335b80655085c1ec661.16", "url": "https://lh3.googleusercontent.com/z9bcz5jWOPRi7OHzC7IJgiNWiQgkHwzOAGav7QTQVD7A4NjXLgpkrbWWdq68r9cX4p-6TnLmjbF8Z6Xk_WI1xTtMyK8", "name": "Den Blå Älgen", "lat": 59.37135000000000, "lon": 17.83975400000000, "bs": 95, "bc": 12, "rs": 12, "rc": 6, "ys": 5, "yc": 6},{"id": "f4870a3dd0a54ba289a14f209d339d1a.16", "url": "https://lh3.googleusercontent.com/PiWv91n1pPJ-btb9VLDAbVPwUTxk9SJpyu0ic-1k61aKA26xJn5X0Usi6WIgU_ES9PpuLcDN99AmOuC1pJ8XDwUiY6w", "name": "Storholms Lekplats", "lat": 59.27320100000000, "lon": 17.89133200000000, "bs": 90, "bc": 12, "rs": 20, "rc": 12, "ys": 3, "yc": 2},{"id": "f5be0b4c56554ab2ac4ac07e139133b3.16", "url": "https://lh3.googleusercontent.com/65wnT8PJUJZe5U3ZAkl4xJ12XM1cAI6u7g1kt3nq1stNSKwbFEhzemWZra_vSs5v_6i7R2_5Kx65eDtLdZNZLhtwFGw", "name": "Johannesdals Gård", "lat": 59.27841100000000, "lon": 17.87351100000000, "bs": 188, "bc": 5, "rs": 51, "rc": 2, "ys": 57, "yc": 4}]
