<<<<<<< HEAD
[{"id": "0c0593747943341faadca7726523e8d0.16", "url": "https://lh3.googleusercontent.com/tmDsJxBvy6jiPHb4PqW7y9meBpdBhg1AwzWMhiWThZnoAWcz58kJp_PPkzuEN40nhFE5UZVQO3Gn6VFSXOb2-TKNUKo", "name": "Småbjörkens lekplats", "lat": 59.38104600000000, "lon": 17.92475500000000, "bs": 95, "bc": 8, "rs": 9, "rc": 1, "ys": 41, "yc": 7},{"id": "0fede1fe97fa41b889f21865910bc213.16", "url": "http://lh3.googleusercontent.com/dkjF1BoU3_VmUOYFjFWkgulcCWuOakDIK_2BH2iB5aetFI3_sCzELBhRjrFYIpgRwZAGunNew6DDzegAR9NSAzxfCw", "name": "Varvsarbetarhuset", "lat": 59.29606100000000, "lon": 17.91073600000000, "bs": 86, "bc": 7, "rs": 73, "rc": 6, "ys": 46, "yc": 3},{"id": "1215706953724014aa9813eb58d8854c.16", "url": "https://lh3.googleusercontent.com/1YkYu_BaJ_w4fNSdeedOCFXPNHvgzkQ1_5pgIG5lF1TclNDJANhUn40xMHGnSFRxCit-t6o5Bfuzm7MZrnuz1Eymwg", "name": "Långsätrastugan, scouts & orientering", "lat": 59.28768100000000, "lon": 17.90750100000000, "bs": 61, "bc": 9, "rs": 39, "rc": 10, "ys": 16, "yc": 3},{"id": "12425cc63615420aab7e73a002528be6.16", "url": "http://lh3.googleusercontent.com/RDFiDcSuBRxqhvOAbeUpivQPVGHR7Zoj2a-eIuduVboVQr8rJwNtx4t3hQa0C43lzT0Y-o64CRr-fHUYLr2NW-cuflg", "name": "Utescenen", "lat": 59.25536100000000, "lon": 18.03931700000000, "bs": 69, "bc": 6, "rs": 57, "rc": 9, "ys": 21, "yc": 8},{"id": "19c73d02858f45b48be42f6ce090948c.16", "url": "https://lh3.googleusercontent.com/0e2M9u9MwRko2t-a_9icshAK4DIOv8CjpTRLbvcxCXI-5BFUeFj729mfFHjyjMvLyPo4q4WB58Y136QSdRFIdBth2Ew", "name": "Fort Lingon", "lat": 59.38708100000000, "lon": 17.80175000000000, "bs": 95, "bc": 12, "rs": 3, "rc": 4, "ys": 6, "yc": 8},{"id": "38a7e51cc6ba4cd883c56e3805b8b90e.16", "url": "https://lh3.googleusercontent.com/TFol29rwpGLeBqY8ZjYxCn7s1-_hsMG4CIcx4Gf9hXrR55a3bXcnXDtg8yttejtGRYlVxZ6wnRNPue4PJ7TqfTP31Ok", "name": "Vattentorn vid Fagersjötoppen", "lat": 59.25370000000000, "lon": 18.06341300000000, "bs": 638, "bc": 1, "rs": 241, "rc": 1, "ys": 91, "yc": 2},{"id": "3be79c649e403e85ae632254882ed9f2.16", "url": "https://lh3.googleusercontent.com/-9blLOmCEA6gYNB2K323ZFi4j9-_8DrBfn_oIbpZN9thGhUYJeFvpDuXN0CUUheHJlfTbysaD3wnjYxOBUGeFXyqQWGk0tksLNG6JVYh", "name": "Sätra varv", "lat": 59.29603600000000, "lon": 17.90836800000000, "bs": 0, "bc": 0, "rs": 0, "rc": 0, "ys": 0, "yc": 0},{"id": "3f412eb2a6434ae69cd6b25a25ac28f6.16", "url": "https://lh3.googleusercontent.com/DaAZ1KhLTjUAwxJZ0xxl62B9pAlBtrhe2OwesYuWtnYZanVxUc9ciwKJyXUQKe63Hz7cwaWFJK6IdnafaJmDPaBa_CeO", "name": "Bäckravinen", "lat": 59.24189100000000, "lon": 18.15840000000000, "bs": 121, "bc": 7, "rs": 37, "rc": 5, "ys": 11, "yc": 5},{"id": "4606247613054df9b479670d7384daa8.16", "url": "https://lh3.googleusercontent.com/skze6xh3z9irTGQZwHEmQ0PXZy2ut643b6VgtQjzjrGKh9IGfhxt5gXnmyaXEqVvjQzM7D4lxt1fnlU4sL06_SrscZZQ", "name": "Stockholms Länstenen", "lat": 59.41659600000000, "lon": 17.93283300000000, "bs": 129, "bc": 3, "rs": 77, "rc": 4, "ys": 94, "yc": 5},{"id": "4ddd3aca723045b2bec7d763d9ca0b56.16", "url": "https://lh3.googleusercontent.com/iKaytDHaIvtRjpXg8AdGX6I9ko7-g6Lz9ndhtgswd-8OMg6py4b27RqF15qhuWatrWdPP60WwsMrhXo4pQtUVedW-94", "name": "Tidens väg – South Start/Finish", "lat": 59.40187400000000, "lon": 17.89649800000000, "bs": 186, "bc": 4, "rs": 31, "rc": 4, "ys": 71, "yc": 4},{"id": "52142b74149247a9ac1060049282c63a.16", "url": "https://lh3.googleusercontent.com/iNN5CD9irWeVfTtlHC0WU7OmS65oDWPICWRyx88My74aoF3zlO_6j7lWEysToqA5T68cMKLqT5gD_N4HjdMoEN-Pvf0", "name": "Ekhagens Bollplan", "lat": 59.37050400000000, "lon": 18.05553000000000, "bs": 91, "bc": 9, "rs": 33, "rc": 5, "ys": 30, "yc": 7},{"id": "5794bd8196784e97b1c5b2938e6d8be6.16", "url": "https://lh3.googleusercontent.com/f_sGkk-Luf8VKJ0JfT3PafRy-JoZZ-6TcxGmITKyjK7VWKEiU2g8P0GITwtdnM8XT5SnfZswGmY-0it9b2qvkFqZ1f4", "name": "Kungliga Djurgårdens Motionsspår", "lat": 59.36992000000000, "lon": 18.06891500000000, "bs": 65, "bc": 8, "rs": 8, "rc": 3, "ys": 35, "yc": 5},{"id": "57ca1ae31c9d4689a31c806f37c7434b.16", "url": "https://lh3.googleusercontent.com/Y7KKPThjgUhsFN9RHR6TMtVb-Ecbu_tKy_2NRyRcRJtLsmafYp1FiTtB1u1AnntGkwhfBLQD1YBvoFBWrufW6AX-WR8", "name": "Spånga Himla-Apa", "lat": 59.37965300000000, "lon": 17.89406100000000, "bs": 74, "bc": 12, "rs": 18, "rc": 5, "ys": 16, "yc": 9},{"id": "5aa4e0d11a6a439791b69b25d8543578.16", "url": "https://lh3.googleusercontent.com/JcaTMkRtN7aVStS4cwJVALEYMHVWgjtTOclE77Qy-7K8J_mXBbVw7ogHRXyY1E2bA-QEE9ZMmxVrqqFgD8UusYv7lBU", "name": "Järva Kilstråk Mitt På Ängen", "lat": 59.39848600000000, "lon": 17.92593900000000, "bs": 86, "bc": 4, "rs": 196, "rc": 1, "ys": 161, "yc": 4},{"id": "5c42f8ccb7be47a6a334c5a5a5405afa.16", "url": "https://lh3.googleusercontent.com/Xoo5Rl-dwdwBNeoZCftA3brdgPAgO1f9lRVLjLeGmvyIm0mf7bfuyZjdPjjmaDZUKO2jqNSc5Sn8sLAmCpxfBS4PgtA", "name": "Flatens Historia", "lat": 59.25388700000000, "lon": 18.14276300000000, "bs": 156, "bc": 2, "rs": 22, "rc": 2, "ys": 176, "yc": 1},{"id": "6e7ccaa7b2614c2385fcd3cd17a4b80d.16", "url": "https://lh3.googleusercontent.com/742kvpppJDPFBNVcvG6ZF_A11h6vmUWPrQkz00bDD4rl28dAGYdVn1k29dZosuHsdMpDK_LDX30EEuoOHtqHhV0-WlHP", "name": "Svart Katt, Ingen Vit Katt", "lat": 59.28257900000000, "lon": 17.91607300000000, "bs": 87, "bc": 13, "rs": 8, "rc": 6, "ys": 3, "yc": 7},{"id": "709c0719e9d7465abaebf5c2d0f941da.16", "url": "https://lh3.googleusercontent.com/1mbxgWxETgV5Tjj7kPs85-qcpUsg0rD7fLZqZNhJVfSeVnVj9ru-e6u5OmnxpNW-_R4i3ssvFu8E1K_1PGAC_DbFuwQ", "name": "Thielska Galleriet", "lat": 59.32179900000000, "lon": 18.14810700000000, "bs": 107, "bc": 7, "rs": 18, "rc": 5, "ys": 62, "yc": 4},{"id": "732d5207d94f47a3bd3cd5b70a70fcf2.16", "url": "https://lh3.googleusercontent.com/tSGPlYf46_mci3CEhmH16ZZHAXXmp8TapLcGHEjouSWz2fXt6_N2xNqWq5q2ztuFcdbfrNRgjrBOB9-8lCvJ2W8jxAs", "name": "Gravfältet Ålstensängen", "lat": 59.31748400000000, "lon": 17.95359900000000, "bs": 83, "bc": 9, "rs": 28, "rc": 12, "ys": 23, "yc": 5},{"id": "75cc3ca5841d4fa7bcd0efca90c4afe7.16", "url": "https://lh3.googleusercontent.com/w9ETPbw1npkXa6uCYPJHYHtNIIoPqzsDTbjFyaZNJ5RpD5oURLbZqkKTeOXxmas0LR5_P6Qg7v2Hx4FJmMv9ox25nR4", "name": "Strandkyrkogården", "lat": 59.23974500000000, "lon": 18.18525900000000, "bs": 95, "bc": 9, "rs": 31, "rc": 9, "ys": 18, "yc": 4},{"id": "77054e0c79a631519508f01834fc5934.16", "url": "https://lh3.googleusercontent.com/gQTtdxkV3BP48iI6Iz1WccVlBXP0hDFpZZu0keRhg-YxP3hUYRKQFdnDIuVz-4oYgOi4BmnxoT__5G1MZwYWVhGUoro4zN6fvOit1Z4J", "name": "Bromsten sport field", "lat": 59.38033400000000, "lon": 17.92779800000000, "bs": 83, "bc": 7, "rs": 65, "rc": 4, "ys": 106, "yc": 3},{"id": "789db356a9ba4949b406e0631777e5ca.16", "url": "https://lh3.googleusercontent.com/R4x-gS4U-k3gRuyF-mNIOGQXa1wD-XZq63c1VI-pgcG57vhogd9NJgtqo2lpqDF3WPKC1qoTZ_UNE0P8XbmW-4GzFtM", "name": "Gungor och klättertorn", "lat": 59.37795000000000, "lon": 17.86850200000000, "bs": 95, "bc": 12, "rs": 5, "rc": 10, "ys": 7, "yc": 2},{"id": "7cc3a1cfa78341dbb02b42249b3599dd.16", "url": "http://lh3.googleusercontent.com/F-D4Py9DAdrin1Ote8Uug1TbnomqIP1mIhzWiLqsFZ--UT9Sr4qTVG1HnTfpKFXZTrrWJhIAig_Jg-z72wHSil6u20c", "name": "Boplats & Gravfält", "lat": 59.42570800000000, "lon": 17.90097000000000, "bs": 0, "bc": 0, "rs": 0, "rc": 0, "ys": 1077, "yc": 1},{"id": "8578e7f6752032be97e19a9e065f5f6d.16", "url": "https://lh3.googleusercontent.com/e9N_4WILNx9Is9V8ymbFcAMNDXf2jlVY0Xbz8JrfPRmTXMnzwTlFETlnDFyEvzp50PRZ_7QsNOHWQBCC08yGerAzzbvVfT7DAVDLd4sgRg", "name": "Sälg", "lat": 59.33155000000000, "lon": 18.15168200000000, "bs": 127, "bc": 5, "rs": 91, "rc": 5, "ys": 0, "yc": 0},{"id": "886d889ab08944368fc68d2e73d6050a.16", "url": "https://lh3.googleusercontent.com/NIOyLXPiWlXR4AbJTr984ZSQZl2gLXT9zMtflR-MafPv-pIAcr6PYfaYViaw3IoLhmOItoKpCdgphETft8Q0X3COSA", "name": "Sätra Reservoaren", "lat": 59.28951200000000, "lon": 17.90532200000000, "bs": 377, "bc": 2, "rs": 31, "rc": 3, "ys": 0, "yc": 0},{"id": "a0a7b18da0834f71b5682e483af9211c.16", "url": "https://lh3.googleusercontent.com/XSJilgs4Oe4iGdzo-ia_7LeHYi3N1nRM8KR93kVQLXabQyb2yaP2QxK1teFjkWoR8Cs7owRknkT5o5VDlBUbtyilcw", "name": "Ryttare", "lat": 59.27564700000000, "lon": 17.90179100000000, "bs": 81, "bc": 11, "rs": 21, "rc": 12, "ys": 13, "yc": 3},{"id": "a399708db69e4cbb89d1bd532a08bf31.16", "url": "https://lh3.googleusercontent.com/bbi2R2MVq2qvmkEDZeTkMUF-8RqWEWX-oyWg9DJ2enqUOyxe77D8OBjiKaoeamVtaG9ndvRkBfLdDS_hnUxpdU_Qgw", "name": "Concrete Artwork", "lat": 59.33493000000000, "lon": 18.13549700000000, "bs": 111, "bc": 7, "rs": 66, "rc": 6, "ys": 9, "yc": 3},{"id": "b025a6111395416580ce370f64dd7164.16", "url": "https://lh3.googleusercontent.com/W1MOyMp_HMxqVciZFqHoK0X86MqYJWQ84jlwiQxmIJFZvRrlv5ELxjt7S6YHWWq8tpSS9xwrEt1zMPYMnPgr1qXTp3E", "name": "Laxholmsbacken Lekplats och Sandlåda", "lat": 59.27394400000000, "lon": 17.87512100000000, "bs": 67, "bc": 8, "rs": 46, "rc": 9, "ys": 32, "yc": 3},{"id": "b7e99fb3c56a36429a24ee44e39b0b63.16", "url": "https://lh3.googleusercontent.com/OKPz8pUGERQYmGyS-_vRWLJXUCCx0AZFIuEm_7Gx6wu0LtOT-zxGzZd9EYe3OIvZC8FvY2eoEJEhVtNzEQ69nDtXryGmkumtzaridC0", "name": "Lekparken i skrubba koloniområde", "lat": 59.24370500000000, "lon": 18.17930700000000, "bs": 97, "bc": 6, "rs": 71, "rc": 5, "ys": 35, "yc": 3},{"id": "c25a88bab36b467faeca9e382981a2b0.16", "url": "https://lh3.googleusercontent.com/34u18hz0HTcKS96zAN4AWxYw-_fzSXI1YIzCbIoramUv1wkUX2jSsj2o8cjbH_hFdApVJbJ8hYmFBFKHfchPk4VgewI", "name": "Minneslund", "lat": 59.23528500000000, "lon": 18.18519700000000, "bs": 92, "bc": 2, "rs": 354, "rc": 2, "ys": 267, "yc": 1},{"id": "c6e05e02159a46dcb8df0c70f325410d.16", "url": "https://lh3.googleusercontent.com/krxSlffkHfnzg5JlOiJNdLreJ1Q_jiYg3HV8hk-tGFzaj_rKVJstqjyXRSkcfE7cVofuATH7uTr68JQD3xCcFTFiJq8j", "name": "Frihetens Port", "lat": 59.32203700000000, "lon": 18.13347700000000, "bs": 150, "bc": 5, "rs": 64, "rc": 5, "ys": 29, "yc": 2},{"id": "cdc8cf66cb5f4738a3c7dd3b4c30af30.16", "url": "http://lh3.googleusercontent.com/7Xx0cIAko4_Bkm1deJAHg8gVZh2bjMBOVfUG12gtl_LlFjlB0AMo5-7yklfchz6Nw-H2jDsHQ21WEVtxMkuf5kph0xw", "name": "Ett Stort Mynt", "lat": 59.27098700000000, "lon": 17.88551900000000, "bs": 96, "bc": 7, "rs": 33, "rc": 5, "ys": 52, "yc": 6},{"id": "d47af58a1a11441f9b579b599c43a6bf.16", "url": "https://lh3.googleusercontent.com/aUyStNjdxU8O6Yyny14mZ_J56NmaZDxeuoHSMAZifkck4QMG_XRH35p8KcHCwCvVrskCiNZLrPbMab0fZ6OpitkYc0A", "name": "Gebers Totempåle", "lat": 59.24444800000000, "lon": 18.13714700000000, "bs": 0, "bc": 0, "rs": 1029, "rc": 1, "ys": 0, "yc": 0},{"id": "d824b3e21aa54484a9f7f23d27fe53ce.16", "url": "https://lh3.googleusercontent.com/-CKJu1qQ3CLvIRZAtc1l4w5GVgBXP3RCk8AkeTrryfW6rWKIJRySnmIR7T4-0MPZF5U5CxE-Jg3sM0-9bgTmkiox0iLj1xkQNgq6gMbb", "name": "Ekelunds Torp", "lat": 59.29236100000000, "lon": 17.90795600000000, "bs": 385, "bc": 2, "rs": 19, "rc": 2, "ys": 41, "yc": 3},{"id": "e46aa3e11c394acf81f852ded43b5dd1.11", "url": "https://lh3.googleusercontent.com/D5ac7cO9QRXlDZ1RY2OUDaekztUJm8-HwUV3sUt7U6s1t4Hi58_yNZuExQwd_XG6U5PdP5k72TZhEx844lbWxWsWG1o", "name": "Solvalla Radartorn", "lat": 59.36340000000000, "lon": 17.93775200000000, "bs": 1012, "bc": 1, "rs": 0, "rc": 0, "ys": 142, "yc": 1},{"id": "e6ffc166ba67417db27ed47ea31beef5.16", "url": "https://lh3.googleusercontent.com/J1d4F-0KuquZVBJ2fAyMK4DgYsRbayKafURRjg_B8zgdzpe8_nzf743dV5yYCLlqdi-It4aAaWyff5McAn1ZeK_VCEo", "name": "Padelverket", "lat": 59.27280500000000, "lon": 18.00438200000000, "bs": 77, "bc": 6, "rs": 100, "rc": 4, "ys": 40, "yc": 6},{"id": "e9d3330f7c0c4335b80655085c1ec661.16", "url": "https://lh3.googleusercontent.com/z9bcz5jWOPRi7OHzC7IJgiNWiQgkHwzOAGav7QTQVD7A4NjXLgpkrbWWdq68r9cX4p-6TnLmjbF8Z6Xk_WI1xTtMyK8", "name": "Den Blå Älgen", "lat": 59.37135000000000, "lon": 17.83975400000000, "bs": 93, "bc": 11, "rs": 14, "rc": 5, "ys": 5, "yc": 6},{"id": "f0563367171b412c82b4ea867bdb2132.11", "url": "https://lh3.googleusercontent.com/Aysgt4vpBLvFkjnRLkTw7GDW6m7Iw_lIRVOll-mD8ZqEqLLhuG_AdZZSNesYxGhYiXQ7XW1pr_xs0XsM7OfmHmqV0Q", "name": "Åsnan", "lat": 59.40667600000000, "lon": 17.92021000000000, "bs": 90, "bc": 9, "rs": 39, "rc": 6, "ys": 22, "yc": 7},{"id": "f33c5b1ecd0f33ac80db47bbd613cfe4.16", "url": "https://lh3.googleusercontent.com/PJxcpd1_q0umzUuKDvtTHmDnULLtDfR2em7fOvNBrrIw8nRCsDyzwjuv4oLXQtHB3LfrBwt9rlSi621UYXyngeyJrmmc", "name": "Lambarö lastbrygga", "lat": 59.36597700000000, "lon": 17.81311200000000, "bs": 237, "bc": 4, "rs": 35, "rc": 2, "ys": 78, "yc": 2},{"id": "fe64dfc0492f4dc58da2bc53ea7af12b.16", "url": "https://lh3.googleusercontent.com/UpQg5HNVPsCFM-epL2VGaO8EDhlWej2RJJ2rRQBS4C-a1heK_Mp8I-BkahFgr1nM4oIrwiWlATfwmac5QOTxT0EwGw", "name": "Stekelhotell", "lat": 59.34860900000000, "lon": 17.93218800000000, "bs": 457, "bc": 1, "rs": 301, "rc": 2, "ys": 0, "yc": 0}]
=======
[{"id": "03f1c8d21d51452482d03a4b01834ee8.16", "url": "https://lh3.googleusercontent.com/eGLAUZ0pUvlTQ8iFH1bO_aVcfuE5iCxzgZpf_gvie2BkAGi5Zb9I3K7ej18QPdhD8G6BmaAGBwD_mI3fkeGktDimiI8", "name": "Gravfältet Vid Glia", "lat": 59.35010500000000, "lon": 17.93723800000000, "bs": 95, "bc": 9, "rs": 51, "rc": 4, "ys": 98, "yc": 9},{"id": "05a6dd2338d8424cb63af726329147dd.16", "url": "https://lh3.googleusercontent.com/q80PgeGuYejHG3RzqhyOC9-ok8jco_swIExCKLGTYMhppC8y5BTVxZI63L7uyF8xw97YOis2LiTQ3UqH1j-1eSfFRHU", "name": "Fladder", "lat": 59.27125300000000, "lon": 17.89694700000000, "bs": 77, "bc": 17, "rs": 25, "rc": 7, "ys": 21, "yc": 15},{"id": "0724a107863e4b7faff214673a51bc63.16", "url": "https://lh3.googleusercontent.com/YEmr8K-iM5lKn1snIzNM_cHiEtf7xGcjbc6hbCFvsBw18Tbyt-rD47x0jufV9ItGchb1JdEy2bfXnQ0C8nmixk71IFA", "name": "Judarskogens Naturreservat", "lat": 59.33410900000000, "lon": 17.91082300000000, "bs": 76, "bc": 12, "rs": 98, "rc": 4, "ys": 51, "yc": 12},{"id": "0d0ca9874e7848f0978f960666555921.16", "url": "https://lh3.googleusercontent.com/Y9XAeUttcTl2oE66pYmmDZNEqRcAxN9C-s4d2RmP-fsr6ukte5kxESTySiW-0ASNhVW5GmCFAADvUU8PmwApxpQvIUo", "name": "Kärleksstigen", "lat": 59.32789200000000, "lon": 18.13767600000000, "bs": 94, "bc": 14, "rs": 49, "rc": 12, "ys": 15, "yc": 10},{"id": "144017a7aa9a394584d35f55df407f8e.16", "url": "https://lh3.googleusercontent.com/NsSMAnaQkTHp-i8Zm797kHnQ7uVddOTZKiAQYz6ooOcb30xCP_iaxTXneiJdc7oyuU4zuWLaUDkVZs2asoVrXd3LADxrmZ_sQDPEsAny", "name": "Pollineringsträdgård Kyrkhamn", "lat": 59.39166500000000, "lon": 17.77335700000000, "bs": 98, "bc": 7, "rs": 109, "rc": 6, "ys": 119, "yc": 6},{"id": "1667abe80e2645249d295ecd8aae7471.16", "url": "https://lh3.googleusercontent.com/vbS7xxNV_tfSc__eDiX3G6zhDqW2dvIhI7Grc-5FjWdICfp_V4LNQbGtpKQx4jG_imd-H2QhYMUx19hlvc0vNOXbZw", "name": "Välkommen Till Sätraskogens Naturreservat", "lat": 59.29832400000000, "lon": 17.92428800000000, "bs": 73, "bc": 18, "rs": 37, "rc": 12, "ys": 22, "yc": 8},{"id": "18e2ccc67b354f4b9abd982f56d69558.16", "url": "https://lh3.googleusercontent.com/fNA6IZi_1tlzRApo2pBi_vTNAqJMdgR2HOTPKb_iKjmDMM2WcVqsFCo3-jbz92XgsbBnCmgzGmP-FozCKu6CoptdVZo", "name": "Känn på mossan", "lat": 59.29917500000000, "lon": 17.92153700000000, "bs": 88, "bc": 15, "rs": 62, "rc": 10, "ys": 23, "yc": 7},{"id": "19c73d02858f45b48be42f6ce090948c.16", "url": "https://lh3.googleusercontent.com/0e2M9u9MwRko2t-a_9icshAK4DIOv8CjpTRLbvcxCXI-5BFUeFj729mfFHjyjMvLyPo4q4WB58Y136QSdRFIdBth2Ew", "name": "Fort Lingon", "lat": 59.38708100000000, "lon": 17.80175000000000, "bs": 92, "bc": 21, "rs": 7, "rc": 8, "ys": 8, "yc": 14},{"id": "1fda3948de6940308bbfc59808d59fc6.16", "url": "https://lh3.googleusercontent.com/FHMu9xYUnkEGWocupXg55Dn_OqyiTc1LQFOhpCvDvytU4bZZzbn8Tghr-C5SPwyfTL8kyjPJiALVW20GHZakzFabbe0", "name": "Husby ishall", "lat": 59.41091200000000, "lon": 17.92103600000000, "bs": 123, "bc": 15, "rs": 5, "rc": 5, "ys": 24, "yc": 10},{"id": "21b6648112ec493a87e734979070e7d9.16", "url": "https://lh3.googleusercontent.com/zRJu5YGtCYDmK3FlN6Lr2caAUvbstUc8SH9lObnNFf1NKZ833Fxphjde88cGuDmX-cdMZCYAB-bkOQdX-dFmf8_GeqAq_PaeTqO0VfQ", "name": "Gravfält Och Stensträngar", "lat": 59.42834800000000, "lon": 17.89806500000000, "bs": 315, "bc": 1, "rs": 206, "rc": 1, "ys": 472, "yc": 2},{"id": "23532b7f0ed5408c80cfdfc3de05ec13.16", "url": "https://lh3.googleusercontent.com/mwz8GrcVgWxUW_t1HCYR77MtN-adSQfLtZu-insu3tMiYv8oDXES3V9l0-Pjxu45CLnSSs0Evnf3X0XCdQCdRTZQHH-P", "name": "Finngården", "lat": 59.32663200000000, "lon": 18.10956900000000, "bs": 77, "bc": 14, "rs": 56, "rc": 13, "ys": 21, "yc": 13},{"id": "3248bc29c2a648e7b57526551b901776.16", "url": "https://lh3.googleusercontent.com/KJlowyR-iC-dvvYG42q8AaRmUsvIpWZLGKfU3CWCa4v72a6cK0dSST52j5zwsw1kZZJIOpFyplw4oylC-HhfVl9F4ks", "name": "Miniatyrslott", "lat": 59.41267200000000, "lon": 17.92565300000000, "bs": 94, "bc": 14, "rs": 24, "rc": 5, "ys": 50, "yc": 11},{"id": "3b984fbf3ace4405b8dd8bc9a951b211.16", "url": "https://lh3.googleusercontent.com/Rfz4dgR0a0VJFqQ9gx40WjRxdlCxR9Reifc4MNmVu-nD8aFW3nfEE0510-iw0DtQ9CXf5xXosH2luyM6bwMOxWBIF_w", "name": "Mälarhöjdsbadet Ferry Stop", "lat": 59.30093900000000, "lon": 17.92743600000000, "bs": 74, "bc": 18, "rs": 23, "rc": 16, "ys": 28, "yc": 13},{"id": "3be79c649e403e85ae632254882ed9f2.16", "url": "https://lh3.googleusercontent.com/-9blLOmCEA6gYNB2K323ZFi4j9-_8DrBfn_oIbpZN9thGhUYJeFvpDuXN0CUUheHJlfTbysaD3wnjYxOBUGeFXyqQWGk0tksLNG6JVYh", "name": "Sätra varv", "lat": 59.29603600000000, "lon": 17.90836800000000, "bs": 552, "bc": 2, "rs": 87, "rc": 2, "ys": 0, "yc": 0},{"id": "43db512fa8734a95b32c4c8a64e7e5a4.16", "url": "https://lh3.googleusercontent.com/S819Z4gMQeZ90yVCKy1XAao-SUFb4FLOqbZYZOSoI2tpbnaxl-pSAhbgNZCWBztElqxMH5GIodT59FXZQ1F-9qv2qaY", "name": "Old Windmill", "lat": 59.32000300000000, "lon": 18.11603900000000, "bs": 162, "bc": 8, "rs": 37, "rc": 7, "ys": 72, "yc": 7},{"id": "5794bd8196784e97b1c5b2938e6d8be6.16", "url": "https://lh3.googleusercontent.com/f_sGkk-Luf8VKJ0JfT3PafRy-JoZZ-6TcxGmITKyjK7VWKEiU2g8P0GITwtdnM8XT5SnfZswGmY-0it9b2qvkFqZ1f4", "name": "Kungliga Djurgårdens Motionsspår", "lat": 59.36992000000000, "lon": 18.06891500000000, "bs": 136, "bc": 9, "rs": 16, "rc": 5, "ys": 99, "yc": 7},{"id": "5b3db887f8064b7281d0cff36326bfb3.16", "url": "https://lh3.googleusercontent.com/yBPaqlgzrx0cK4T0Cxw4N6e1k_fk7w_5bMPdao22Fs8Q-TN6jX86wJrZDnts5YUMLD2VFoK7pqMwfWt1qGhnifkjOmXD", "name": "Skärholmens Gårds fontänstaty", "lat": 59.28334000000000, "lon": 17.88904900000000, "bs": 109, "bc": 14, "rs": 35, "rc": 12, "ys": 5, "yc": 4},{"id": "5cf2bb1ae6e545ba9b033a4928a90948.16", "url": "https://lh3.googleusercontent.com/bYS2e_uF3Incs4qoBjzLseqdssL2xPlTn32c0nCzfSX1UpL3jLMZ5RrA0wzLkTd0uEc0-YUomZaE111TSHCBF7NIjw", "name": "Old Skijump Tower", "lat": 59.35894000000000, "lon": 18.07629000000000, "bs": 146, "bc": 3, "rs": 156, "rc": 3, "ys": 236, "yc": 5},{"id": "5d730e09a8f041148e6b47ccda6b78b4.16", "url": "https://lh3.googleusercontent.com/8_QrNay6djGmwF_ayIYgrefeH8yBeHBIGE-diD3e77Z7uHxERFrGYd9OxIeSequbcazC3hsD9eI2tKoMEwIjox-WWQ", "name": "Herakles", "lat": 59.32041900000000, "lon": 18.11380500000000, "bs": 90, "bc": 16, "rs": 32, "rc": 9, "ys": 28, "yc": 12},{"id": "76f2044a64e948d69fb0cf5809ff5016.16", "url": "https://lh3.googleusercontent.com/7PNHTsI-8ruA5y42z98YTztoPIVcFVEXOTcOh62XJ9JSOzwL3OOO1ezLvtMm5WI7kHlhHHp5aSOXo3WDYI72mDKNYw", "name": "Hansta Naturreservat - Östra ingången", "lat": 59.42505500000000, "lon": 17.91334000000000, "bs": 93, "bc": 7, "rs": 105, "rc": 3, "ys": 75, "yc": 9},{"id": "77054e0c79a631519508f01834fc5934.16", "url": "https://lh3.googleusercontent.com/gQTtdxkV3BP48iI6Iz1WccVlBXP0hDFpZZu0keRhg-YxP3hUYRKQFdnDIuVz-4oYgOi4BmnxoT__5G1MZwYWVhGUoro4zN6fvOit1Z4J", "name": "Bromsten sport field", "lat": 59.38033400000000, "lon": 17.92779800000000, "bs": 91, "bc": 15, "rs": 48, "rc": 6, "ys": 58, "yc": 7},{"id": "7c1102f1a89d4cd1bfe8c437d4490257.16", "url": "https://lh3.googleusercontent.com/Tzk6_GBytBXgtArd1_bG0k70mBkNInIAoj-cjl0S3I6x4pPjk1NtX-vXOioBBkc_ac-bGhQhGIvoDzCNHHrS4rDab18", "name": "Fyren", "lat": 59.29088100000000, "lon": 17.89281900000000, "bs": 64, "bc": 11, "rs": 61, "rc": 14, "ys": 32, "yc": 5},{"id": "7cc3a1cfa78341dbb02b42249b3599dd.16", "url": "http://lh3.googleusercontent.com/F-D4Py9DAdrin1Ote8Uug1TbnomqIP1mIhzWiLqsFZ--UT9Sr4qTVG1HnTfpKFXZTrrWJhIAig_Jg-z72wHSil6u20c", "name": "Boplats & Gravfält", "lat": 59.42570800000000, "lon": 17.90097000000000, "bs": 529, "bc": 1, "rs": 22, "rc": 1, "ys": 1077, "yc": 1},{"id": "871ad7901af543169641aa5fdf1fe0da.16", "url": "https://lh3.googleusercontent.com/xOuVgZ9OsIZv6CnMF4VdVfBo_zxMiPe8xZaGUHmW65phXyNet23x07LCsi7fKDYePAC7mzyEGLRxrpjmdEZoNNRIRg", "name": "Hipp Hipp Hurra", "lat": 59.32011600000000, "lon": 18.11435600000000, "bs": 82, "bc": 16, "rs": 32, "rc": 9, "ys": 50, "yc": 8},{"id": "886d889ab08944368fc68d2e73d6050a.16", "url": "https://lh3.googleusercontent.com/NIOyLXPiWlXR4AbJTr984ZSQZl2gLXT9zMtflR-MafPv-pIAcr6PYfaYViaw3IoLhmOItoKpCdgphETft8Q0X3COSA", "name": "Sätra Reservoaren", "lat": 59.28951200000000, "lon": 17.90532200000000, "bs": 297, "bc": 5, "rs": 21, "rc": 5, "ys": 0, "yc": 0},{"id": "8a98b183f64e4a6b883c5628eaf2dd79.16", "url": "https://lh3.googleusercontent.com/GW8P24E-QGux5K_HCpSGsS-ja6fVGmjw9ODwnIy9_4BkEdgLWgzI7ngCKVz3d2Ug_CtVH-10XLz4zT1FvGGgdcfgWvfM", "name": "Häradsvägen", "lat": 59.42488600000000, "lon": 17.90616500000000, "bs": 134, "bc": 8, "rs": 40, "rc": 6, "ys": 79, "yc": 8},{"id": "926a91b25a383c2d93a1c7daa32a1002.16", "url": "https://lh3.googleusercontent.com/zyNpYGcPD5hZRWBZDyrimNA_bjUbcUIUVKGYLyXmlxtNp2dX8eAx50QhrH_Y3PDKMA1GgvFUL_B-tYNQCMwmJ7tI3qlMqnatwONsHCQy", "name": "Lilla Skuggan", "lat": 59.36704300000000, "lon": 18.08932900000000, "bs": 101, "bc": 6, "rs": 62, "rc": 7, "ys": 0, "yc": 0},{"id": "96d2f00553774372ac2e741fb536759b.16", "url": "https://lh3.googleusercontent.com/FVavZ3PsCHtvSZGX1eRee3WXVY-RGrzvztk3HCUKPVliB0Yev6KEcNo6fGzTUIcVwGTmXSTsTplQRBK-1Es16CXMdN9w", "name": "Tusculum", "lat": 59.28301400000000, "lon": 17.88327400000000, "bs": 769, "bc": 2, "rs": 198, "rc": 2, "ys": 14, "yc": 3},{"id": "b025a6111395416580ce370f64dd7164.16", "url": "https://lh3.googleusercontent.com/W1MOyMp_HMxqVciZFqHoK0X86MqYJWQ84jlwiQxmIJFZvRrlv5ELxjt7S6YHWWq8tpSS9xwrEt1zMPYMnPgr1qXTp3E", "name": "Laxholmsbacken Lekplats och Sandlåda", "lat": 59.27394400000000, "lon": 17.87512100000000, "bs": 90, "bc": 13, "rs": 48, "rc": 13, "ys": 36, "yc": 6},{"id": "b7e99fb3c56a36429a24ee44e39b0b63.16", "url": "https://lh3.googleusercontent.com/OKPz8pUGERQYmGyS-_vRWLJXUCCx0AZFIuEm_7Gx6wu0LtOT-zxGzZd9EYe3OIvZC8FvY2eoEJEhVtNzEQ69nDtXryGmkumtzaridC0", "name": "Lekparken i skrubba koloniområde", "lat": 59.24370500000000, "lon": 18.17930700000000, "bs": 225, "bc": 7, "rs": 63, "rc": 6, "ys": 35, "yc": 3},{"id": "c03e770bcaac49f6ab2e880fb803ecdd.16", "url": "https://lh3.googleusercontent.com/-J7_PaSXL3KL28ca2Sl2EQaV67-Px1ZnLiTI5euK5s9-K6BNdJNUimQakQW63Ms5tAhNnHpzBVX0wSPK7VQfk09Y-gw", "name": "Tidens väg - Kolkärr", "lat": 59.40222900000000, "lon": 17.89527400000000, "bs": 373, "bc": 4, "rs": 50, "rc": 1, "ys": 15, "yc": 4},{"id": "c25a88bab36b467faeca9e382981a2b0.16", "url": "https://lh3.googleusercontent.com/34u18hz0HTcKS96zAN4AWxYw-_fzSXI1YIzCbIoramUv1wkUX2jSsj2o8cjbH_hFdApVJbJ8hYmFBFKHfchPk4VgewI", "name": "Minneslund", "lat": 59.23528500000000, "lon": 18.18519700000000, "bs": 145, "bc": 4, "rs": 354, "rc": 2, "ys": 268, "yc": 3},{"id": "c488c44bb90e44f984070c6d1e73a226.16", "url": "https://lh3.googleusercontent.com/it2svxXMv1gvA5qj2WxY1qN8MpUN49CvBnUSUaJBcmDwZX_oAwvG7l5hFvUBM-REi1IoMM7haV6rsEDPCvwPlJ8sCA", "name": "Björklidens Golfklubb", "lat": 59.34873000000000, "lon": 17.94120100000000, "bs": 71, "bc": 11, "rs": 80, "rc": 9, "ys": 74, "yc": 7},{"id": "d824b3e21aa54484a9f7f23d27fe53ce.16", "url": "https://lh3.googleusercontent.com/-CKJu1qQ3CLvIRZAtc1l4w5GVgBXP3RCk8AkeTrryfW6rWKIJRySnmIR7T4-0MPZF5U5CxE-Jg3sM0-9bgTmkiox0iLj1xkQNgq6gMbb", "name": "Ekelunds Torp", "lat": 59.29236100000000, "lon": 17.90795600000000, "bs": 307, "bc": 4, "rs": 65, "rc": 3, "ys": 39, "yc": 6},{"id": "e6ffc166ba67417db27ed47ea31beef5.16", "url": "https://lh3.googleusercontent.com/J1d4F-0KuquZVBJ2fAyMK4DgYsRbayKafURRjg_B8zgdzpe8_nzf743dV5yYCLlqdi-It4aAaWyff5McAn1ZeK_VCEo", "name": "Padelverket", "lat": 59.27280500000000, "lon": 18.00438200000000, "bs": 81, "bc": 15, "rs": 52, "rc": 11, "ys": 27, "yc": 11},{"id": "e9d3330f7c0c4335b80655085c1ec661.16", "url": "https://lh3.googleusercontent.com/z9bcz5jWOPRi7OHzC7IJgiNWiQgkHwzOAGav7QTQVD7A4NjXLgpkrbWWdq68r9cX4p-6TnLmjbF8Z6Xk_WI1xTtMyK8", "name": "Den Blå Älgen", "lat": 59.37135000000000, "lon": 17.83975400000000, "bs": 79, "bc": 25, "rs": 7, "rc": 15, "ys": 3, "yc": 10},{"id": "f5be0b4c56554ab2ac4ac07e139133b3.16", "url": "https://lh3.googleusercontent.com/65wnT8PJUJZe5U3ZAkl4xJ12XM1cAI6u7g1kt3nq1stNSKwbFEhzemWZra_vSs5v_6i7R2_5Kx65eDtLdZNZLhtwFGw", "name": "Johannesdals Gård", "lat": 59.27841100000000, "lon": 17.87351100000000, "bs": 183, "bc": 8, "rs": 70, "rc": 4, "ys": 74, "yc": 5},{"id": "fe64dfc0492f4dc58da2bc53ea7af12b.16", "url": "https://lh3.googleusercontent.com/UpQg5HNVPsCFM-epL2VGaO8EDhlWej2RJJ2rRQBS4C-a1heK_Mp8I-BkahFgr1nM4oIrwiWlATfwmac5QOTxT0EwGw", "name": "Stekelhotell", "lat": 59.34860900000000, "lon": 17.93218800000000, "bs": 270, "bc": 4, "rs": 210, "rc": 4, "ys": 98, "yc": 2}]
>>>>>>> 43acd01e5e27084d2d156196018b2579bca65e4a
