[{"id": "00b8c0fdd880426395237df4dca287bb.11", "url": "https://lh3.googleusercontent.com/LGhpAaEcf4xIY6AFDneEffqUPqWWdFmm-0ME2Owdg8dWX_fqBx2921IEcKR3LkN_tyt_lLevu9w7KnkLs3FruVqYJrw", "name": "Pingpongspelaren", "lat": 59.30816200000000, "lon": 18.06515700000000, "bs": 10, "bc": 116, "rs": 6, "rc": 105, "ys": 4, "yc": 50},{"id": "00d4ce0c16b248e8a025db24f8ba5a44.16", "url": "https://lh3.googleusercontent.com/SUT3e4LTFjuTgF6gRZRWQ2aVH7T1dkpUpZ5_7Opf70EnxSuNyyEwWwdxofaKRWxvvLLGg_13F-bOHHhu8Wf3Y-cNkEM", "name": "Svedmyras Historia 32 41", "lat": 59.27257400000000, "lon": 18.07100600000000, "bs": 22, "bc": 32, "rs": 24, "rc": 28, "ys": 21, "yc": 30},{"id": "00f1129a1c2f4538b936da44f016c52c.16", "url": "https://lh3.googleusercontent.com/WWnfSZ1rAP_WwVPp2BiBa5pvhlfhiWd0sAxCGhEHpNXvj1DAzmGDkk4r5HyoHWpICSGc6k544ImvZecJaASl5zZseclo", "name": "Turtles, Tallkrogen", "lat": 59.27258700000000, "lon": 18.08032000000000, "bs": 12, "bc": 53, "rs": 14, "rc": 64, "ys": 9, "yc": 52},{"id": "00f7052dbbcd472398752931fc591f0d.16", "url": "https://lh3.googleusercontent.com/aIgO7vjE1ivq5ksD9co1MXVSoBLVRdTIO3QHuwgTrRa89QL9qnnQ9BKWPf-mQ1k1981CT3E8p-SPAfrd4NlUQ82XQgI", "name": "Playground Lappis", "lat": 59.37008200000000, "lon": 18.06601900000000, "bs": 17, "bc": 56, "rs": 10, "rc": 54, "ys": 9, "yc": 50},{"id": "01a4a8628bca412593515abda60b19ed.16", "url": "https://lh3.googleusercontent.com/kH92HGhxnOb444xWaDDqUFXz7JAHQtQsisa7aZ-AIv0jLyGI-blfcGdKnXOGUPBuFsy-x4OdCM_7f6IznX3aM2aWucw", "name": "Finn's Karta", "lat": 59.29750900000000, "lon": 18.11362200000000, "bs": 20, "bc": 8, "rs": 64, "rc": 22, "ys": 17, "yc": 23},{"id": "01ae30b23e554c16a0715125d7e34b14.16", "url": "https://lh3.googleusercontent.com/XvhMlvpoS-xNNO3TzBM6IhMMWQgKLQWC9cKlno832YaUtlxyt16Eo_dbqSP3WVaMSusSbutjT8IeNLGBY9aDjaLsn1Pn", "name": "Olaus Petri Kyrka", "lat": 59.34507400000000, "lon": 18.08795200000000, "bs": 10, "bc": 50, "rs": 24, "rc": 55, "ys": 8, "yc": 21},{"id": "01becbba29c24f87a7451bc62c94d35a.16", "url": "https://lh3.googleusercontent.com/sHgBAQJfa2wNzNM9NWGBHIpqsBcGj6WeQ304XRKuwsLm-86al-0HEQFftgxaKZvN6UJz0nhGB4FEoYpHl_vbWeQ2_w", "name": "Zebraffe", "lat": 59.34859400000000, "lon": 17.90133900000000, "bs": 13, "bc": 32, "rs": 10, "rc": 38, "ys": 30, "yc": 40},{"id": "023fd30c56784588ba1155fea5f9a66c.16", "url": "https://lh3.googleusercontent.com/A57TSRxQd39Rcru-KlK-YHX-mkA42ozbcQQleY3A4ktGeEeDzHu8W1u-QfL3OWFfDhtfSwHrim3XKcAc5MtL1k-zRA", "name": "Happy Thailand Mural", "lat": 59.28352300000000, "lon": 18.07294100000000, "bs": 18, "bc": 46, "rs": 13, "rc": 23, "ys": 17, "yc": 51},{"id": "0270b3884bb64815ad08f75b0c8988e8.16", "url": "https://lh3.googleusercontent.com/SBXfj68tQi9EVXM5DnQCY2BbXUBvetITd-A1RI62y4F-qmLVvXbj7Px414OBC5RN-BtmRlrubTSS5fPblSZRhyx000k", "name": "Bagisfontänen", "lat": 59.27743200000000, "lon": 18.13240300000000, "bs": 6, "bc": 61, "rs": 15, "rc": 77, "ys": 8, "yc": 59},{"id": "031171d74d25419287e9b7a3f29c27d9.16", "url": "http://lh3.googleusercontent.com/BU6GLZzJ-iYgB6LbMtG1NeHBRT4NQD8n4tb1c0Bf_Wu_r1TbmUrkpVoJh6yFb0F390CPqSURV-NKrhbfEoY8d1KmKsc", "name": "Jord och Gräs", "lat": 59.32489200000000, "lon": 18.08108300000000, "bs": 22, "bc": 46, "rs": 14, "rc": 29, "ys": 15, "yc": 38},{"id": "0351a12791df47b2819d1341fec381e8.16", "url": "https://lh3.googleusercontent.com/td0vziCNU7Oe_wQ2QdaC2RT-q7nvmDA24h48MYtFRVWAfeHovunBmylBCo4-GKzNxO9QDeoxSSZVT1bn9vRuTib4orM", "name": "All Time High Bromma Airport Mural", "lat": 59.35587300000000, "lon": 17.94586400000000, "bs": 18, "bc": 48, "rs": 13, "rc": 45, "ys": 15, "yc": 39},{"id": "03d3825fa31e4d62a495d3849a1d2951.11", "url": "https://lh3.googleusercontent.com/7arBsoCKhUj0JTQtQZJe7_U7Fx-7ndkzpPvXPuX1E1S5C5olwOXLhEGaJMCXne2G3zTENoN4Pxc9y8meI4G959eczU3R", "name": "Chihuahua Statues", "lat": 59.29008400000000, "lon": 18.09365800000000, "bs": 15, "bc": 91, "rs": 5, "rc": 78, "ys": 3, "yc": 58},{"id": "045687132353408f82072eb7d69016c6.16", "url": "https://lh3.googleusercontent.com/Pg4kD8QyzLjnmaQ11g1Fqt9pG8LULvBKb1Par6BDdTpWXeiXPeUKlYcBm7f3DyMZJzhHJrtuMIscsaUpmCIWg-o-_sc", "name": "You Can Lead A Horse To Water", "lat": 59.30864700000000, "lon": 18.07236900000000, "bs": 23, "bc": 74, "rs": 4, "rc": 45, "ys": 4, "yc": 37},{"id": "04e470184dee4d0ca08d9b2f39c03896.16", "url": "http://lh3.googleusercontent.com/ni6h5wX-xKvkof_cTcDPSL4fbYMsuywy64E1kOE9bchBmhLedQ6NTSw4XCn5-TO_yonPnkLJYd6iISvNrZ2aej_fGw", "name": "Lekplats i Farsta", "lat": 59.24488700000000, "lon": 18.10046600000000, "bs": 8, "bc": 137, "rs": 7, "rc": 133, "ys": 2, "yc": 9},{"id": "05056d80ad27486dbb261dc1b51e33e7.16", "url": "https://lh3.googleusercontent.com/8U-1nMIdfWkoZDnRVRZ2ruyxT5dUhzv9VFyW6eFyx623VCHNyBZDhXKw64ZBs5-pTkK-xLuyTPRx1oTcTIiS4LSnk-I", "name": "Domarring", "lat": 59.24743700000000, "lon": 18.09676500000000, "bs": 8, "bc": 63, "rs": 16, "rc": 78, "ys": 7, "yc": 41},{"id": "0578c2d8454c47a3a7740caf3b999f94.16", "url": "https://lh3.googleusercontent.com/zPZg1LFHpaz5JyRPKTm8x5DzcAPFcGlk9CDx705T_DMAbdsO_ka3bfTm4s9XQXTFlxoKODLsNzHHVUtjO0BvKDlmIw", "name": "Svedmyras Historia (36/41)", "lat": 59.27158600000000, "lon": 18.07192000000000, "bs": 16, "bc": 21, "rs": 12, "rc": 28, "ys": 35, "yc": 37},{"id": "05a1b71898404386890102281290d2ec.16", "url": "https://lh3.googleusercontent.com/IzfmU669pK7HXfPWCyxPWU4EF2dcQ7hsDzkNlJOEa7iweOUysHjZL2BWQs5HHkO7yu3g0spHHh5CmnxJ2xwG8p3rmQ", "name": "Kattscenen", "lat": 59.29746100000000, "lon": 17.99918000000000, "bs": 11, "bc": 82, "rs": 12, "rc": 56, "ys": 6, "yc": 75},{"id": "05aa621d758b4a97a7e892297a3ba884.16", "url": "https://lh3.googleusercontent.com/w-cLJgWNfM0hDnbv13KK_A2DcsiZDCeEnt-yTVUpr2_DYfv1MbUuAXlh8-usRgtJFAbqk9UTE_W00vhAxzX0EI2q3eg", "name": "Vinterfågel (Winter Bird)", "lat": 59.30773200000000, "lon": 18.09077600000000, "bs": 11, "bc": 71, "rs": 8, "rc": 64, "ys": 10, "yc": 69},{"id": "063cf27f366c4f56bca26cd687711925.16", "url": "https://lh3.googleusercontent.com/rIUWjPHK-Vgj6PjiEjA4E0eYV1VfXn3hzKZsQ8hZhOL9p-o_rP5pyS56xeX2zZ8jXZmx8FNzGpqPVlz2UTAMUCr6IDQB", "name": "Runsten", "lat": 59.39144500000000, "lon": 17.91209400000000, "bs": 16, "bc": 27, "rs": 22, "rc": 38, "ys": 21, "yc": 37},{"id": "068513ff02543acb8d038ca986eeaac8.16", "url": "https://lh3.googleusercontent.com/11HVVfpphfUb9pHEhMO0gJvIfsn9xPPXmtvNVTBdisj8ec5d4nziZs0FUmnf2rg_xqCBU2C-kQTw_J-qucxxeOAwIs-pUElaNfxRz5BPoA", "name": "Dellens kvarterspark", "lat": 59.30030200000000, "lon": 18.04433800000000, "bs": 18, "bc": 28, "rs": 44, "rc": 32, "ys": 6, "yc": 14},{"id": "06d60f4cd769482eb2ecbad28be5ea5b.16", "url": "https://lh3.googleusercontent.com/m_p9m9jIH_HqEgXJNrOmVPArbg93zdaahrNLItlMzsVyX5lRbsanggWUjYQr-7apxh9BuRQeh_BTYJqiuiZnNlPwu8I", "name": "Idrottsparken", "lat": 59.34874300000000, "lon": 18.09255700000000, "bs": 24, "bc": 25, "rs": 26, "rc": 31, "ys": 18, "yc": 26},{"id": "0703321eed744c579326c2f75f818286.12", "url": "https://lh3.googleusercontent.com/ZkTg9LV0DAIpcVfRhVazJte6sIM_aEenv7hRlvk3U8SlSuQX2q_VZoYr3Th7bOjm3irns8i2wmuAQpgC4Id--dtCQ8XQ", "name": "Air & Water", "lat": 59.33134900000000, "lon": 18.08099300000000, "bs": 18, "bc": 51, "rs": 16, "rc": 41, "ys": 12, "yc": 38},{"id": "0782a5da46dc4458815ff4ae6fba29ea.11", "url": "https://lh3.googleusercontent.com/wx_buDJb-8Hl7m1PthztJXPtlHM-GRs_BpgxZ2KnJb3Ud8svqSv8a41D-tyKVurV50S-t2grwXzby-X9Est40Pb35v4", "name": "Lappis Square", "lat": 59.37016800000000, "lon": 18.06305700000000, "bs": 11, "bc": 81, "rs": 11, "rc": 31, "ys": 11, "yc": 73},{"id": "07bc172c8ca04496aaad629d6b429963.16", "url": "http://lh3.googleusercontent.com/TS_EPheUYi4qenMi0MpQg_us6xlpO01xY3u1Z_cQWz5-dJ_MOUrkx1r8JLmkzyf4nnj_ibiwY6LWxHXgskXMue5JM7w", "name": "Enskede Gårds Koloniträdgårdar", "lat": 59.28959200000000, "lon": 18.06462900000000, "bs": 4, "bc": 20, "rs": 55, "rc": 34, "ys": 4, "yc": 18},{"id": "07d1be8007d94b42a3a55b4aebc38a7a.16", "url": "https://lh3.googleusercontent.com/wA3dqZ09EWy-GOyFCl90dazJ3uMLp2X-zLgSg3oG9eZwT2Ukn-Ku-lLyrNyJr3vtEkizTsWY6tUyBpWNUDQMgBLIBSg", "name": "Krusidullig Ornament", "lat": 59.33114600000000, "lon": 18.03028500000000, "bs": 6, "bc": 89, "rs": 4, "rc": 49, "ys": 12, "yc": 108},{"id": "08333f0e3cb54fada4248f95d21e386a.16", "url": "https://lh3.googleusercontent.com/N3SW2ZIKssjkPXPxJl3Hfw75Mm-hdQHTKY9n9HkM7MTGiiMpJ6up5qDhQbCdfzoYUDj05R2tqyDg9FTdJN7nWh5r3E0", "name": "Billie on my Mind", "lat": 59.28466800000000, "lon": 17.92005100000000, "bs": 21, "bc": 25, "rs": 35, "rc": 28, "ys": 19, "yc": 21},{"id": "08c9d797d4f6473a8c37d0244f123b06.16", "url": "https://lh3.googleusercontent.com/kLhD40e2ZMURkMJ8U_o_2J5gnSqa0cs8U2VsAXKIypy5nP9uoLwTw0_W5nb3mvwOT0XItuex3FRJ1kYUX_cIgG6IDSqf", "name": "Dansbanan", "lat": 59.27023500000000, "lon": 17.99278800000000, "bs": 14, "bc": 37, "rs": 25, "rc": 44, "ys": 10, "yc": 36},{"id": "09cf1ac140664147bbc54d9293849f72.16", "url": "https://lh3.googleusercontent.com/8o4AAyfgw43B_5oAaUFtOnubFAl_MKekWGjfuqLMZ0mtlGCH9L9xAhQYWx5ENmdDwbJ4WNRtW-7BEqFRgQ1DjzmNdYlB", "name": "Fröken Ek", "lat": 59.31161000000000, "lon": 18.02815400000000, "bs": 18, "bc": 25, "rs": 22, "rc": 32, "ys": 30, "yc": 28},{"id": "09d689d9a3e04f9aa5914a4a4e84ef13.16", "url": "https://lh3.googleusercontent.com/MiV5yC5pwbGIHiZROeC8o-fJ_6dlJlS6Eue3xgtJttvNb4RoNOrxS5B1AlyiD2aa7kDkH2q9G0hKBSgoqwlek1iYEOG_", "name": "Gärdet Subway Station Elevator Entrance", "lat": 59.34692300000000, "lon": 18.09969500000000, "bs": 6, "bc": 51, "rs": 4, "rc": 42, "ys": 6, "yc": 51},{"id": "09e21b7317604bdcb9840cfcf02767be.16", "url": "https://lh3.googleusercontent.com/qo_0GTkMNvCCw92-w-H7m0V8ZZlXOYezxtCpxHy8yYMREbc5Q-RhNojFLHXrFwhieWpEFBby0hB4q1uM7io1kCmKEkWo", "name": "Varning för stora barn", "lat": 59.30292400000000, "lon": 18.09168700000000, "bs": 5, "bc": 35, "rs": 32, "rc": 52, "ys": 6, "yc": 28},{"id": "09e6dfc4d39c4a89990daddbbe209489.16", "url": "https://lh3.googleusercontent.com/s7ZulKOfYvmAA3rf-EBjl_oo9JvLOlzIHgeF5FhuCW263pDEjBs_tV6zqYrMCIIctLl3l4hf3uIOtIci_pZ2sHJCAw5duBB0wwuJoQU", "name": "Kämpakumlet", "lat": 59.32187900000000, "lon": 17.96854200000000, "bs": 19, "bc": 19, "rs": 48, "rc": 29, "ys": 22, "yc": 11},{"id": "0a6fdaa0f68c47ceac07afb13902970e.11", "url": "https://lh3.googleusercontent.com/882lMK4Y-VEVR7XmuqRNOINkK3nwC0xmPDWgxoDGWtB_BVyJ0AIpEjiXFSiNzqme11g68pXfjAou9LoHeI5FFpHPTN8", "name": "Grekisk-Ortodoxa Kyrkan", "lat": 59.34595900000000, "lon": 18.06256500000000, "bs": 13, "bc": 88, "rs": 8, "rc": 67, "ys": 5, "yc": 43},{"id": "0a8e3056cf904aa2a7166a876b308e22.11", "url": "https://lh3.googleusercontent.com/mylSYtsc29qV0AMPDUhDvJK8sVTbwayko6TvQ3qcFmyEU_YIotqxOmrYUdTh2BAd8o9QV7z4k8SVWBB0Dec4UznrUw", "name": "Fruarna", "lat": 59.28571900000000, "lon": 17.96328300000000, "bs": 13, "bc": 51, "rs": 16, "rc": 51, "ys": 13, "yc": 40},{"id": "0ac388173323450e9ac1781a8729b8fc.16", "url": "https://lh3.googleusercontent.com/bWvZHLjnRboz9kWD7EUiXh-PC1ewQDipnxmhzBfOs23H4fJW8Uz-b-nKXXPB37I8ZpfLbKmNviBQnkpEi8IdniLZRAUy", "name": "Kvarterskyrkan Mariehäll", "lat": 59.36092100000000, "lon": 17.94985200000000, "bs": 20, "bc": 27, "rs": 16, "rc": 27, "ys": 28, "yc": 37},{"id": "0b1703b88eb2400cbcdd3fa68c10616a.11", "url": "https://lh3.googleusercontent.com/uIXDO4m8HQ-h1V3Mz2Mlod9URB48xSfbeSq0wf-9bgVqlGFINq2yv3Vs73jpKv9rBcI1mcgcv-9yuZxb9ltMznxhzWY", "name": "Stockankaret", "lat": 59.31514500000000, "lon": 17.98732400000000, "bs": 7, "bc": 44, "rs": 12, "rc": 46, "ys": 18, "yc": 63},{"id": "0ba344c8eb7e4f069660d3c1649c34c7.11", "url": "https://lh3.googleusercontent.com/o63yQvf_jvxMxbrJIOqffb_UFV4Ydg2GwXBtFftBvSQMf-1KveJR0qCkcjAEV5qNVptv47CslxvivhKp1zmwSZgNaBoC", "name": "Yellow Sculpture", "lat": 59.33815700000000, "lon": 17.93832100000000, "bs": 13, "bc": 74, "rs": 9, "rc": 67, "ys": 8, "yc": 54},{"id": "0bc61b22405a4cb3af05e12600243fff.16", "url": "https://lh3.googleusercontent.com/cW77_A2PUO56EVGzmxGydi747CmZ3KGlA3OAHmvt9McyMvDg8_yLZcSK494LrS27cMAFAt9mGxC4JDUAECGLeZAF6lg", "name": "The Old Bell", "lat": 59.36614700000000, "lon": 18.07513900000000, "bs": 17, "bc": 42, "rs": 16, "rc": 34, "ys": 19, "yc": 36},{"id": "0c2155e07e8a4b278c349e711ca4bbfa.16", "url": "https://lh3.googleusercontent.com/9uTmlQZl1Q16cJ5MBxqxdbeJZzxqGu4G9ba82xwG9KrozrU3rsquPvDIk40RhB2ogss2-TqD9Sk0L-EuwlRGkyvvJVs", "name": "Lekplats Margaretaparken", "lat": 59.28217100000000, "lon": 18.08408500000000, "bs": 16, "bc": 47, "rs": 11, "rc": 35, "ys": 17, "yc": 52},{"id": "0c243f69d2004672a3b3051a8efec2f0.11", "url": "https://lh3.googleusercontent.com/sgydVzoL22fn8ph_YwFYAtijNyZahrx3H-RRPxDvqYlrWXGYMSIaEElDPWss5rh9Qi71oTT6JyVNr5NhKPLr8BzVe1A", "name": "Katalanskan", "lat": 59.31660000000000, "lon": 18.05598900000000, "bs": 9, "bc": 78, "rs": 14, "rc": 84, "ys": 6, "yc": 35},{"id": "0c4d36f507344ac8b8c8944ba181e4cf.16", "url": "http://lh3.googleusercontent.com/c7hA8ZmRPcbSa5lvP6h2TzkJ-5uRtVm_NDhLbU444ZbDZYIia88FdVSliCzx5IPRoDr4z6PHAdWexXIObjc1rEWiflY", "name": "Lusthus", "lat": 59.27303700000000, "lon": 18.06567300000000, "bs": 21, "bc": 45, "rs": 12, "rc": 25, "ys": 17, "yc": 43},{"id": "0c59602c044e43a480af3c82f755024b.16", "url": "https://lh3.googleusercontent.com/4RaYk6-V98OeOmO3Gux8u9ogCYmAhpriQGgZWUxdp1zSEQ1KLigU31A8qzdv-qIRrSW_183291Y8SZLj1lwb8JjbPQ", "name": "Sprallens Dansbana", "lat": 59.30375200000000, "lon": 18.07214000000000, "bs": 19, "bc": 47, "rs": 17, "rc": 40, "ys": 15, "yc": 30},{"id": "0d6cfbb4f4544f74a7a9de467b1e9234.16", "url": "https://lh3.googleusercontent.com/E-uAVvyDHv0sw2-dq5oZLmKqFeM3BRlMbUmwpncelPeQjE2s-rviQYVF5puhFA6qyQ_qx2SvBSThP-ZkqQ9Yt7KZFY4", "name": "Piren Restaurant", "lat": 59.33838100000000, "lon": 18.00139800000000, "bs": 20, "bc": 69, "rs": 9, "rc": 48, "ys": 6, "yc": 33},{"id": "0d87e541118b4523b45cab92d32e3ff1.11", "url": "https://lh3.googleusercontent.com/JxjgTGvAx32yjXKInvgKLimnhpRM_fTm4z2eioxD_vPEUctjyGKz0U-lOJf3GMKi4IutyrsKLXE-URcjgb6HVDm-PVQ", "name": "Sleepy Johan Runestone", "lat": 59.38802500000000, "lon": 17.80576800000000, "bs": 10, "bc": 45, "rs": 15, "rc": 19, "ys": 26, "yc": 49},{"id": "0db1e6a61c504d8a8a57e61d77df2f39.16", "url": "https://lh3.googleusercontent.com/vQ_gnb4icfPPhMEPF3otXGVmVhNoqjFJwnyjOYHlmIDCU7QD8qje5V90Jxl92XRa21SUqmF_uSYBslfbhltqrOUPrCw", "name": "Råcksta T", "lat": 59.35461200000000, "lon": 17.88189000000000, "bs": 16, "bc": 54, "rs": 16, "rc": 46, "ys": 11, "yc": 37},{"id": "0e64ada8987e4feb83460a0a8a093f60.16", "url": "https://lh3.googleusercontent.com/1hyn8vkGWs_WANka0G3XkX4H7F7RwJRRku-XxrY2qM--vZJQBHtGXapcXwk40Naok_LNMx5B23dfe1oLBu9JIdJ67A", "name": "Högdalens bollplan", "lat": 59.26597700000000, "lon": 18.04038000000000, "bs": 12, "bc": 49, "rs": 19, "rc": 63, "ys": 9, "yc": 26},{"id": "0ef69c53b0ad490c987c4f6da5109304.16", "url": "https://lh3.googleusercontent.com/m8ZEcpPD_62yp2d4wISSokH5J_ZKQce2bhEPA137hNPOlOr7a7vmCxe1p8d7z_WlVnuge3VGhQE_YAuRHgBeWRGEFF4", "name": "Tornberg 1916", "lat": 59.33275500000000, "lon": 18.07567600000000, "bs": 14, "bc": 55, "rs": 12, "rc": 33, "ys": 16, "yc": 52},{"id": "0efb8f282d8e4dff9c23445828520bf5.16", "url": "https://lh3.googleusercontent.com/8FhsDREJBnL6Y4GCD88Eo4sUMVrkTmfA-bT6-oNdDzOVbk970BIsVWbR9vvVRs6jQ3puGAT6bTFS-w2UDM4bOqei2cU", "name": "Stegrande Häst", "lat": 59.38181200000000, "lon": 17.81071600000000, "bs": 5, "bc": 43, "rs": 5, "rc": 43, "ys": 21, "yc": 76},{"id": "0fb99c98ebf340598965452726b19247.16", "url": "https://lh3.googleusercontent.com/K3_SzyM2zvvIQKafwwzudhCSSrzZyje8NGWGbae8zFEg6GVi5Q0ECJuK55KlzfJ_iCkoaXhFGHpyj20DvVeTeEdv580", "name": "Lekplats Rädisvägen", "lat": 59.37999000000000, "lon": 17.83564300000000, "bs": 17, "bc": 42, "rs": 13, "rc": 29, "ys": 22, "yc": 42},{"id": "103ca165508945a882a0a1bc0c664748.11", "url": "https://lh3.googleusercontent.com/ZV0YwIOsU0RzJPCYikFap8NCI7PhG_pG_KGa01wchx5J6xawNJJdBRdQjqmrsFEdoQdM8HYINtVema_rW7X_yXOJaBY", "name": "Baltzar von Platen", "lat": 59.34757800000000, "lon": 18.07451400000000, "bs": 11, "bc": 83, "rs": 8, "rc": 63, "ys": 11, "yc": 57},{"id": "107ceeef083146b09c773ff7c413e782.16", "url": "https://lh3.googleusercontent.com/YDitM8kGt3eXgVh_0JK_RlE3qhQ6aw9Y1tZ3rwtiUjiFwvmOxc0m2NKqWaIy-iMDSKk-6j2Vhjw7cuOWMxdOtFSqRMp5", "name": "Rinkerhövdingen", "lat": 59.38452500000000, "lon": 17.93146200000000, "bs": 6, "bc": 30, "rs": 20, "rc": 59, "ys": 11, "yc": 64},{"id": "1106a8fd5a0649219c10fa19e79159c3.16", "url": "http://lh3.googleusercontent.com/8KNgtPSeU8T4z2wbM6-DixgG4bUZvg2ZwlFUSx4-J8K0H1RtwugIWrsAsYEq7IMbqzg4VBwOg1JgkAuiEMTFw-at5XQ", "name": "Lekplats Norrgården", "lat": 59.29436500000000, "lon": 17.94365500000000, "bs": 13, "bc": 80, "rs": 7, "rc": 27, "ys": 11, "yc": 72},{"id": "119e75e7b6224788806af37add216317.16", "url": "https://lh3.googleusercontent.com/mclB9tFGwAFqI7Ay-s2IktMfzlwCmPIo12dfEMJv_AF5RIGn0ndBc82ffU_4cIPpIWupAS1SLSz5ibG_stOlS0tCcHb_", "name": "Globen T-banestation", "lat": 59.29449900000000, "lon": 18.07827400000000, "bs": 11, "bc": 59, "rs": 11, "rc": 44, "ys": 15, "yc": 58},{"id": "1209c4e4d19741b3b25d685726e8733e.16", "url": "https://lh3.googleusercontent.com/B2zN8wVNaCYFqbeCCHZ4UIMOKtRT-4YhbHEhv5gnGj2USPhHXFfZAdOaWx9MhenQicWlP2N0PuWOLSsgxwfJ68j1_g", "name": "Klätterställing Stora Bas", "lat": 59.38571700000000, "lon": 17.86166900000000, "bs": 18, "bc": 37, "rs": 19, "rc": 47, "ys": 14, "yc": 31},{"id": "123da8e03be0440baa92e37848a432a6.16", "url": "https://lh3.googleusercontent.com/n6YYbs1lxcGGmBnXf-XRZRikSt5aJT2VA1EdyGfa308yiv_DrbKT7XtwtuiSQdxUU8r9tmtZJAS9QUV8keXk0R7X6lc", "name": "Näsmarks väggmålning", "lat": 59.35573600000000, "lon": 17.94525500000000, "bs": 18, "bc": 50, "rs": 14, "rc": 43, "ys": 12, "yc": 39},{"id": "123ea64125c7408081317d437e91bc20.16", "url": "https://lh3.googleusercontent.com/xW3pLdWidU6R-wXGPNDVzrdwrF4GrODxMdRwNTkssi4RVeTQ3jK_cyA0xyH8X2LarKsX6QmGk4RzHiYxVEohUR755Q", "name": "Insane", "lat": 59.32369100000000, "lon": 18.09566000000000, "bs": 8, "bc": 71, "rs": 10, "rc": 66, "ys": 13, "yc": 63},{"id": "126c1b5e712b43a7b573138c57a8d27d.16", "url": "https://lh3.googleusercontent.com/b8sBkVP4cfdsTFK5ApC-G6M6znrlpOWMOP5nUVQvBVveYquKE3x6Guo9Q-hh-LgXtDUFGbSvEEOnPqOua3mwY7SHHxtP", "name": "Kungsholmens Baptistkyrka", "lat": 59.33091600000000, "lon": 18.03539200000000, "bs": 10, "bc": 74, "rs": 4, "rc": 39, "ys": 13, "yc": 86},{"id": "1291e047da544afbb89fff76ba53dd9b.16", "url": "https://lh3.googleusercontent.com/taAEEHdQ4FE0A_VT_2YGTbJb4kP9yeJZ2LvVbAh2WXiTyj28BsIddlu8P1Bij8H3BNwsJCV-bGKNhtntH5wJX_kXaRIG", "name": "Örnsberg Subway Station", "lat": 59.30551800000000, "lon": 17.98909200000000, "bs": 16, "bc": 54, "rs": 18, "rc": 46, "ys": 8, "yc": 37},{"id": "12a59e44bdea48d5a983a2937b6c5270.16", "url": "https://lh3.googleusercontent.com/J2qbFRizG9dsm3PzKv0ZidvBgDkaOkaKxeNZBSj9-KrIFUArYbbNJtJ4azLajsth4Hg7MdAYiHN5HiFK7uqnBon1QE0", "name": "Mystery House", "lat": 59.35356600000000, "lon": 17.93383400000000, "bs": 23, "bc": 6, "rs": 44, "rc": 17, "ys": 67, "yc": 14},{"id": "12a9b18b6cc74650b03dc20dccdc26a9.16", "url": "https://lh3.googleusercontent.com/Qk71d86PWDB1sbO7_-1syRHTLKrLtgaYU2NdW0HV-LxPK_0fOgeSOtztvaLlrFLNxZPhnbYn8H8a3GDlnhdcaIuHCXA", "name": "Regalskeppet Vasa", "lat": 59.32810900000000, "lon": 18.09143700000000, "bs": 14, "bc": 68, "rs": 9, "rc": 62, "ys": 9, "yc": 55},{"id": "12e5151dea484f3e8ce1cb0b1e6d723c.16", "url": "https://lh3.googleusercontent.com/R8tS-eHTsp18hnMogd9jiwvBRf1G6LQG8s9Gch2oLS0lvPIrRd4zoRp-neMpm-TKOdgh0oFuNtDH34fQcCbpovlIkpk", "name": "BBG’s Lekplats.", "lat": 59.25507200000000, "lon": 18.11717900000000, "bs": 12, "bc": 29, "rs": 7, "rc": 29, "ys": 29, "yc": 50},{"id": "137784d164af47fe91f0a84e9988accf.16", "url": "https://lh3.googleusercontent.com/l-hPxQZH_X_GBpIpXeiOe3fZyfnxtMa4tNH8-bB1PmKVcXnkbxg-MSaSRTlm2B2jdibdhBVm_HDW9GhtE5a1bLrnwjI", "name": "Gyllene Sol Med Klocka", "lat": 59.33196200000000, "lon": 17.98987300000000, "bs": 21, "bc": 47, "rs": 20, "rc": 42, "ys": 13, "yc": 13},{"id": "13ad2bd4f4a6415f8b386ba30e91803f.16", "url": "https://lh3.googleusercontent.com/cUP8gmsznmnLCjwM9DI-0_cuELZ6jBv_qKWgOO2TCWtNtysU3yCQiTO_ZNigHymwjh5MpjDMlvFOv-jLldlwd5g7GBDM", "name": "Tower of Mormor", "lat": 59.32079400000000, "lon": 18.05119200000000, "bs": 16, "bc": 50, "rs": 14, "rc": 46, "ys": 13, "yc": 44},{"id": "13d7ca59093a47008ede24a115ac7532.16", "url": "https://lh3.googleusercontent.com/GMFR_TQI-y8yw-nBZx65-UgPBvHhn6Y_YhOhC5NCBs_fnHDZwhOmq-0p3ikv6LtJqL1zjk_BVVo_42avzPjZBQosOB4", "name": "36 Flowers", "lat": 59.34473400000000, "lon": 18.05886100000000, "bs": 10, "bc": 101, "rs": 7, "rc": 83, "ys": 6, "yc": 67},{"id": "13e5d5808bcd42b786ba0badabcae0b2.16", "url": "https://lh3.googleusercontent.com/Djhqx7JSxhQO9MNX-t5vP52X1wKTODQac_RJ6R7BZu6rl3mONkl-SoDmTYBMD0EFOYPvSOOqgVi8Hl_hGr0YaM6-bTA", "name": "Wall Gator", "lat": 59.39308700000000, "lon": 17.92980300000000, "bs": 10, "bc": 27, "rs": 15, "rc": 7, "ys": 52, "yc": 31},{"id": "15d80f98a8a648a8a3e68f01b0e9a484.16", "url": "https://lh3.googleusercontent.com/I-ak-rWsN3j5M7KLKHGcmHwPPWaI-3vJFq0283AjycebZI9UTDEeqsl3K1jYwB1xEQM-9vsP86o7iuZIYDzJSDRAjw", "name": "Havsvind", "lat": 59.32940900000000, "lon": 17.98478900000000, "bs": 16, "bc": 72, "rs": 10, "rc": 60, "ys": 6, "yc": 45},{"id": "15dd52a112fa450889f6c17936debb33.16", "url": "https://lh3.googleusercontent.com/aL-owmBnkQp7hEU7Q6Bx_J2yPLO_gJGqm2v2AQa5NGxvE9u86uGqWnOzJZvE6fvH-AAZ9aDJO_5SZpr23TykIKmycoc", "name": "Paradiset", "lat": 59.33645100000000, "lon": 18.01322600000000, "bs": 14, "bc": 124, "rs": 3, "rc": 59, "ys": 2, "yc": 75},{"id": "15e4ef137a8141d0ae0f5a2e803fe053.16", "url": "http://lh3.googleusercontent.com/VKplwgrqQCY1nRIAv-E8EgZNrMWFEyiKajQsRavjAXqwa5cfthl2lNirhoOCF396hrT1m6VK00G6H2seGYsC6h_drpU", "name": "Kråkskär Emblem", "lat": 59.24493000000000, "lon": 18.09622300000000, "bs": 12, "bc": 78, "rs": 12, "rc": 80, "ys": 6, "yc": 18},{"id": "1715d4aa3e6a457989825d547d1bfe2b.16", "url": "http://lh3.googleusercontent.com/RCyxWS33mFW_Yh4F25aHjZJlbzEu3oqPzop2PQazRK5cXaT-e6VoNFeZMOnUT1qN9eFoWCiA_ZVfDp_PwiWSuRZdMw", "name": "Johannesgården", "lat": 59.25303700000000, "lon": 18.12847600000000, "bs": 21, "bc": 24, "rs": 26, "rc": 25, "ys": 25, "yc": 32},{"id": "17c925492db74ad2a942d7fc712181a9.16", "url": "https://lh3.googleusercontent.com/_zn12Xk96OA7gfeEc3bxB-JWLkiNOjCYjfF7qTyqx8ewT5KNJZ3hNQ4B5R6AHcn_SN7DalKaJeIs8BUxZ3VGeZA0IX0", "name": "Blomsten", "lat": 59.31797400000000, "lon": 18.03372500000000, "bs": 6, "bc": 117, "rs": 6, "rc": 104, "ys": 7, "yc": 111},{"id": "181670fdccec4600a0c542916756f299.16", "url": "https://lh3.googleusercontent.com/7C08pF_SLNOe07END2LnKn6QBMJ1dTXqUDCcKpRr6I0Shtlqff4sc_P31xSrFnxdi4Xj6J-zc4VMbXOZddN70_z71egeW0vZlGX9Ae4", "name": "Climb to the sky", "lat": 59.27834700000000, "lon": 17.98985500000000, "bs": 14, "bc": 54, "rs": 18, "rc": 58, "ys": 12, "yc": 15},{"id": "18c2f8f8d4004ffbba6c154982a7e3cd.16", "url": "https://lh3.googleusercontent.com/d_kbpsI9MRgJbxNxvea7lWRTVQnY5fWwGn-zAZlmCAwNAuh_7LBbYqCILONd9wtn91FZ9DeK4EF6f2UYE6012tuhRg", "name": "Det Litterära Stockholm - Harry Kullman", "lat": 59.30967700000000, "lon": 18.08245900000000, "bs": 10, "bc": 95, "rs": 5, "rc": 90, "ys": 7, "yc": 80},{"id": "18e8c664b5ae45e7b2d35c65cf0259d8.16", "url": "https://lh3.googleusercontent.com/MM7vtSfYx5FIcknOQoJL4sbnkF5m3rFwhnZtoRkc_0ahJwcLkbkzfrPD95nMjvg5sQ66MtK4hV4QtPqvn_HUuOEoN71h", "name": "Herrängsskogen", "lat": 59.27733600000000, "lon": 17.97672400000000, "bs": 21, "bc": 40, "rs": 20, "rc": 39, "ys": 12, "yc": 32},{"id": "193fe58632c946c0acf72a21c02506dd.16", "url": "https://lh3.googleusercontent.com/a1cwyBiMhL0G7UhVoTLKwT5-8r0iqCGKTcWhWcdEOX2DMKdRQGL6WWj4A2ri4B-QR-FsAKRoMBlLqRCB1zXY4NcQG14", "name": "Odlarens Dansbana", "lat": 59.25830400000000, "lon": 18.13216100000000, "bs": 23, "bc": 8, "rs": 18, "rc": 6, "ys": 187, "yc": 9},{"id": "19d6063261984ee2ad76e4f004a8ac0e.11", "url": "https://lh3.googleusercontent.com/R0oQWm9OLWJTJyWESVTtPY7LLHhXvIac80H7McEZxedESl-A4V9qnbWjHfx69Z_Z2sAENRILkpaU9oLqBwPHzwtIDQ", "name": "Ropsten Station", "lat": 59.35747100000000, "lon": 18.10327700000000, "bs": 10, "bc": 96, "rs": 9, "rc": 81, "ys": 6, "yc": 63},{"id": "1a894864e1e932ceb3eafe7138906416.16", "url": "https://lh3.googleusercontent.com/QEaZQmlwfXshcBD9w3jXFI9lY1KJtRKbcIYlq9ptOF60ufFpBBxMSk1rVKk_n9J5hr8JYsXcCpx67vi6DI9cE_Mz4k0", "name": "Just keep swinging!", "lat": 59.26247300000000, "lon": 18.08605400000000, "bs": 6, "bc": 37, "rs": 30, "rc": 53, "ys": 6, "yc": 30},{"id": "1af168831afb4d14a3d96d5ba104fa63.16", "url": "https://lh3.googleusercontent.com/z7aRTPHNWn-KSeldDvpQBWZCP8LSRAiy-AliyLnHuaY2jFlQbvRYkh9grYV4tiHcv9zgPfDEEPUAkziF9YSdNyagr3E", "name": "Traneberg fotbollsplan", "lat": 59.33659500000000, "lon": 17.97921400000000, "bs": 9, "bc": 64, "rs": 8, "rc": 52, "ys": 13, "yc": 72},{"id": "1c62cd54190346dc84c534dc63ab1948.16", "url": "https://lh3.googleusercontent.com/rhFueCo-4auTpDZqCiH_9IB3j1CDU_wqpxBLFwgHG1xUtpb64zIW3S4l08Gk44Zdiz22_D0D6qXBxwM7eyAhkU96Pxk", "name": "Flicka Med Boll", "lat": 59.26224800000000, "lon": 18.01463900000000, "bs": 11, "bc": 62, "rs": 17, "rc": 66, "ys": 7, "yc": 24},{"id": "1c78b26ec22e4cf1bb281f937dd34f6b.16", "url": "https://lh3.googleusercontent.com/NQJBCJNSQO4c5w-snQFHfaV_5zrQbvSlWvMuq9utbsQkTCLDeDBBx2IZor8gVFsZhF9RuXMeAsFwOfIvsc2TURji1CPa", "name": "Sigyn", "lat": 59.29408100000000, "lon": 17.97646400000000, "bs": 10, "bc": 60, "rs": 11, "rc": 44, "ys": 15, "yc": 63},{"id": "1c7b4b17d26e43dd932b1ba6f33378e5.16", "url": "https://lh3.googleusercontent.com/m19jvJPTIwvg61yB-3EDwsofxhuXd-mq8BBHgkrBgiHweXDWmEbvX2W_RPpBfmjv8KZVdK-mXjBo6sHi5yef6I8FXIpx", "name": "Reliefer II", "lat": 59.28128100000000, "lon": 18.01285000000000, "bs": 17, "bc": 30, "rs": 17, "rc": 33, "ys": 28, "yc": 34},{"id": "1d5b4d8e02ce4a82ac3cecdcf103c5fa.11", "url": "https://lh3.googleusercontent.com/mKqgONkk1XCa9g8o2ouVvFiJv40xn9vJSZ9YgMOraXE_lJsxtY9BdzqwQ43U4CgPDwBNrYn3Va_CTY1ONyHKLd1gYNA", "name": "En Röd", "lat": 59.31174400000000, "lon": 18.02146200000000, "bs": 17, "bc": 53, "rs": 13, "rc": 42, "ys": 11, "yc": 50},{"id": "1d671b6e2d2e46fa900fa9c2b549b53a.16", "url": "https://lh3.googleusercontent.com/rwpskIMtjTmhhOzPLp0udCJWg9YEdtJLYJAp4qCLGXQ2KWLvwnQnOVnPCRHyqoc39U0SUaChZ-vPBiBhR6tZqzDb-HIrKowOQnM7rl0", "name": "Pizzakonst på Tina Maria", "lat": 59.27506100000000, "lon": 18.14607700000000, "bs": 8, "bc": 64, "rs": 6, "rc": 34, "ys": 16, "yc": 81},{"id": "1d6c975508dc4fa8a05c6844265c289a.16", "url": "https://lh3.googleusercontent.com/aUKKdKA_ZnKIgS3gstIT8o8jyc_qGO7qIEYq6DS74qHerH1U3r4008AiEh_KVuwQjhO5oMev9Zqd0g90xZvhWUeJyg", "name": "Igelbäcken Bro Nummer 13", "lat": 59.39526400000000, "lon": 17.93722300000000, "bs": 12, "bc": 34, "rs": 25, "rc": 46, "ys": 14, "yc": 33},{"id": "1e3fa2203eb246a0ae09425700af8827.16", "url": "https://lh3.googleusercontent.com/dgBf_Gur5pB2GRKagZjtbfMTsnZFvDPslNXBNZdgaImcghcGlnc7NhknW4Et3JTrp5Deks2XdbRCu8-kjhBia-a5Wjs", "name": "Långsjöbranten", "lat": 59.26713400000000, "lon": 17.98199400000000, "bs": 15, "bc": 61, "rs": 15, "rc": 65, "ys": 14, "yc": 8},{"id": "1e7557d04e414932ba632fda4adc1386.16", "url": "https://lh3.googleusercontent.com/6RwMOR_fqoKL_vR4TXc81exG7udiksR6vbFJDOMGfdwJdcvAFgQ9WE7ttqUZXV6wxg1IcX7EpV2jOqLiTQYcIAu-nQ", "name": "Nybohov Turtle", "lat": 59.30841700000000, "lon": 18.01554600000000, "bs": 13, "bc": 82, "rs": 10, "rc": 58, "ys": 7, "yc": 49},{"id": "1e76545bc3b4464b900298a0e7f0d4e7.16", "url": "https://lh3.googleusercontent.com/zjJBj6sG0UF43LoyIczyJjVIlKkuhfPFaElr7LgW3H6K04ASoGawJpFsIPR-ap1KRxqrklh95jtX-MXqq1obZHduyg", "name": "Kapellet På Västberga Begravningsplats", "lat": 59.28810300000000, "lon": 18.01805700000000, "bs": 23, "bc": 18, "rs": 28, "rc": 23, "ys": 38, "yc": 25},{"id": "1edaa9bc9a0b41ab8995b63df0fb91be.16", "url": "https://lh3.googleusercontent.com/LX-gxrcxNXrZo7EI3zfb__mKEVcligBNQKp6cK6THEVLi-vvNRwRZ-IpKagTHk-bnVYgvRylBCpD5YBINHHzdH5WXq8", "name": "SVT Fontänen", "lat": 59.33540600000000, "lon": 18.10121600000000, "bs": 14, "bc": 48, "rs": 18, "rc": 42, "ys": 14, "yc": 39},{"id": "1f0bb2e6aac53b3985293f2e9f6277bd.16", "url": "http://lh3.googleusercontent.com/Fg_y2hAr3GYkvbpZiy7X0lL6Irur5jbo-x71gbEKB1POeVPjY6310nZ2OQ4aytzQ0rOH9X6wx7gGdy24AWTAFHiWIX1CZXOT-2lCchs", "name": "Lekplatsen vid Majrovägen 23", "lat": 59.26101000000000, "lon": 18.07956600000000, "bs": 17, "bc": 82, "rs": 4, "rc": 25, "ys": 7, "yc": 69},{"id": "1f18d6a965204187993b91680391a940.16", "url": "http://lh3.googleusercontent.com/iTLHU8_P5BrnEJNLgnTJ5-_tOI5k14TDX6o_EkGLs0zWu8GVTV7U75iUZMy5lXA2kjm0Ojc-sfdhtbLqJR8u5kYOP0c", "name": "Spelplan i Lindeparken", "lat": 59.29334100000000, "lon": 18.07106600000000, "bs": 21, "bc": 29, "rs": 21, "rc": 26, "ys": 23, "yc": 35},{"id": "1f2e0b4b70d64c24b7f8550c07fae41c.16", "url": "https://lh3.googleusercontent.com/LbHackOSvMcq4yaHIpdHbBVxWVhMhhppRRp-4dAZrb9hJEXHPRWP6uguMJzUHDl1xt6PB0jGHTnS6YZuGgJ6RKSLvA", "name": "Harpsundsvägen 51-53", "lat": 59.26273100000000, "lon": 18.04538700000000, "bs": 20, "bc": 45, "rs": 27, "rc": 36, "ys": 8, "yc": 14},{"id": "1f9983552afe4fa28b7a25ac83e9c576.16", "url": "https://lh3.googleusercontent.com/WSq0rI9JAsBVOIvkNJshQheQM6vlt0fmioS4UwVqyipXFOFazR09tW1O1Sk7tBHO8hxLrjYk1C568D-VXMMv_oR13fA", "name": "Bandkonst", "lat": 59.35141000000000, "lon": 18.11300100000000, "bs": 17, "bc": 44, "rs": 11, "rc": 44, "ys": 16, "yc": 50},{"id": "1f9aa54c3c8e43f3ad5e611972a703b9.11", "url": "https://lh3.googleusercontent.com/zdL5zs8SSrJIu6ViQ3nE-8arH8ewm9BnrOXJBS2TT38S3juHEYdtd5fm-ydiPNr-6KTYLU4shd8RK0RaUlotjBf1cPQ", "name": "Katarinahissen", "lat": 59.31993300000000, "lon": 18.07320500000000, "bs": 9, "bc": 86, "rs": 9, "rc": 85, "ys": 7, "yc": 60},{"id": "2030fef74fa04476a65d00da0c4eb72b.16", "url": "https://lh3.googleusercontent.com/CCkm-nvJuECx9xewHngoDwI_ZUW2pTki-DOuS89R0jqoE0BcUBbTvz3CpyTpsZNVAZ4LSl286Tyk1jgqlHQ4yJEvsmA", "name": "Kupan", "lat": 59.28169600000000, "lon": 18.01298200000000, "bs": 8, "bc": 24, "rs": 15, "rc": 34, "ys": 27, "yc": 47},{"id": "20c47396fad3459fbf2888f52a675ccc.16", "url": "https://lh3.googleusercontent.com/hIwvfYK2YAuPssoVagMoLOU4LcakDOzHNFIZ3k4tHCHY0TXbT7S7u0va_Iz9qoKgZjr20sf4F32OURPdwgtyJvj7aeh2vmeblIq7VsDnLg", "name": "Tigers", "lat": 59.28374900000000, "lon": 18.04247000000000, "bs": 4, "bc": 80, "rs": 14, "rc": 99, "ys": 4, "yc": 61},{"id": "21d8d3b6ed983655817e3e05888fed06.16", "url": "https://lh3.googleusercontent.com/SdvgOSMvRHjDwWtm8XlB_EgBEyOCa14VSbBljD1azoapvDODRMa1Qov1Vi-DFc1ATpOe3U7aL-HYsPf2gnIxqg22ObNftmR2o8rdoQg", "name": "Anslagstavlan på Hjälmarsvägen", "lat": 59.29884000000000, "lon": 18.05509500000000, "bs": 18, "bc": 40, "rs": 22, "rc": 41, "ys": 13, "yc": 27},{"id": "21dcb7e1f64644b9a3a5913855801632.16", "url": "https://lh3.googleusercontent.com/laXW6gm1hBjwIc_RehjsgX7I4oJb-y8Tuf9SrJED2L89VlwFu4e4OfpUlmn0Qoryqfy8nMh6zMkF_aNhCJSX466FKk0", "name": "Sandvik", "lat": 59.29037600000000, "lon": 18.00703900000000, "bs": 15, "bc": 47, "rs": 11, "rc": 35, "ys": 15, "yc": 59},{"id": "223b019f2ed14264a198e02c805379ab.16", "url": "https://lh3.googleusercontent.com/zLv1cH-suf8YScnveh0I8oPxT_I0orAcw3kC9LsDTcl92VPApzmThov4_xx197N_S9CMVxKS_TW6LQ9MBpw5lKe0RDbR", "name": "Älvsjömässan Fountain", "lat": 59.27702300000000, "lon": 18.01519200000000, "bs": 12, "bc": 67, "rs": 13, "rc": 47, "ys": 9, "yc": 66},{"id": "233f758b41e5432886462f70311faf4a.16", "url": "https://lh3.googleusercontent.com/30fxlhRK7YnnyiszDEPze6xk8qWD-nfwZ5PpC7Gj9nJlEcjEvap2nooWoE4s5BKDi35HtMHvRBdVQW_bTGqQN1w9Y9U", "name": "Liljeholmshissen", "lat": 59.30536300000000, "lon": 18.03604900000000, "bs": 8, "bc": 73, "rs": 10, "rc": 96, "ys": 7, "yc": 71},{"id": "238a2333fe64428ebbe26f4a41358d43.16", "url": "https://lh3.googleusercontent.com/D2rnJaBVsUMxxqQMlIoNUb7wk_FQ5xAzCNCMGZU8cFFj89av1x86r80gevlIRRNKbxiX3iF-4sjW8326mJ7g8dQHBwA", "name": "Triforce of Water", "lat": 59.34781600000000, "lon": 17.88404100000000, "bs": 8, "bc": 83, "rs": 14, "rc": 84, "ys": 3, "yc": 43},{"id": "23d0146d46c04f05b70a554fd30e4a41.16", "url": "https://lh3.googleusercontent.com/IrA9ZVWv4J3ADLxACqM6dgOxBI9eGOxCucC8YAuPOmPR5b007pl6d4xk8rFnvq3QJquJOA0riV2oPbEL3C6LvqdRrsq3", "name": "Bellmans Källa", "lat": 59.30345500000000, "lon": 17.95579900000000, "bs": 23, "bc": 33, "rs": 28, "rc": 34, "ys": 13, "yc": 21},{"id": "23db2a37a5ff406c82bc43b1a1650e69.16", "url": "https://lh3.googleusercontent.com/0o-kYS7pRbaZEgpV1_WkuUaoesJNllnVEdVO_gx5qzzleRwr8OgXx9lqHAFB5Xc_66mZAa_RyisEwr03Fz9NCCrAl0s", "name": "Krumlor", "lat": 59.34087800000000, "lon": 17.88103400000000, "bs": 8, "bc": 50, "rs": 18, "rc": 63, "ys": 8, "yc": 54},{"id": "24283bede27840b4b723b6fceabe76fa.16", "url": "https://lh3.googleusercontent.com/P19y0stdgHqUNU82gHYhpYayBSEFzyj_h_JGlOyYbRhEc7Q45JOIjuYK22TpDcUJLxlrhM5Kui1GbsvInYGiZpHLtvE", "name": "Råcksta Begravningsplats", "lat": 59.35456300000000, "lon": 17.87526900000000, "bs": 22, "bc": 33, "rs": 22, "rc": 47, "ys": 8, "yc": 31},{"id": "2456d52086db4b85aa1c741dc6f9fcf9.16", "url": "https://lh3.googleusercontent.com/KkfzjsJmTdrmdgw7hSIqYpHSny8em6MO9sJ3DoBRz57zUu6AHjOsog1_vr6hwkNNtKHli-V_rkFNnF5-kCIq7jrVWkN7", "name": "Fruängens Centrum", "lat": 59.28597000000000, "lon": 17.96365700000000, "bs": 11, "bc": 65, "rs": 12, "rc": 71, "ys": 9, "yc": 52},{"id": "2457be009ae2457cab42693e96a150a6.16", "url": "http://lh3.googleusercontent.com/EwJJMJQGcbx6eHtQLxxbOdEdJmLuhHUmD5NAfn-LgVX1cYph2p_2UKZjAjUI2RdkdfUFkohaCWk0UR2qPgVW8Dhfhn4", "name": "Lekplats Ekebergabacken", "lat": 59.24974600000000, "lon": 18.10285700000000, "bs": 3, "bc": 82, "rs": 20, "rc": 88, "ys": 6, "yc": 5},{"id": "24901520b5e240fdbcb0f67d28a9a358.16", "url": "https://lh3.googleusercontent.com/wdYhvRMHvbN-PhxR-LIFUKkvwRM_WqBEe0bLZxGDgVrYA-MsUt8zzttPJ8Q1xbAXyVmoMQyHGqFG49a5nAsmB4mmNX_w", "name": "Askrikegatan", "lat": 59.34422700000000, "lon": 18.09759500000000, "bs": 7, "bc": 43, "rs": 15, "rc": 37, "ys": 19, "yc": 56},{"id": "2594c75cb8a5445a87cf9775cc23b6f7.16", "url": "https://lh3.googleusercontent.com/Oo8Xv6RP_w7UKpVfipoen3I-peNSQoOe9aHl1P-Q1pGcFfkqk5K8QArUgPOYwkrpAxvnxa2hH6-gpsbPZTF7nKJRVMs", "name": "Tyska Kyrkan", "lat": 59.32406500000000, "lon": 18.07137700000000, "bs": 5, "bc": 103, "rs": 8, "rc": 131, "ys": 4, "yc": 97},{"id": "2611bb4dde06496d83eb080a1a8b3512.16", "url": "https://lh3.googleusercontent.com/jKE0QtfuVZvEYafkWk3DSw0giiPCQvS33sowhpgb_h5zcMOGmYMzFGL2fQbkDOqDeJ-MAoohJaDZXVOLz9gJg-b6F4k", "name": "Kvinna", "lat": 59.31749900000000, "lon": 18.02294200000000, "bs": 10, "bc": 51, "rs": 18, "rc": 58, "ys": 9, "yc": 43},{"id": "273ce299382e4a85befa3abfb6312e8d.16", "url": "http://lh3.googleusercontent.com/-kzGWJtvw9WoJxwA_5H54KttrhR8JyD_YDm9Anc8ejotWEmlLfn3vJNtEPreU_B9hb_7B3cWXiKwfeaJ1bHCJcXeoS8", "name": "Husets Historia (Pärongården)", "lat": 59.25305400000000, "lon": 18.03683900000000, "bs": 11, "bc": 19, "rs": 16, "rc": 41, "ys": 27, "yc": 42},{"id": "278d1e9f610948aba2fc1ac326b7734d.16", "url": "https://lh3.googleusercontent.com/gyIdwsAhIfG-X57D-Sm4VBWis9KRGycpy1FJp28SHaf9wCjOehE0CEGDIkc-yfIBqNsSML8sc1LuqDAnx967SSU_X0o", "name": "Två Damer", "lat": 59.34223100000000, "lon": 18.08345000000000, "bs": 8, "bc": 83, "rs": 9, "rc": 61, "ys": 10, "yc": 81},{"id": "27f442d8675f4694903a41ae620b9a19.16", "url": "https://lh3.googleusercontent.com/Dmai6H0gPZlpIU3GLVqQlJDFYzAXvDBcNIpysS5ZBXve5eO2348USvZx6zuy4yFfeIQEWylUO-j4Y6uQ9gZ23bBn8JU", "name": "Fiskansikte", "lat": 59.29483600000000, "lon": 18.05615800000000, "bs": 23, "bc": 27, "rs": 33, "rc": 26, "ys": 22, "yc": 25},{"id": "281221abb41447e38d9fe627177bec6d.16", "url": "https://lh3.googleusercontent.com/9XdnHEJlxtNmIHVAMSnmGZIayGfJi4m5HRUd6alzmlMPxDnmdSENBvn7vox9scZXARROuWHRxnZ_EeuKpjcLl9IiaAE", "name": "The Happy Frog", "lat": 59.27026400000000, "lon": 18.05044800000000, "bs": 12, "bc": 109, "rs": 6, "rc": 100, "ys": 4, "yc": 27},{"id": "28255e0d7beb44ef8f400234e8dbf4c6.16", "url": "https://lh3.googleusercontent.com/ANIHTjMKF4bAElg4hJ91qDmsOPlEGGZbJ3JCI0IZaNyv0zIlVfJRNMoAjQTEEmA3BfFSTg8EuTqvrmS2CGVYhaf9VUPZQzvVP05Ge2u4VA", "name": "Rinkeby Park", "lat": 59.38679600000000, "lon": 17.92390500000000, "bs": 12, "bc": 6, "rs": 73, "rc": 16, "ys": 41, "yc": 17},{"id": "2871c95e6b55455d980a0b820178aeaf.16", "url": "https://lh3.googleusercontent.com/celVs3H-8RDaKJR7-TdXk68Uq_E3kth7qoOv5PQwLKeh52NyBC7XO2h-51yDh7NutJbTDhx-8msRhZB6p0sQhtM9Bg", "name": "Skålgropsstenen i Årsta partihallar", "lat": 59.29217800000000, "lon": 18.03091600000000, "bs": 10, "bc": 24, "rs": 20, "rc": 41, "ys": 20, "yc": 48},{"id": "28a1d4d3a4724fee9e51704521c9ee97.11", "url": "https://lh3.googleusercontent.com/xItsF8ELVF3XxQQCDj422_HuaTffRl6vH3vW7f4Rt7PLqFkZO6bRdOyi0Zbkh7jJMElJsh7ubWZ9I4GFwpJoPRUBJ4F0", "name": "Ledfyr", "lat": 59.39659400000000, "lon": 17.88685100000000, "bs": 10, "bc": 34, "rs": 35, "rc": 45, "ys": 6, "yc": 19},{"id": "2936d075389340a0bca63f4352327a8a.16", "url": "https://lh3.googleusercontent.com/1poUGSytcIuzXu-cCwoH6ejLHpznLowu7JehWkGUbFBKbWVw9r0v153Usjvu6NsJS3MJCf8mciy9gOuZcLF3J3D-jA", "name": "Kuben", "lat": 59.29356100000000, "lon": 18.04984100000000, "bs": 9, "bc": 74, "rs": 7, "rc": 80, "ys": 9, "yc": 89},{"id": "293b690d4e3646d6bd0f7303b72719ca.16", "url": "https://lh3.googleusercontent.com/ONl39a7eZfOsPaObsaYp546BCg-x8T_fPrOb0Uh8SHrWIT1P74eW4ZJSt0l1LNMlc78XrQlhCYqs0WhSp6hrvbf6Xxhv", "name": "Fries Playground", "lat": 59.28830100000000, "lon": 17.97157500000000, "bs": 11, "bc": 115, "rs": 3, "rc": 83, "ys": 4, "yc": 54},{"id": "2983b372cd7d46928e6e58aada5d4b8c.16", "url": "https://lh3.googleusercontent.com/W2Poom3MHlkr9Ng0mE72Pu2osYzg5InyonJOIC5PRXp8Oo9eqNugXQ5XCHTre02tI-BZ8KmhTy7CRrCzEKAl-7-H3ls", "name": "Hantverkshuset", "lat": 59.27077800000000, "lon": 18.04539000000000, "bs": 10, "bc": 26, "rs": 8, "rc": 47, "ys": 23, "yc": 61},{"id": "29c66b578c274875b61525c56272b42b.16", "url": "https://lh3.googleusercontent.com/Mpip8MI5DSpWyzj5mZPkVZtZPpsC7b1Q8WyVWk4QsFLe0UIOoazm3oBf0DGhUbNs5y06AdFDqzTrjwFV49qEoJCddq3f", "name": "Tiny House", "lat": 59.28785700000000, "lon": 18.09895900000000, "bs": 14, "bc": 52, "rs": 21, "rc": 57, "ys": 9, "yc": 13},{"id": "2a1e5ab2381a451c9075bea1b112d571.16", "url": "https://lh3.googleusercontent.com/YQ_C0rcEsd5HJJA3XCUZtrZny1yNDZ2wAst1i_C0ErCLx2GtCbbM4qQbkk57ren0EUQS8T6TrB-FuZf2ASPvSuRG_Qo", "name": "Stora Katten Tinker Bell", "lat": 59.26904800000000, "lon": 18.05113600000000, "bs": 7, "bc": 82, "rs": 13, "rc": 100, "ys": 4, "yc": 31},{"id": "2a64fc801c4d460484cc18dbbd856a39.16", "url": "https://lh3.googleusercontent.com/GhZF5szHbr5eAv7dG0QTmASWcO3vCitD6wfBPabtXNIC-M1FrQxvO4i72qZqyNKJeWE7AQJ2LUqgxHiQNrTfFpUuKto", "name": "Färjan Till Årsta Holmar", "lat": 59.31100700000000, "lon": 18.04057000000000, "bs": 24, "bc": 31, "rs": 22, "rc": 36, "ys": 13, "yc": 35},{"id": "2a88cf5000843a71938f43bb6ad1125d.16", "url": "https://lh3.googleusercontent.com/H7zydVlpdX3T1coi-o7A2HEC_v3xrdWpo_zjV_9p9buZ6s8TbxlutElVMuBV7UMNlayjeZkiGgHZrckturdMCgh1tQ", "name": "Playground Dagsverksvägen", "lat": 59.37725600000000, "lon": 17.90656200000000, "bs": 11, "bc": 64, "rs": 7, "rc": 21, "ys": 16, "yc": 73},{"id": "2a90e48779bb40ba9fe909ddead91fef.16", "url": "https://lh3.googleusercontent.com/AEokaBFJqUku-YQbCDfmynFBytQkjCDG7bkhFcqu52_aBe_cna1PBSVcal0XBQx7y9xT-kVMVQaBUrIJShsizKrhpQ", "name": "Funderande Pojke", "lat": 59.30131000000000, "lon": 17.97016400000000, "bs": 9, "bc": 24, "rs": 31, "rc": 52, "ys": 7, "yc": 28},{"id": "2bb494e668ac4b6eace71c221f2b5041.16", "url": "https://lh3.googleusercontent.com/WHYTR8kSPfHu4hRIqEgcxJw7GUfJjJTpMSf9x8pUhR5zNlPMYBfuyit36hqQL4IQyxNMw0wz4U3JXrVnFMhXm-3pwjk", "name": "Odenplan Tunnelbana", "lat": 59.34291200000000, "lon": 18.04980700000000, "bs": 4, "bc": 122, "rs": 3, "rc": 134, "ys": 6, "yc": 162},{"id": "2bb964a9db1848a388a962c54a3f12e0.16", "url": "https://lh3.googleusercontent.com/eTkgTk4mh2iXDvmTzY4i1wUSZ7NZGPqqmvQN6oh57JYJLXqv1uSYFDqJRgfh_WDfdzaoJWF_Cvf4L7Sn07NeuSkMH5U", "name": "Sundby bollplan", "lat": 59.36820800000000, "lon": 17.92511600000000, "bs": 17, "bc": 42, "rs": 19, "rc": 35, "ys": 19, "yc": 32},{"id": "2c23b9709729461db96b0300892d55d5.11", "url": "https://lh3.googleusercontent.com/s-f67QNfGIqmWWrGOUqqvc8wRCdoRT_NG0tpxsR8SG7dhWaZ2DQ8lbTm6sZpe-M9sfRDwDqQJduyEI6KUrBPQnY3Kw", "name": "Commedia Aeterna", "lat": 59.31412200000000, "lon": 18.06972600000000, "bs": 12, "bc": 92, "rs": 9, "rc": 84, "ys": 5, "yc": 27},{"id": "2c440fa3c85743fdb10cd47097516afa.16", "url": "http://lh3.googleusercontent.com/FFgaB0PVC8gOyEaTqVrnYtqGXbOeJaRwczAaD-wSM0R7R71JDhW27muq3peP6HO-kXhJFm8CsAqk6_bjiGLqqN8yxw", "name": "Bredäng Church", "lat": 59.29577800000000, "lon": 17.93404300000000, "bs": 18, "bc": 87, "rs": 4, "rc": 48, "ys": 4, "yc": 45},{"id": "2cdc4aac66634488838c7e994901d2fb.16", "url": "https://lh3.googleusercontent.com/DsrA7e6QldQXIEv6sA-0zo2JrfDWKfE1QyO_AltiW7i9DWLh92ceZgmnVhe6dMR8ToeUlEAaxBky6j5ynUG7p0_F8dM", "name": "G2 Harbor Marker", "lat": 59.30522600000000, "lon": 18.08655200000000, "bs": 9, "bc": 116, "rs": 7, "rc": 97, "ys": 4, "yc": 65},{"id": "2e8056f6bea249eeb72eaf35bba390c3.16", "url": "https://lh3.googleusercontent.com/iFazFh3kkHl4cFKRqcl1iljkfhPwtwPnMudJHidoni0DNqCNGh9JluvA5GW47xWPqheLYJNLMUDqAh3NExqpbzZJhe8", "name": "Olof Palmes Minnesplats", "lat": 59.33659600000000, "lon": 18.06283300000000, "bs": 9, "bc": 132, "rs": 5, "rc": 88, "ys": 5, "yc": 93},{"id": "2ea3bee9c3184442884459103974cbc8.16", "url": "https://lh3.googleusercontent.com/OS3vWxZUzd0EALd25dhloIMUb3g_FDAswVhN5TYndtYfhNEyELGU1LjHiLHHZSDA-7Dx5MCMF62ufgs0EG09y1uLQch9", "name": "Kastellholmskajen", "lat": 59.32171300000000, "lon": 18.08951800000000, "bs": 17, "bc": 36, "rs": 15, "rc": 27, "ys": 28, "yc": 35},{"id": "2efae8cd9c774b329a83533ad9d3e5c3.16", "url": "https://lh3.googleusercontent.com/cwlIRYiILcdAjsTWTHh7uAsC_MlRtzka-tejDEHQrdRmsNcQTCVVqMY3AUrxYoQLU-p85Mlc4gBLmP9EQwGyuuQE2iA", "name": "Liberala Katolska kyrkan", "lat": 59.32223200000000, "lon": 17.99482400000000, "bs": 16, "bc": 63, "rs": 13, "rc": 64, "ys": 10, "yc": 11},{"id": "2efb50c2f2b9482abd13eb101c5fceb5.16", "url": "https://lh3.googleusercontent.com/hhET_3Lp547zl9E1TbIlgc4F5Uz9d7Wa8yHZobN-O-YNP02rfK9PcvahsDI-Z5bz-kK5S9Fi0BQuDV6LK-GmK2BuVg", "name": "Mälarhöjden Station", "lat": 59.30095900000000, "lon": 17.95692200000000, "bs": 19, "bc": 46, "rs": 17, "rc": 34, "ys": 15, "yc": 38},{"id": "2f1690e93d704149b8be63b0da6182d3.16", "url": "https://lh3.googleusercontent.com/8XWZl085Wx7Ts2Y4zGjmDbgqYxmoam8K65Tr8jXH0ySscZ5uiY5bwKPEpjh95c0LA0QMRIkvm9yh9jyL2uKSiwXNgr8a", "name": "Lion By The Bridge", "lat": 59.26692800000000, "lon": 18.05871800000000, "bs": 21, "bc": 58, "rs": 12, "rc": 42, "ys": 13, "yc": 22},{"id": "2fa3d0f9bf7a46c8918eac862f1d19f5.16", "url": "https://lh3.googleusercontent.com/CjNF39Z5BGjPssoKohFSZIhrPd-VVYZ15_2urM1C2cYrvJXo4ObXvtqjFCVPXp6JMFxvu_MAmjYERn1Y3y31falqm9vJ", "name": "Golden Rooster", "lat": 59.35869400000000, "lon": 17.86823700000000, "bs": 17, "bc": 20, "rs": 48, "rc": 28, "ys": 19, "yc": 18},{"id": "2fbc570988554117b6f918142cbaace4.16", "url": "https://lh3.googleusercontent.com/l78Yjn-3VUqmeaqu5W4Q77soP9BdvHM50xPac4y0QN0MZe6SXj4A-8dtt6AqhJon32e7mliJMeBJCTPFqpn-LTu1Pw", "name": "Aspudden Bara Bågar", "lat": 59.30688400000000, "lon": 18.00726200000000, "bs": 10, "bc": 59, "rs": 5, "rc": 58, "ys": 14, "yc": 76},{"id": "2fc6d57b1eb84183818ce0f85847dde6.16", "url": "https://lh3.googleusercontent.com/i-ap0DuAS0esCo7DLcZVXHe9u6pDdIOid0KlN13adrXVc89nliiRvORsb4PElYwltMgWmXId24bokKm9lopYvJ1HBcfU", "name": "Ormen", "lat": 59.29402600000000, "lon": 18.04537400000000, "bs": 8, "bc": 57, "rs": 15, "rc": 73, "ys": 9, "yc": 50},{"id": "2fec6c7de58347f1bd4acb5767090170.16", "url": "https://lh3.googleusercontent.com/SQnzQMwTow5VRN1rLyeeemVTWqhBwC83gNZbvw0dICf3yNEH_w-Po2fO6uDOrz6un2bd5o3TfLaTxBKed9FTr9cS2w", "name": "Ringvägen 100", "lat": 59.30740300000000, "lon": 18.07526500000000, "bs": 7, "bc": 160, "rs": 4, "rc": 115, "ys": 4, "yc": 123},{"id": "30a71486975c4294add0807001394049.16", "url": "https://lh3.googleusercontent.com/gFBzTWCce6wpYoqmnak9q_0YxKSoU1GoA0b4oYMrn73njOB9XDtOVGoUf_ZllI-PBagtLNJDGO6h_NAdxKjZ46jzmr8", "name": "Sofia Kyrka", "lat": 59.31220500000000, "lon": 18.08793900000000, "bs": 13, "bc": 47, "rs": 13, "rc": 47, "ys": 16, "yc": 51},{"id": "30b38757fcb54d7ca81db12d4cefa9c2.16", "url": "https://lh3.googleusercontent.com/wBdK8xKZW4Z3bmmPuNtZcv5SAXlv5RMwOOobGkLPTdkjpXVkBLBxOzMBlY65d19BxHwNK4j_UQjE6kHwIqwWb1Y0zbU", "name": "Konst 4", "lat": 59.29088600000000, "lon": 18.08847500000000, "bs": 8, "bc": 23, "rs": 10, "rc": 35, "ys": 30, "yc": 47},{"id": "30f13c62399a49c89ac44fbc2d6d0239.16", "url": "https://lh3.googleusercontent.com/Q_6xPHtwRB_YuamrBLgh7ToCJebl804WBpXxd-KvCYH2xLHnI4CON6O5VZr8aOdRkX3lAwn6Pfk6Z6HSzhTO1tWTVg", "name": "Marmorfiskar", "lat": 59.26668500000000, "lon": 18.12685600000000, "bs": 10, "bc": 97, "rs": 7, "rc": 84, "ys": 6, "yc": 70},{"id": "317951467ce44c1b93635fb4d893f19f.16", "url": "https://lh3.googleusercontent.com/yYPshT08UsXEIv_e5d-0a9UKZbMqFj6RZyrOpNt7Rsg1201D6ivMhtUeZdBQbV90Jite0RVqvY93-jug8eJmaVcqt0M", "name": "Kulturlandskapet I Kräppladalen", "lat": 59.24710500000000, "lon": 18.04385400000000, "bs": 24, "bc": 15, "rs": 91, "rc": 17, "ys": 30, "yc": 3},{"id": "324b86b293f04146a253fa79f53c6534.16", "url": "https://lh3.googleusercontent.com/MAf4GbP0ON6XHRtDuHE2XgsYAltR68nod8XFMfTt9vhpFEi624IkLZk3cN634gKQ-1A2v1RiaVad3dJWJgbCDZRD4A", "name": "Drömmarnas sjö, månen som speglar sig", "lat": 59.27880600000000, "lon": 18.00999700000000, "bs": 9, "bc": 105, "rs": 5, "rc": 81, "ys": 6, "yc": 95},{"id": "326487d450574ed9beebea3fbdf85b3c.16", "url": "https://lh3.googleusercontent.com/m9XFOEdCdcw_WfaFuFg3kjngFiMNYd-UIfuHOcy2S7r34yLiZV2WfNxYkgVJAaJUHZE3BnyQMxQQ3r2s9OjxBA7jVQ", "name": "Lekplats Söderberga Gårdsväg", "lat": 59.36265900000000, "lon": 17.89792100000000, "bs": 17, "bc": 37, "rs": 14, "rc": 41, "ys": 15, "yc": 52},{"id": "32b6816a08c74f468790d8c4c0392335.16", "url": "http://lh3.googleusercontent.com/2GzolyEVe-p9aY0DnShvSU-VhadbCCRHLxVWDMrlprx6KMeD2IrZ2OUyPL7aNPJFsCnnUiOTGNkLZO5HaY8uHXAGjw", "name": "Bromma Församling", "lat": 59.33787700000000, "lon": 17.94018800000000, "bs": 15, "bc": 38, "rs": 24, "rc": 42, "ys": 12, "yc": 35},{"id": "32eebff5453748a292f296479c58e9a4.11", "url": "https://lh3.googleusercontent.com/XbKMwGjVLpvZF08eAbU2jUEWOVpeTuay-_xQIaHCbMDgl32i9tJ_qrxripQjse4Hg7WcJ0MYJKli6y8R31-cuZLKYpE", "name": "Non Serviam", "lat": 59.33459900000000, "lon": 18.06566100000000, "bs": 10, "bc": 132, "rs": 3, "rc": 88, "ys": 5, "yc": 81},{"id": "337b7c06fa844274a6b552c172b26c0c.16", "url": "https://lh3.googleusercontent.com/Sn1WEmOu1wD8AKk1LtqDZLdp3HaD96hQbeCmaR_FA2nBksKl-7HGkFsKPU2SXZcx-DDhMtb-hb37pn3YzVBXwzFK5g", "name": "Kitty Cats", "lat": 59.30508400000000, "lon": 18.11254000000000, "bs": 11, "bc": 31, "rs": 5, "rc": 16, "ys": 34, "yc": 45},{"id": "33eb4653ce204268bf60cb1e4964d36c.16", "url": "https://lh3.googleusercontent.com/07TzKxQA5M67eS4onGTKb_HYEVqV20WsgwYzxRPISUklqNC9csKT64RWDKUnjzIaeZRVjc0yT6WaiNnJmtV9gj-M1njz", "name": "This is Stockholm", "lat": 59.31549300000000, "lon": 18.10353300000000, "bs": 22, "bc": 35, "rs": 20, "rc": 30, "ys": 25, "yc": 24},{"id": "3425f144a52e427dae91031c070efad0.16", "url": "https://lh3.googleusercontent.com/yuMogdQx_7sZYg4ZGQzVXcgKIqAbP5D2TbobEntjKVpMyf6ZTDiiHXA7aLj206y3EFn1cY9rH1--hUmPrgz0hf9b6pxv", "name": "Herrängens Gård", "lat": 59.27367000000000, "lon": 17.96085600000000, "bs": 15, "bc": 43, "rs": 14, "rc": 34, "ys": 21, "yc": 43},{"id": "348fa4cbbbfd429fa4ce3eb75b25cf2f.16", "url": "https://lh3.googleusercontent.com/cvj5eaexsPHKQoguOAT-gP50ytiW1UQ5vqMK7y1GNTwaFsx0kxki3q23SN5m6Tonb17ZAxgNTX3sr-n6wW3jknLeczd8", "name": "Västberga Begravningsplats Entré", "lat": 59.28854100000000, "lon": 18.01801700000000, "bs": 19, "bc": 26, "rs": 26, "rc": 20, "ys": 30, "yc": 33},{"id": "356cd8fca2104cc5ac0ed20d21f36821.16", "url": "https://lh3.googleusercontent.com/tN9Ns8Y56R5kxwrdfBUlEi-2me6Sw4fNL7j63KiqRgtMuVZzQk4h2Z5KtS5h7r3MWNAv79zG2DpxLISbxF7Go_3AqmA", "name": "Skeppet Kommer Lastat", "lat": 59.31916000000000, "lon": 17.98318600000000, "bs": 14, "bc": 56, "rs": 12, "rc": 61, "ys": 11, "yc": 42},{"id": "363ca17bb4dc46ad9a43eae110827df3.11", "url": "https://lh3.googleusercontent.com/XoqOmGZUfYGtl2xyGQgvsuL8zGfus_sNLPpqJyZx5KKafKLF_BipcjhyShoYcmQQM_cxVmeo7Y7H31ku2PddcncSn5Y", "name": "GRO", "lat": 59.33463600000000, "lon": 17.97881100000000, "bs": 17, "bc": 52, "rs": 15, "rc": 40, "ys": 14, "yc": 37},{"id": "36608053ed8d4072a872499c436b17b2.11", "url": "https://lh3.googleusercontent.com/_E6tJnMbdxFAzW8MWu9EOobhIP4CJioG0SDYt_4f0gYZvtsxxoE0J8CLru5UOJaMaDiWDWpFyQOlLY3qLI2VxGK4FRo", "name": "Gubben med Geten", "lat": 59.29230300000000, "lon": 17.96821500000000, "bs": 18, "bc": 58, "rs": 10, "rc": 42, "ys": 13, "yc": 44},{"id": "371576402c354588bfa2156bee040178.16", "url": "https://lh3.googleusercontent.com/5MxiyAiCEH3cHn9tkApqLQzb9XO14Uy0fysp0VdCwEc1jlh_ocQI97Xf5qoL06GM8CojqDNHuiukX16F2XcjYNcPsOw", "name": "Lejonväninnor", "lat": 59.25646400000000, "lon": 18.10663000000000, "bs": 18, "bc": 46, "rs": 10, "rc": 28, "ys": 20, "yc": 43},{"id": "375fe272cc02447e86b613dbed0bb375.16", "url": "https://lh3.googleusercontent.com/Yu-AAAi8gHHIk6lyZ3zgfUfeWgwW_-RacdTalPnBoheIDZ1-m6PQSeA9-o4e8GJC57XJXnJxvtoJihbIgH3TEpmnlCE", "name": "Klätterställningen i Önskeringen", "lat": 59.26413800000000, "lon": 18.03722200000000, "bs": 2, "bc": 22, "rs": 1, "rc": 33, "ys": 36, "yc": 53},{"id": "376103ff97b845eabf78fde8c3aca4e3.16", "url": "https://lh3.googleusercontent.com/VePceFmsUXMrtM9KZNSFBeOEhWdoOgdaI00DU8YhS5JyKfYec_-xBUev9NO7-vKPxc59FuVJ-MxUaROoTp2qxW_-F68", "name": "Squirrel", "lat": 59.33482400000000, "lon": 18.01765200000000, "bs": 11, "bc": 94, "rs": 8, "rc": 85, "ys": 8, "yc": 33},{"id": "3772a5cbf65b4b199f6f45a9ccd51952.16", "url": "https://lh3.googleusercontent.com/PB_oZlVOFsTEdHPielRTQon_WrChw0BjkVQLvJn5vm1oqVbtKxkCCkj6B9I5qVO9lQ0QQ2EBRidDFYk4HD9dMWkX_w4", "name": "Storsjöparken", "lat": 59.29717400000000, "lon": 18.04385900000000, "bs": 21, "bc": 45, "rs": 21, "rc": 44, "ys": 15, "yc": 11},{"id": "37d2e8037e7246c5862a82d760e42842.16", "url": "https://lh3.googleusercontent.com/gVF93Gixr-wl3uEQ_mMle-S-dGKD6DGhvOniPfwRVGBdGfbCh8MMuMcrz-FuJICqN-DOssTlqhTipT9nOIQ1y_dKrYQ", "name": "Bok", "lat": 59.25037400000000, "lon": 18.11033200000000, "bs": 23, "bc": 25, "rs": 47, "rc": 22, "ys": 23, "yc": 17},{"id": "391ca972ae714bcabf9d5a1feed76fae.16", "url": "https://lh3.googleusercontent.com/keozzGTT-8sRvbMdU_tzJU-dCp6aUgwJzJQ-KSG_xCnxIAPPPewyfgf_GwmUVLG8QBhSA4UQFtRGz-647GNFjTwGoA", "name": "Smygande Katt", "lat": 59.28370100000000, "lon": 18.11539600000000, "bs": 8, "bc": 58, "rs": 9, "rc": 45, "ys": 16, "yc": 75},{"id": "3950456d8b6241f689eb5b01964c6bf6.16", "url": "https://lh3.googleusercontent.com/iG-o_0Iv8gwjP2WVFSpMxJFn4zyVgFg8o3PF6tgfW2fB6NzbSH9S6GELKosoqcS0umZt1aScKv9DjnKqXDvlh9nhdjs", "name": "Svarta Elefanten", "lat": 59.30900000000000, "lon": 18.06017100000000, "bs": 17, "bc": 45, "rs": 21, "rc": 38, "ys": 13, "yc": 37},{"id": "3974d24a929346bbbb8a8d5c272c213c.16", "url": "https://lh3.googleusercontent.com/cTXSQ_E7iJLo-PvvcP-y1_lejfyP4iSVmbFl0uozc2_XVEJqQtCeeDvFViQhmIuSmXK5rhyO-rtMHNvVByCjxbfko1Q", "name": "Seismisk Komposition", "lat": 59.28382900000000, "lon": 18.11367100000000, "bs": 7, "bc": 67, "rs": 13, "rc": 92, "ys": 6, "yc": 51},{"id": "399e4842e8174e64b48cc1e04be043cf.11", "url": "https://lh3.googleusercontent.com/fwP_HwCa9h-6A8CYE_8jkqEYlWXx0_IJ4TvG0zA3KjLvLRcMOEsWgXw23-4M8_-_dQwNECuTzkgoN8Fu0jvgEJxW5WQ", "name": "Södra Lilla Essingen", "lat": 59.32295300000000, "lon": 18.00435700000000, "bs": 10, "bc": 90, "rs": 8, "rc": 95, "ys": 6, "yc": 52},{"id": "39a18c3c9f1334019bd8eca1a25b0515.16", "url": "https://lh3.googleusercontent.com/hwHd-hip_0u_FA2QJQlX0fzHqEjH1cLexebIZgrnUoiHP09rBJp_R9b2nmbseIm0QeGHzmp9lwNwE5kzIwb_bDRFvWHf0-PfJiAdDns", "name": "Knattemålet på bredaröbacken", "lat": 59.26654600000000, "lon": 18.03439000000000, "bs": 15, "bc": 73, "rs": 2, "rc": 34, "ys": 12, "yc": 72},{"id": "3ab457ec79654327b96dd75488d0fc70.16", "url": "https://lh3.googleusercontent.com/GCrveHsBecVFqWeAoQ6DIpa7zBMa-08n5Y9ZtP44SRG8na_kzi5YCWfMdZEa07Aob73XDb7jKR5EgrJqY3_259hk-A", "name": "Artistic Sidewalk", "lat": 59.35482400000000, "lon": 18.09738500000000, "bs": 18, "bc": 37, "rs": 29, "rc": 39, "ys": 17, "yc": 12},{"id": "3ae9d83fcb7b4ac7889ec2c9ce8bf9c8.16", "url": "https://lh3.googleusercontent.com/7MuqEOdGFRQNp4HAxAmu-FZrOurmU64h3A9jjvh45t1nKjtY20IFbKhVmBGIn2eF307fKht3Df9DoHgxQlaAGvGAfpI", "name": "Örtagården", "lat": 59.37000800000000, "lon": 18.04558900000000, "bs": 19, "bc": 38, "rs": 20, "rc": 30, "ys": 18, "yc": 37},{"id": "3b2e4ca631d74e948e5794c7a2e668fd.16", "url": "https://lh3.googleusercontent.com/w-YD7qYYY1M24COX0YetgGrJQebK16U5AmDIgqJTSCcy4w6bbtXPx-Ljvm5b9LTIwzz0_PoH_20Zr3PPfAxUk37G5aw", "name": "Katt Less På Hund", "lat": 59.30620400000000, "lon": 18.02702600000000, "bs": 9, "bc": 74, "rs": 12, "rc": 87, "ys": 7, "yc": 38},{"id": "3cd45e74898f4bbf9c44103ef3014401.16", "url": "https://lh3.googleusercontent.com/znxNj3IY859y0gc1uBEk0v4tGWuZN-mam9vboT_GX88apLJqAhKFMrSjXBJa8YpnDJVK-hRL8T0hNKVYqhG5QsxjC3c", "name": "Guldkronan", "lat": 59.32730200000000, "lon": 18.07904400000000, "bs": 17, "bc": 35, "rs": 29, "rc": 39, "ys": 17, "yc": 18},{"id": "3cd943524b41465f855c283a49688721.11", "url": "https://lh3.googleusercontent.com/Jw5nElLMvSQtaz9k5uCDet7uhF6YCCsZkraBYurx9_TtLdkMxOG4iYMlKm1lkjOnJEKYJo6VUJCRVUQwb8V5ewjcRDU", "name": "Nils Ferlin", "lat": 59.33154600000000, "lon": 18.06070700000000, "bs": 6, "bc": 159, "rs": 4, "rc": 133, "ys": 4, "yc": 111},{"id": "3d16ae346a5b41449495e7c306ce727d.16", "url": "https://lh3.googleusercontent.com/GmlAQQRbvWhGGtd-oTIbZyuNzgg_yjDTdQcUNc9MnzHNDzutCmD0W3hMFJSPJ3_6hrTRuPQ4d4EHHoLCALtWRXpzrw", "name": "Stenfiguren", "lat": 59.29830900000000, "lon": 18.04952900000000, "bs": 18, "bc": 83, "rs": 6, "rc": 64, "ys": 4, "yc": 30},{"id": "3d3256d84efb4670bfe242b7aad77b40.16", "url": "https://lh3.googleusercontent.com/tnu6IgTdeRfQqb0ZP7Fbaf7OS0KCHGUzsN1flv1XikweJpmpn5L1Kb7RhKJISi7wAkqZ-4cTgSqvkuRpTfztQfTkAzeE", "name": "Exercise0r", "lat": 59.31552600000000, "lon": 17.96584400000000, "bs": 17, "bc": 28, "rs": 31, "rc": 29, "ys": 17, "yc": 23},{"id": "3d5f2f6d456249049b8cd554b4e75c28.16", "url": "https://lh3.googleusercontent.com/5zaPsaFpPgDY9wpROIZ1zri1S1jClwB5TXLYPujbPdO6gWGY45_qgn12anMuHaLeIp3q4zO47hF0-6ZOfSv7LgEms0Y", "name": "Hunting Dog", "lat": 59.34313900000000, "lon": 18.03627100000000, "bs": 8, "bc": 85, "rs": 8, "rc": 57, "ys": 9, "yc": 91},{"id": "3ded0d46f7b64a9aafdf1f141292b44a.16", "url": "https://lh3.googleusercontent.com/AyvLddH-jclIvnu4XvgVcybK9xxb5wg8NK55tVrK-klRSpSekXA_xpOBaCk-1C2trweQcJS8D7Oa13_fcpKHu4USG6Ev", "name": "Josef Franks Plats", "lat": 59.34615400000000, "lon": 18.10014400000000, "bs": 10, "bc": 65, "rs": 15, "rc": 68, "ys": 7, "yc": 42},{"id": "3df8b4646df8449da8487270c517e11b.16", "url": "http://lh3.googleusercontent.com/Qhpo6VGhnRFchTZuImMzmMp1WfZ9B2y4VGoo1cZxoOgaLkypOtvbrncRyPgqVubuDicQr8H1pbDvLTDXija6KzGTXz4", "name": "Fotbollsbur", "lat": 59.37495800000000, "lon": 17.84500900000000, "bs": 18, "bc": 36, "rs": 15, "rc": 42, "ys": 22, "yc": 34},{"id": "3e04c82c33e549bc8ac6b4243c02c5fc.16", "url": "https://lh3.googleusercontent.com/dAk_DB86t0umN9tZgwbtf4SOW0NjtWRfzeBNokAmKpHTBUnB4kX2rZTFy7svT_wzthUGRR4dvO20aPPJqZUP7bXirg", "name": "Två Myror", "lat": 59.34223400000000, "lon": 18.06451500000000, "bs": 9, "bc": 59, "rs": 8, "rc": 59, "ys": 12, "yc": 84},{"id": "3e1bc9d8d8bd4fbf967f7df0cfb8a50a.11", "url": "https://lh3.googleusercontent.com/ToRkVycmpmwyzeCJdLq5p1fko-B3lk-mqwDk4ArXpT1WHFtCk9gRyqnvZKG98E8PbTJNsdnM-vz2LCDUupT1X6KJ3Rg", "name": "Two Big Feet", "lat": 59.30923100000000, "lon": 17.99682400000000, "bs": 22, "bc": 61, "rs": 8, "rc": 45, "ys": 8, "yc": 39},{"id": "3ed3321d50ea42f2970affe1fc8e2d9a.11", "url": "https://lh3.googleusercontent.com/phXihzXPpOS8vBxvpp2HryLNm8wLD_5Qu_LfH8noaUF1xFXycWHLn5MVjvk43zAH5TAEkslC81L__71gbUBeRf_pPcg", "name": "Sunbathing in Kälvesta", "lat": 59.38320400000000, "lon": 17.86216700000000, "bs": 16, "bc": 62, "rs": 14, "rc": 57, "ys": 7, "yc": 29},{"id": "3ee59d68805f40caa3eacbbdc4734d7a.16", "url": "https://lh3.googleusercontent.com/A9DRHj_0SdMoEr1Sabr3vtmtGNy7hoJ-mRZxAA0H8N7br6zWzaBh_b75vSJWJE-d6-Aw-zLfWhj7l4Edvb_nN7l5ASFb", "name": "Old Mainframe in Entrance", "lat": 59.34925300000000, "lon": 18.09950700000000, "bs": 13, "bc": 39, "rs": 21, "rc": 54, "ys": 9, "yc": 39},{"id": "3ef749de662e4f8abad3260b37163002.16", "url": "https://lh3.googleusercontent.com/sM4RFLr4_RqEd1Y0q0QnvuybDh2z1vo-yl6twEg9Az3GdpMNH7hUsZImIlWIRzAlpFGlqL8-Ezt4K25Hrs2lfnlO6A", "name": "Sample of a Distillation Tray", "lat": 59.34952800000000, "lon": 18.07364100000000, "bs": 16, "bc": 65, "rs": 15, "rc": 54, "ys": 5, "yc": 41},{"id": "3f36c8a78bfb4d4ca2617987adc9de90.16", "url": "https://lh3.googleusercontent.com/itou2RH5x80XLMjkz4PDo0OFld2me-ciFcI3yW4JQHgtRPqqb6DRpBx7MdPHuyb2gz-C7bxKLu4Ty8sC09g8FnU8Eg", "name": "Flicka Med Bronsfackla", "lat": 59.32669700000000, "lon": 18.05355400000000, "bs": 21, "bc": 56, "rs": 7, "rc": 46, "ys": 9, "yc": 56},{"id": "3f6c4ef016b64d78bf44d8207a1b1de7.16", "url": "https://lh3.googleusercontent.com/dS6ThJvnXG32DRTwFam1UiH90-PKaYvfILyRAa71lp4yG3xlOL-7ot2dmK6iJ0etBUr0K7S04PwqTwVkbFgMBBS24g", "name": "Stjärnan på Toppen", "lat": 59.35398700000000, "lon": 18.04787400000000, "bs": 20, "bc": 28, "rs": 31, "rc": 38, "ys": 10, "yc": 17},{"id": "3fe2ab3b5d79484abc2abbfd893b6983.16", "url": "https://lh3.googleusercontent.com/TAKvB6M65sAfbnWXFHPx8pVykOtXtmshrNtnyWq48Tzcyvhv34_F6PNs-ywGPs8Fr2Hkm72u2x2kYiMoL8051M5EDvQ", "name": "Märta - Norges Kronprinsessa", "lat": 59.31665500000000, "lon": 18.08432700000000, "bs": 11, "bc": 54, "rs": 15, "rc": 53, "ys": 11, "yc": 59},{"id": "4031545f873b4326bed74b5b49143bb1.11", "url": "https://lh3.googleusercontent.com/Hdn19fTR_Zs2tVmsKcwAPOJZs4smc8oFaRyK4A-iNDkKRXFqZImyX5PuUJRqfeVmcBLU7G1w5FUtuRo2K1XEVZ9SLnVh", "name": "BP", "lat": 59.30728400000000, "lon": 18.07284200000000, "bs": 13, "bc": 56, "rs": 15, "rc": 44, "ys": 11, "yc": 56},{"id": "403abfb0c0fa4624bdf48581c9839292.16", "url": "https://lh3.googleusercontent.com/Mt16pQQoU6FMBEGQatGRHBZpKP78TPfzFuX9w6OwPLN4SF0oFrrRaZ2lfs_erFUV9czmkwffdGjY7msktjy6ALJoiQ", "name": "Kikande Gubbe", "lat": 59.25220300000000, "lon": 18.12769900000000, "bs": 10, "bc": 26, "rs": 13, "rc": 25, "ys": 32, "yc": 44},{"id": "4138781e979048cfb75d92ed198bcfdd.16", "url": "https://lh3.googleusercontent.com/8FreskoxQkrkTpR4YZvGykijTwnDSMaFPu_BXT9iiQAM0GYJ09JQ-y_pz2kbbt7qqnp6ytCSMXJoDWUYhJddBntLevBA", "name": "Vit Blomma", "lat": 59.27890000000000, "lon": 18.09150700000000, "bs": 7, "bc": 20, "rs": 4, "rc": 39, "ys": 33, "yc": 52},{"id": "41513335e2c04ffd98d1b879420462f7.16", "url": "https://lh3.googleusercontent.com/8N2CvM6o8iLqcxD1aRswabFyG7tpgn_ov7wXn-sH4RBhS-OvINmYQV3GOXNwnTuK8KenbBZQAxpIzSYxUPmvfH0iAEZm", "name": "Lindarnas Anatomi", "lat": 59.40681600000000, "lon": 17.94034100000000, "bs": 9, "bc": 71, "rs": 10, "rc": 66, "ys": 11, "yc": 67},{"id": "416b64e5ce024de485200f176b125dee.16", "url": "https://lh3.googleusercontent.com/Xl9id1QaP9Mr7NHd4NtGtsdht0nKNHlecPwndcVaY1NvIehESmlamYGO5fG51jmPj1A6TuWAHpzoTjmkkNRBz8RNYiI", "name": "Faces in the Sand", "lat": 59.33933400000000, "lon": 18.03161300000000, "bs": 15, "bc": 48, "rs": 23, "rc": 50, "ys": 6, "yc": 22},{"id": "41cb0b31b1d04fd09b8de7dda389c3ed.16", "url": "https://lh3.googleusercontent.com/7aWoh1Ei1IDoDmGpyWC-UexyaCWyiAZxoaz9Mg6KtJ9_EyIuTEXZRijd713vrxtsUnAGgQINSZsHCc18AOrQSBZk86s", "name": "Fondueboden", "lat": 59.34530200000000, "lon": 18.04082400000000, "bs": 7, "bc": 96, "rs": 4, "rc": 42, "ys": 12, "yc": 99},{"id": "41fbe7d5ecae4663a5519bbfd8f284d9.16", "url": "https://lh3.googleusercontent.com/8Nt5sHombFYk2Qpe-wVWey8Ol4SUt86sDT48kWSOi59SKHHN1CQkICT90PENAgoK3UGf9PtkQ3FBtnVcdsWSHhbxf9cK", "name": "Cat", "lat": 59.28707500000000, "lon": 17.95389400000000, "bs": 9, "bc": 42, "rs": 12, "rc": 70, "ys": 10, "yc": 76},{"id": "42599d503fad42559c2484ff0cc2c762.16", "url": "https://lh3.googleusercontent.com/jNVl2ew98cOhTC8KxKMtZK1a_ar_qRu_54agV6ihEJPcDqKRyY5BhqB6bBJryAT0p3ZbSh6wib9duTkK--W4T4EAxgYi", "name": "Husmorssemester", "lat": 59.34073700000000, "lon": 18.09275900000000, "bs": 11, "bc": 71, "rs": 16, "rc": 35, "ys": 11, "yc": 61},{"id": "431c26996cdf45688981b53de296a76e.16", "url": "https://lh3.googleusercontent.com/_jQjI6dMoyBsWswVDAb6-gwG2E0kUv741K31QEWr031pH1qb_NtU61SedDYB3taPLuR1zWHYVvrLwoCWfcO5lMo7fTA", "name": "Here we are, listening and whispering, like forests speak with the voice of rain", "lat": 59.25951000000000, "lon": 18.12721400000000, "bs": 6, "bc": 90, "rs": 5, "rc": 75, "ys": 9, "yc": 129},{"id": "43cf7737d3de45b08e2514b5043a167a.16", "url": "https://lh3.googleusercontent.com/JGg2T7sOE-MxW7EVUzu4aeqTZYEskqkgLZvmGMZ9PSVzW1naFZO2mbkw8VdasP5FBLn3DBWb3hqHJ23PAo_duWHiSKE", "name": "Ekensbergs brygga", "lat": 59.31559400000000, "lon": 17.98819100000000, "bs": 17, "bc": 45, "rs": 17, "rc": 39, "ys": 15, "yc": 38},{"id": "44061382d20d48b5b20ede3a1eba1bba.11", "url": "https://lh3.googleusercontent.com/7O97nMup5g25Cv-BzKhz7PAkbGefQ5lQhi1MQDNpUr0mSX4GKdDfWjWadL_uvLbpyDfX616_YtNtIYKzHKPhCC08t0I", "name": "Instabil", "lat": 59.30690000000000, "lon": 18.10706200000000, "bs": 23, "bc": 28, "rs": 18, "rc": 34, "ys": 20, "yc": 38},{"id": "44745b6d5fbb47c983633f0461a84557.16", "url": "https://lh3.googleusercontent.com/zxU-9_U3UxI5goNiG8X7LRPi635-hYcNOZH8YcYAmRSTNGeRL8M_s4rQTcWapIx8jZW5X136T1s_djIWKulzXKtazco", "name": "Dancer", "lat": 59.33902500000000, "lon": 17.94000100000000, "bs": 10, "bc": 59, "rs": 13, "rc": 60, "ys": 10, "yc": 66},{"id": "45052a91606a4c5dbd2b9a764ed1044c.16", "url": "https://lh3.googleusercontent.com/Geud7yZjW0IkmtW3vn9jMSCqcbLcAqyV7jZqEky2V0Wbv_FQvTCd8f9ntc1R6NnqD7l-I9n3U_uaVgDRIUwisiHe", "name": "The White Sea Horse", "lat": 59.27879700000000, "lon": 18.06956200000000, "bs": 14, "bc": 67, "rs": 13, "rc": 36, "ys": 10, "yc": 61},{"id": "450a881cdf184b7ab7f38ab5e24587f8.11", "url": "https://lh3.googleusercontent.com/Tyt1F0rKcKHescOaQXI5s0p4Bxp8LZdBa4zhaveIaRcMn45enCCeu7AQFz-UjZDPs1-tQ3AdThRP4kjEzwr_qeUM5CM", "name": "Ängbyklockan", "lat": 59.34666600000000, "lon": 17.89055500000000, "bs": 17, "bc": 31, "rs": 20, "rc": 12, "ys": 37, "yc": 33},{"id": "45d639df8b3a453aa5494b87e8759786.16", "url": "https://lh3.googleusercontent.com/_aKBhAIS5AmjQc10H8N5uXxWxrmz4bL0rQvDe8-P4KYJyOKwMn91so4HntXIgG-cLx3wS9iiknqtSHui9pQdYl9fc9o", "name": "Hidden Snake", "lat": 59.28738700000000, "lon": 17.99987200000000, "bs": 17, "bc": 27, "rs": 28, "rc": 31, "ys": 21, "yc": 33},{"id": "473ce5ed6cc349c9b5653dab87bbf08d.16", "url": "https://lh3.googleusercontent.com/B71_S-dsYsT7ucHJlPBpFzZuLDH5U3zzhlwRG3zpdSs74exbah5oomn0miUNzQ3T2M6PoN5B36ifmIoqn-vq215l9C0", "name": "Mighty Pump", "lat": 59.32295600000000, "lon": 18.10134400000000, "bs": 15, "bc": 20, "rs": 30, "rc": 42, "ys": 15, "yc": 31},{"id": "4782c7fb42ac481f8c4048d105d41428.16", "url": "https://lh3.googleusercontent.com/FseI7Ar42Or-2AE-71Wl3Mzs-uQ7qXf7gfN0BUzePTTnRdyywY_rqrJRlTRQoIs4_4IVoFLPOcueyUE6C62fpWgTSKca", "name": "Wolf Statue", "lat": 59.26966300000000, "lon": 18.05162500000000, "bs": 6, "bc": 53, "rs": 17, "rc": 79, "ys": 6, "yc": 45},{"id": "481a4e60ea3443499ef38b6f2b033520.16", "url": "https://lh3.googleusercontent.com/OakuwGxWalx0nta4oOiBzejFC9WjJgcuDIoZb3ubmU9Fun-iNOUlJDRTvRfg-PsSa3EWLWe2EkLV1W6HEDO8ZCAFk4A", "name": "Steely Thingie", "lat": 59.26044300000000, "lon": 18.11939100000000, "bs": 8, "bc": 96, "rs": 2, "rc": 27, "ys": 12, "yc": 99},{"id": "48420ad1c17e4a90abc708a2e13e655d.11", "url": "https://lh3.googleusercontent.com/ovx-pjJsWvS_yHFNgPG9ld51xXNFGyCSp-4sl1__oS3mNpFbKSwNOp-7LtD0-RVsA4GkAOcheu0hkvOFY7ZOWQO3MQo", "name": "Lars Magnus Ericsson", "lat": 59.29869600000000, "lon": 17.99596700000000, "bs": 10, "bc": 81, "rs": 8, "rc": 73, "ys": 9, "yc": 66},{"id": "48439ed932f445f4a096dafe66fcf709.16", "url": "https://lh3.googleusercontent.com/Pce4HFtE3KmyqKXKQDBd5eCUGFIHQEoxUYsdZqIXVSyDCXPF72CQQI-AzbjGpDgCEXcNOZsPbBQZsBdoC2IoWobFrk4", "name": "Marmorhäst", "lat": 59.26622900000000, "lon": 18.12822100000000, "bs": 12, "bc": 71, "rs": 9, "rc": 33, "ys": 11, "yc": 78},{"id": "48fb1a933d5f4589afa2cf17d2de6834.16", "url": "https://lh3.googleusercontent.com/8cZQ3TQQLsuLncqKb2KkT9Z-uKZKdjyqhFUydqRgi749YMBI1DlNL0N5ZNGM2fPhW-3LBMI45a6jEgthnf2xcAVzxrY", "name": "Mälarhöjden Bell Tower", "lat": 59.30060200000000, "lon": 17.95669600000000, "bs": 23, "bc": 32, "rs": 27, "rc": 27, "ys": 16, "yc": 33},{"id": "496cbc265ac5401fad2b927c33030117.12", "url": "https://lh3.googleusercontent.com/DTtcs2c5KO1Lhwf1RqWnDeAh9xGk1bqZJFnw1vUpWyoyGKL67cqJueH9msLUpGHwAoT5nkpr3gvhcxZ7TK7PHDJyng", "name": "Familjegrupp", "lat": 59.32318900000000, "lon": 18.06814700000000, "bs": 8, "bc": 91, "rs": 9, "rc": 81, "ys": 8, "yc": 67},{"id": "49aa49a492444762ab16977f2b09c023.16", "url": "https://lh3.googleusercontent.com/vF1zDx8nma53ruN-c8Ou9Vas19-QcFaE9rYtyM9xIta79n0IgiKdc0kP8w4LOsEC6vRMLo7Uxd5ID3zgKKELLPajark", "name": "1917 Clock", "lat": 59.33578500000000, "lon": 18.03139900000000, "bs": 17, "bc": 91, "rs": 5, "rc": 58, "ys": 3, "yc": 50},{"id": "49b249507b8d4319b1c483c29cd75800.16", "url": "https://lh3.googleusercontent.com/_ophnGoAa72Exv2cEtQ-aVjcsUw-oY9xeGV7Y06m_BY8RAzfFAT8rCWzaXlRC6pzLbuT5kVrZEfa_YMOeFlp_2Bl1AaSaJ6FDORyDYTR", "name": "Grytet lekplats", "lat": 59.26830000000000, "lon": 18.03509300000000, "bs": 6, "bc": 28, "rs": 30, "rc": 56, "ys": 6, "yc": 31},{"id": "49c0f00fe17442428129e0b6ae4dc619.16", "url": "https://lh3.googleusercontent.com/28A5YoYE-IoT2FOQI4Dcb3YOy5S-J0092eQIeTQfoFxFiY47vG9zs4H0oWYMEUabVZvWZ7RuwxLFk3xuEWgbCUggzw", "name": "Groda", "lat": 59.25619200000000, "lon": 18.11685900000000, "bs": 11, "bc": 49, "rs": 10, "rc": 31, "ys": 20, "yc": 58},{"id": "49f64ee9313143d2b155ac6bf31d4cca.16", "url": "https://lh3.googleusercontent.com/l_6Tn_3x5I3kIRifbk6343PzOND9TIsXO5kFPEt7erSa1QaR4qygPczok6gVTer0t896BxQcLbDlaEBQUD9kJxcwhg", "name": "Parkleken Stacken", "lat": 59.26035800000000, "lon": 18.00622700000000, "bs": 20, "bc": 39, "rs": 22, "rc": 42, "ys": 18, "yc": 17},{"id": "49f9cb29495d4b498862b653f27e40fd.11", "url": "https://lh3.googleusercontent.com/26EKkBF37qOBlotFON2tMrdKaRmLHc3jelr0BZvIJAdZVly03zpIPCv5ZNVNuKqVGd5T3UaFfYGuOjgCOQN8bY9P7hpx", "name": "Runa", "lat": 59.25159800000000, "lon": 18.11699300000000, "bs": 23, "bc": 34, "rs": 29, "rc": 35, "ys": 12, "yc": 16},{"id": "4aba84c0784348b2b18bffe1aa5184de.11", "url": "https://lh3.googleusercontent.com/tkdvj_L2ipwqCqQEHBdWv6zmVwKrkV1Lf7gn9PJUdzd85LFoxqGRDgHnzoMFvGOev1KSF0ZBTZ7_3iVEojNqo73yOpg", "name": "Malangan", "lat": 59.30999000000000, "lon": 18.02770600000000, "bs": 10, "bc": 38, "rs": 24, "rc": 50, "ys": 15, "yc": 31},{"id": "4aced9e59eb94b7d869669014a49bb3c.16", "url": "https://lh3.googleusercontent.com/GvlkAf6oGvsjcaZgdzBdcqe5TEC4I4U0-iWN_rX64VZusK7QGfpmyqyTSzPTWWMo2kkNxjtjObCnkTSYcDIENDt42w", "name": "Klara Kyrka", "lat": 59.33117500000000, "lon": 18.06154200000000, "bs": 17, "bc": 70, "rs": 8, "rc": 47, "ys": 8, "yc": 52},{"id": "4b213b26b1b24f209e85350e38b88917.16", "url": "https://lh3.googleusercontent.com/DyJ9ijA3lR9HjeSbpBF8gQymyZKrjcysreH0sSJSe1Bvnaj-ZSgH6bC45emnGGORqebJPN8Ei1jPfFIsH90y1PFZ-FR8", "name": "Rålis Bouldering", "lat": 59.32792900000000, "lon": 18.02340600000000, "bs": 16, "bc": 34, "rs": 16, "rc": 31, "ys": 25, "yc": 39},{"id": "4b466bda49904e02ac64410ec27a3a6d.16", "url": "https://lh3.googleusercontent.com/L45vY-o28Fhj00hI3tOMtNj7oaA3CzTGkbaqfRpT93cazLiTwXClAT5-CX_bFPBPfLOvsQNUvvI_g4fP35Y_x7K5-gI", "name": "Laduplans lekplats", "lat": 59.27218800000000, "lon": 18.11220700000000, "bs": 16, "bc": 31, "rs": 29, "rc": 37, "ys": 19, "yc": 23},{"id": "4b4e93501fbc4f9e9a364b44964fd58e.16", "url": "https://lh3.googleusercontent.com/k9UGZsflhQHvjE_38oZhh7z-ltUFZ7RJozQSGiYnwBD6pjswdBekKURjKLZPLZPYOHhXf8FS6VRksQTep3cneAuJJ9s", "name": "Tele2 Arena", "lat": 59.29192400000000, "lon": 18.08255900000000, "bs": 9, "bc": 65, "rs": 9, "rc": 80, "ys": 11, "yc": 61},{"id": "4b5046a66d764eb2b8e1bac53a940e59.16", "url": "https://lh3.googleusercontent.com/23B-HN2HgX4cB4cEo6MEYG-wScEmuNRxJ7RZ8c-ZkZFl7vOvnaBJa-UHBZnCaq1XiO6xxoGbVPLoK-zInz18JQNjBO8", "name": "Lekplats vid Glasbjörksvägen", "lat": 59.27868300000000, "lon": 17.98011700000000, "bs": 12, "bc": 40, "rs": 21, "rc": 52, "ys": 10, "yc": 44},{"id": "4bb8050639fa4fb9af28b213e0488341.16", "url": "https://lh3.googleusercontent.com/ODr77U9CNGyCQ44iJDkz1uACUo6C1q141ExamUH8kDnZjNYl_JFqMeRMAgpH9HDJIwCiZEhGtLO0oo3RwTMqwjlQGw", "name": "Mårtensdal Tvärbanestation", "lat": 59.30271000000000, "lon": 18.08821600000000, "bs": 11, "bc": 94, "rs": 7, "rc": 60, "ys": 8, "yc": 63},{"id": "4bbf2cf1619649bbbe736b03e00c6874.16", "url": "https://lh3.googleusercontent.com/VVEkBcMRYwqukDxRRQa7Jme_DSQa3xUGTxicttXC5QisqzRYWPBp5CAblJEGPV0UZdtA-XH43OBfYGNCSA1LkQ_gnA", "name": "Spånga Bibliotek", "lat": 59.38258200000000, "lon": 17.89796600000000, "bs": 23, "bc": 63, "rs": 9, "rc": 40, "ys": 6, "yc": 36},{"id": "4c4b301569134177b69071dce52050b7.16", "url": "https://lh3.googleusercontent.com/B5bzm7tlIHoVZeesu6H4qQ_Gc7k8qH7zzO2rBh2DPVYFyfsLGGgHmcUX6bU-tKs2CcuNx6d93ZNdL_MX8fhz2uS0ftM", "name": "Grodan", "lat": 59.32338400000000, "lon": 18.09586800000000, "bs": 13, "bc": 70, "rs": 6, "rc": 60, "ys": 11, "yc": 63},{"id": "4c5573d162b64ac1a8f52ccec3950221.16", "url": "https://lh3.googleusercontent.com/-ks4XZJ07L1xYrYal3wYtJ4gNufywwfuZ4R5ULoO7ZiLxRptCsJRLz99yHSg9wfdg0kToJEJNAOWMVM0Cey8zMAhMw", "name": "Gungor på rödamattan", "lat": 59.27368300000000, "lon": 18.04806500000000, "bs": 16, "bc": 17, "rs": 49, "rc": 26, "ys": 25, "yc": 19},{"id": "4c8602c128bf40ec9f839e66f7fc2676.16", "url": "https://lh3.googleusercontent.com/dkGYPcuUcj1Nu-5phIqdSSgi-L_OlPAC2cuaOTnRw5WLJn-3iIvOVjbkzQvCQBgAXSM1ygQSEyoYWmfB2II8dyW3dQ", "name": "Gärdets utegym", "lat": 59.34205300000000, "lon": 18.10834400000000, "bs": 20, "bc": 69, "rs": 6, "rc": 54, "ys": 6, "yc": 45},{"id": "4c9bfa92d7c3311f857e3e5309a28504.16", "url": "https://lh3.googleusercontent.com/SoG0wcPF2lel_KkvlGxeUXr5NTTssaxLgDr6QKtSHCLMjoOpTT3ou_lPcmf2QS9vF_sORf85ex0GVcmprSwlo60oxyg", "name": "Liv (Life)", "lat": 59.38510000000000, "lon": 17.89295100000000, "bs": 9, "bc": 67, "rs": 21, "rc": 13, "ys": 17, "yc": 68},{"id": "4c9feb2cab3149af8bcd4fe514776810.16", "url": "https://lh3.googleusercontent.com/O3xLwUCj5yZzAiMY7l1g2ZpYmlpFS0d6SuhAKJBJgEZLZnU7nX10ZCCKWxeWqkDj0dTopPJvnyBrDW948UFjx6jH9Zc", "name": "Konsten På Stationen", "lat": 59.40314400000000, "lon": 17.94215800000000, "bs": 16, "bc": 67, "rs": 12, "rc": 50, "ys": 7, "yc": 47},{"id": "4cb2e932fad9437ea7b7e210c3f22179.11", "url": "https://lh3.googleusercontent.com/yKaSy97Vlwx0yxFCF8jyoqnoq_klEFTOANhtGo_qBI5lQYiY780ZFGLaEfYdypqlT3LSoX52sjWgA0kHCv5R9J_piw", "name": "Lasse liten och hans mamma", "lat": 59.30577200000000, "lon": 18.10648600000000, "bs": 8, "bc": 63, "rs": 10, "rc": 58, "ys": 12, "yc": 76},{"id": "4cdbbb0778104fda8514eec064bfe449.16", "url": "https://lh3.googleusercontent.com/m71oVrVE68IhnUkJAYcTmdT7S9evmk7XWX4oTvAA2I7KZN6xWAz0C-KVeoIzBouEvpSnlKpnf61lDCZBQY9sY-O_xSw", "name": "Apoteket Ugglan", "lat": 59.33396500000000, "lon": 18.06120500000000, "bs": 7, "bc": 111, "rs": 6, "rc": 108, "ys": 6, "yc": 85},{"id": "4d0cfd1883074612ba89746cb0a52105.16", "url": "https://lh3.googleusercontent.com/75sDWRlsIKXoMIxK26I0s1hX-G319_K9CGOXKWJ5w_J95hAzOf7R1tsBNkCMigHlA4n3h8p_dLz1v197GOMjT4JqQig", "name": "Witch Hut", "lat": 59.36584800000000, "lon": 18.07629600000000, "bs": 14, "bc": 46, "rs": 13, "rc": 50, "ys": 16, "yc": 41},{"id": "4d4613ec6a01469ca19e9046df56519c.16", "url": "https://lh3.googleusercontent.com/BQloytZKZOWhHrRKzfui45HPIl8hHfJULXwjigUMjKXJfmMohcJmTbgO1OV9_ElhF6_B5BvFLvi3tICmV7JApXQ5M1E", "name": "Lekplats Grimstagatan 106", "lat": 59.35610000000000, "lon": 17.87386300000000, "bs": 2, "bc": 68, "rs": 20, "rc": 95, "ys": 1, "yc": 12},{"id": "4d98503eff4541b4a3b6fc4b9208b118.11", "url": "https://lh3.googleusercontent.com/j_UpOrRKObS6ECup76jt3gqCy-OGDUIqwtfDgs9vYkrIJYP2eMbO992R4E9ZMrpR7BxphEHRnOUxdkF4Va9z3imD8Fw", "name": "Från Fall Till Fall", "lat": 59.40379700000000, "lon": 17.94678300000000, "bs": 22, "bc": 37, "rs": 20, "rc": 30, "ys": 16, "yc": 37},{"id": "4dba6037cd174472b1c8850405f2717c.16", "url": "https://lh3.googleusercontent.com/RWd_6siA8VZ8RUlexX49ayl2szvKdRlWAl-c0uNZj4NErnODYQcuO-L-C4pREczKSBxqLHV_eN-u-GJXQKdTJV0MdysL", "name": "Hesselby Idrottsplats", "lat": 59.37135100000000, "lon": 17.82861300000000, "bs": 25, "bc": 24, "rs": 32, "rc": 25, "ys": 25, "yc": 22},{"id": "4dd0b7ed8d434d7a8f32f8d397bf3b3c.16", "url": "https://lh3.googleusercontent.com/irg_-fkc5KR7KzfXqOEZ-3awyvKiN1wXYAp53-FpW07I1CdjYTlvz-nLny0i10q3HitQuZnnKrZjSrrpJbG_R1gLvs8", "name": "Globen Subway Art", "lat": 59.29370000000000, "lon": 18.07542500000000, "bs": 19, "bc": 40, "rs": 14, "rc": 39, "ys": 18, "yc": 37},{"id": "4ddc02fdc9984519bb659d8d5e2ef492.16", "url": "https://lh3.googleusercontent.com/w7NT80mo8FsODbEwdyf0ELpDOLrQLA7_H_aBOF1TJBcQRIW2PUMApLusv-jzApbXgR2nTovgwgEFFB0PWLctwpLadbA", "name": "Ha En Bra Dag!", "lat": 59.24526000000000, "lon": 18.08780200000000, "bs": 9, "bc": 66, "rs": 18, "rc": 72, "ys": 7, "yc": 13},{"id": "4df56bc8de4c4836b02629ca01b6f914.16", "url": "https://lh3.googleusercontent.com/Nn61syrlwMEooWSA8SgY9sNxTiRdnvoMp30Y0tnpXsAdnwGFRQM2jw2dlQwpml29EdoQDmT--9Gi-Wu_5DgN6xjZDC7S", "name": "Vågig Bänk", "lat": 59.27893100000000, "lon": 18.00920600000000, "bs": 7, "bc": 112, "rs": 7, "rc": 118, "ys": 5, "yc": 67},{"id": "4f1ce652838d4f11b07dc4b0583d8c94.16", "url": "https://lh3.googleusercontent.com/U3tB4uq1Cg5MKfWr6mLjO3C8h_Z14n5Pel1naOPPtOBQp8sz6quDmXSWZD6qm1IA7LIxzX8GPh1gnfEb9KLwH6kAGQ", "name": "Årsta centrum", "lat": 59.29726500000000, "lon": 18.05162700000000, "bs": 13, "bc": 63, "rs": 11, "rc": 51, "ys": 11, "yc": 59},{"id": "4f54e43438e34b559abfa5c216731f87.16", "url": "https://lh3.googleusercontent.com/jOuaHI8Q9TBGYitXnNKRaf2M1aq68OcWRHc1UOJ1FO9Oefw3T-p3dHmuRPLescsc3f-9gGCIJxhc4pQTfejqfcsvtXIJ", "name": "Klinkerkonst", "lat": 59.30594800000000, "lon": 18.08884700000000, "bs": 13, "bc": 77, "rs": 11, "rc": 67, "ys": 8, "yc": 29},{"id": "4f5a5ddb47f944979f8e53e14f0240a0.16", "url": "https://lh3.googleusercontent.com/u-EGsaHU0FMlHPSKuTZdM5TjGsgHmekP1vi8iWG6flj67KdDpnE1SwVrjMnhYWrGmZ3O7so2oPafuDuDAch_RKNtvQrG", "name": "Barnet", "lat": 59.24384600000000, "lon": 18.09206400000000, "bs": 5, "bc": 98, "rs": 13, "rc": 110, "ys": 3, "yc": 42},{"id": "4f61d041484641ad879e0134a91d02f9.16", "url": "https://lh3.googleusercontent.com/GMlF7vyWYKi8lTMe8_n--57rtI8IVAmYI3l8XM8nsfFjNn1DSjKRH5GdpxAKG-IIPk6MX1a_I5wiLV-Dmk_SlOWZBPo", "name": "Skarpnäcksfältets utegym", "lat": 59.26986000000000, "lon": 18.11982100000000, "bs": 17, "bc": 52, "rs": 14, "rc": 41, "ys": 12, "yc": 44},{"id": "4fcada37774248bbbb7b29932addfed9.16", "url": "https://lh3.googleusercontent.com/G_Is-SsC-5jYjZd0nJMZ05z-aYZOuPlPVvXaYLnquCM--im6kyyLe6C5L4molVqowJX8hpdH9e2WglQvSQM6EDfx9fJo", "name": "Wallflower", "lat": 59.27732100000000, "lon": 18.13515100000000, "bs": 10, "bc": 98, "rs": 9, "rc": 91, "ys": 6, "yc": 22},{"id": "50aceae88900405a9a35361fc4faa61d.16", "url": "https://lh3.googleusercontent.com/H9PIzhNoHOdMsWttbqL--ajQWobE1NUEy7fPSrWW1LkZpJ13Cd5-N4hb3LSuLkVSrUumzDS576BockH-rSZJSc1QFkI", "name": "Vattentrappan", "lat": 59.29744400000000, "lon": 17.98338700000000, "bs": 10, "bc": 61, "rs": 12, "rc": 75, "ys": 11, "yc": 46},{"id": "50cd4bb059f445a68fbf74ebe9d86fc1.11", "url": "https://lh3.googleusercontent.com/qqmLxXR5mOXH7zvY-u4_bYTJRKMCnsqfFPCA0GKPUgogzsrQZxn1dVpElypUmL1qsHpoySLHG00ozklEgm2Uc_dPcw", "name": "Jannica med dockvagnen", "lat": 59.31195800000000, "lon": 18.07757500000000, "bs": 5, "bc": 54, "rs": 11, "rc": 101, "ys": 7, "yc": 82},{"id": "51d115c7163644788ff0a84426d761eb.16", "url": "https://lh3.googleusercontent.com/YYfch2AZ9iVB4-SgowkZiuVUrgZ7rmLEJdZ5wG2Eg-rDmqyLSA1JaT02T-efczz3cEXPCdU0HTmAylQAt8HBkPLbyw", "name": "Wrestling Bears", "lat": 59.30000200000000, "lon": 18.05694900000000, "bs": 22, "bc": 31, "rs": 30, "rc": 31, "ys": 20, "yc": 21},{"id": "5219e1a3794b42e8916fa0bdc9787cdb.16", "url": "https://lh3.googleusercontent.com/-sFJmpj-QbWQm6ouhE6K8XXOdS2VCosYMzN7dJFNn8Q7MvoXLi6cPnnBBEjzt4_Ssdok3KhGB7WCJOeSMLD4nB4GMNHU", "name": "Solskensport", "lat": 59.34397900000000, "lon": 18.02907800000000, "bs": 18, "bc": 81, "rs": 8, "rc": 46, "ys": 4, "yc": 48},{"id": "52532d7b240b4f30915bc74fe19b6410.16", "url": "https://lh3.googleusercontent.com/kgORK5OZYaG4VOIZCF0efyH6OL9rVK4Y_dnLYWioQSBwuwCKDPBABe0W_AiHKmn1ctu2afvFxf4Q1YRuDUUpmfdnd2c", "name": "De tre årstiderna", "lat": 59.29088900000000, "lon": 18.03376800000000, "bs": 21, "bc": 30, "rs": 11, "rc": 10, "ys": 38, "yc": 33},{"id": "527c4ae06d95464ba13e7eb9352e3656.16", "url": "https://lh3.googleusercontent.com/k0sHExgYUsGUzaBloK1-Gxp7Yqpv74riJWIsbbI_Ks9H398jAJkSUEoI5ID-9fPYdxj_TS77kHlv-aKG5YxukrsW6O4", "name": "Solbergaskogens utegym", "lat": 59.28540300000000, "lon": 18.00586000000000, "bs": 2, "bc": 20, "rs": 21, "rc": 46, "ys": 22, "yc": 43},{"id": "52dcaa210e8c4b9c9f654a8f346d852c.11", "url": "https://lh3.googleusercontent.com/1IbvmlcNFde5NEBTKq1-FKZxF6E-zIvTL8zYGhmUezpnSyPsEbapkKSmvK0_6-W_QxbK-7AyKbFX_r2JLKO3yAdbsU0", "name": "No. 22 Facade", "lat": 59.33957300000000, "lon": 18.03122400000000, "bs": 16, "bc": 57, "rs": 16, "rc": 53, "ys": 10, "yc": 22},{"id": "52e2c61741d24e91bc3a6c06e0eeaf1a.16", "url": "https://lh3.googleusercontent.com/NcjR8TzylELqf_ATPgx7rsjnuNwolGZ76prGAWpXKYimmTI4Qs-9wiFpbB46ByrrZEk0tnlfoo9MNK9Hh3nmzA1GPA", "name": "Duvan", "lat": 59.33417600000000, "lon": 18.04202000000000, "bs": 11, "bc": 84, "rs": 9, "rc": 80, "ys": 7, "yc": 48},{"id": "5318d7adbe924cdfa7b98bf048934021.16", "url": "https://lh3.googleusercontent.com/i2pl-pWhuKh58kOWbubTJ1_q-0B64ASIhx1mmXDAUHFfx_36Hls3ULSOcBxmLixHYZxNNT2E9t6tVyNswv0p0-0Pebdt", "name": "Väntan Vid Stranden", "lat": 59.31494500000000, "lon": 17.99581700000000, "bs": 17, "bc": 35, "rs": 20, "rc": 42, "ys": 17, "yc": 34},{"id": "532445d798b54865b3b721cdb10da9e4.16", "url": "https://lh3.googleusercontent.com/LilUWci0NjMRTg33Y1kBvmDwYGT530UhxOYCnMEvuwfA3-PiwFSQ71pVJmWsbFTAIiwL3t2LcTemEyCjW62DjK8zFw", "name": "Öltunna", "lat": 59.34993100000000, "lon": 17.96876600000000, "bs": 11, "bc": 62, "rs": 18, "rc": 64, "ys": 6, "yc": 19},{"id": "5329f83cdbaa414c8cf804f632a7da49.16", "url": "https://lh3.googleusercontent.com/oSFUEUCNBwWTkuwvDaYGESXJhSo2X7Kz3HXqUlecvuwCszELjCFB53MvSDGZ2jBjSmfmvw5K-Meq9nbnxVuHZwC2WmU", "name": "Liggande Häst", "lat": 59.30555500000000, "lon": 18.03458000000000, "bs": 6, "bc": 65, "rs": 14, "rc": 83, "ys": 8, "yc": 52},{"id": "53e200d740ab4004b3d7cbfecadbd091.16", "url": "https://lh3.googleusercontent.com/wcip8FYdmP6nYbzxPTBu3FhksXFOGot16MHIk5sxc_9Batv7wamksE_RfCOJ0wzqEXZgZYQ_Wz4J8bidPtBR2A43KVv1", "name": "Grodfontänen", "lat": 59.32409900000000, "lon": 18.00317900000000, "bs": 17, "bc": 59, "rs": 12, "rc": 46, "ys": 8, "yc": 61},{"id": "54143b17278c4eb987f1f961fffe18d1.16", "url": "https://lh3.googleusercontent.com/aJA72xPAUXgbxerkT0Uq_dK3SAQKK-WnZvWzAwYyOV6tfyMswwRv5Bc8Y2YaYPdfh3ilZHmQLep2XnA23cr_hlYSpxg", "name": "Lekplats Gideågränd 2", "lat": 59.28205800000000, "lon": 18.05383800000000, "bs": 14, "bc": 55, "rs": 21, "rc": 57, "ys": 12, "yc": 5},{"id": "54f80ef9d3134c1c8ff24d86d83eee5d.16", "url": "https://lh3.googleusercontent.com/-eZSKPcDeIWwi_6B7uRZ3V_CbcnR3Ox-b8X-27n0zlak2u7htIsY9n_FaUKP-9NyWytA3boZpKpRBcUF-ag5Yvl48lM", "name": "Grupp Och Individ", "lat": 59.36136600000000, "lon": 17.82458500000000, "bs": 24, "bc": 43, "rs": 11, "rc": 15, "ys": 19, "yc": 43},{"id": "564d0cbecbd44e5bbfd7c31efe550eba.16", "url": "https://lh3.googleusercontent.com/OxKiIoqAZrzKVd0teJ6j-svoCoVyztHtO32CQPId8EkhCkEIVr35Mj8kcCO_tq6cqunsOCIQ4v7qGPc8z7T3gtSRTFY7", "name": "Plockar pinnar", "lat": 59.27860500000000, "lon": 18.13702600000000, "bs": 14, "bc": 53, "rs": 18, "rc": 42, "ys": 11, "yc": 47},{"id": "565f50706875433dadb8d256dedbbbf2.16", "url": "https://lh3.googleusercontent.com/oedII9tEXRujOqycaMc4lMsn-xNWgecxKnJ04i2GqGXTotCFS03kIdr--5xDnWngj0mxaqhDKZIx9CNCgDZEKM9t5w", "name": "Roxens Lekhörna", "lat": 59.29593500000000, "lon": 18.05505100000000, "bs": 18, "bc": 78, "rs": 6, "rc": 63, "ys": 4, "yc": 46},{"id": "572bf80bfd7b4334b3bdddc9a0ad9654.16", "url": "https://lh3.googleusercontent.com/X73lPqbzVoTd403QjqGlyYXiUFRArM5wythdb4J5SMHXFhsdoL46s6PBjwY1Ne5kdNdAEkfCQJJevkCp2yvltnz7VJ4", "name": "Stålkonst", "lat": 59.34462300000000, "lon": 18.05053600000000, "bs": 3, "bc": 53, "rs": 8, "rc": 89, "ys": 12, "yc": 94},{"id": "57d67cb571e5469da39bde361f1f8de6.11", "url": "https://lh3.googleusercontent.com/dy6Fn08d_IVDt-GgkNmlzMrad9tgiyDtnp6gGlXyz3SBrXTniK0MA7YKU2TWd_tTp7OrOMC4nnylPrCc0AyugQcqdOo", "name": "Manlighetens ankare", "lat": 59.30744200000000, "lon": 17.98097800000000, "bs": 11, "bc": 75, "rs": 12, "rc": 82, "ys": 6, "yc": 37},{"id": "581cedaa250e3543a8b3b1f2feb82b3f.16", "url": "https://lh3.googleusercontent.com/cnIpF938oU2IRf-SS626pLF735A00YZ7Bc_SQ35AbD_Dbj9yLfBmjv42WYiFVQ1NI7xcyM2jUkwq8ITy76scwigxMzeC_-2XwBAkXOk", "name": "Medaljens lekplats", "lat": 59.24710200000000, "lon": 18.08660000000000, "bs": 5, "bc": 56, "rs": 21, "rc": 75, "ys": 4, "yc": 40},{"id": "582317eea2794caa8acfb491975eb631.16", "url": "https://lh3.googleusercontent.com/7Phja4qG9hoY_a-GA1KksKi6BHzcwhnmhnDAFb3VwIzfVe3v3lzI_eLLI3YkMlF4n9w2zzlZCu5uqVUWfvJq5OJ243_C", "name": "Mutant Chicken Zombie", "lat": 59.30534700000000, "lon": 18.03294600000000, "bs": 8, "bc": 59, "rs": 4, "rc": 38, "ys": 19, "yc": 73},{"id": "5830efa7685347e2848e4046d0b0af8a.11", "url": "https://lh3.googleusercontent.com/pp8fzitVbZ17oAkGKZhVRtC3MO-YTG1d4WbRdAitmvwyIgwzDYk_K5p1-EV5zNP-wqV0ealJtp12iDMLE8yBnvSSVFFb", "name": "Puck Statue", "lat": 59.30257200000000, "lon": 18.00745100000000, "bs": 16, "bc": 41, "rs": 10, "rc": 42, "ys": 15, "yc": 62},{"id": "596a2c237a274d019ed73389af7c2a0c.16", "url": "https://lh3.googleusercontent.com/bOjaACaE4I5sC2ebsHIbnImc2UqQHxX4Msxzd33b6QO9dHiGG-YFSxEUk75miwNOlGRZBDumRWSkSb_dMLb4XLaYB1YG", "name": "Thunderdome", "lat": 59.29854100000000, "lon": 17.99222900000000, "bs": 11, "bc": 54, "rs": 16, "rc": 64, "ys": 7, "yc": 50},{"id": "59c0c78616c44b03a5bc08b2f40763c4.16", "url": "https://lh3.googleusercontent.com/G9XlyrzQQd2M5rvdiWa13AuIiu8y-Lq6hL0wPXQmZH_pFT0uRlprO5fT7kjc_CDFZpPObe1OGb2kPUibvMpnI881yc4", "name": "Två Flickor", "lat": 59.26129400000000, "lon": 18.01214600000000, "bs": 5, "bc": 22, "rs": 10, "rc": 112, "ys": 7, "yc": 108},{"id": "59c35586933c47caac604f16a6d6c042.16", "url": "https://lh3.googleusercontent.com/2bSF_SE6ssjP6cBimYqLF9OHkfZyO1ncM_45ChrH6FoSSa_18ZdUfV8n9IXc-cW8u_JL7_SyKYmK1mzjnnbMnMg4_mTP", "name": "Lekskeppet Zanzibar", "lat": 59.25334300000000, "lon": 18.07768700000000, "bs": 15, "bc": 33, "rs": 33, "rc": 41, "ys": 8, "yc": 21},{"id": "59e954aa36ea41fba3348b489be41eda.16", "url": "http://lh3.googleusercontent.com/kJoHmwiqQLiwY0fzWQX1lBXzdS2GMenKAH5keQzSsI2iTz3tfgtaTHbhnn3wznXLJ3-_7Qx-_XdyKOPN924w_LLUuH3K", "name": "Twin playhouse towers", "lat": 59.29423300000000, "lon": 17.94016200000000, "bs": 9, "bc": 62, "rs": 14, "rc": 82, "ys": 6, "yc": 42},{"id": "5a25731c71ce41f08321e0bcf9295e39.16", "url": "https://lh3.googleusercontent.com/5NYX5yLJIZKlTok5J_RNrJICUwct8Di13kVfGWYy5ToyyVtgn4Yco19H_-3joTRxHFBGmHXvFv-cJoHrdYEUDxZO4961", "name": "Vällingby BP", "lat": 59.36437900000000, "lon": 17.88352700000000, "bs": 18, "bc": 42, "rs": 13, "rc": 54, "ys": 13, "yc": 42},{"id": "5ae422db9ced4c5d9cdd20d902e236eb.16", "url": "https://lh3.googleusercontent.com/gzzZUSIprMvZ8Ihc4NKXqw3pvDZOIEFiqsAnSRdT6ARBS_TD_OYS20Rdcj8r3NFaagvRnFvefx0bodIHbfl2Qzw_0ns", "name": "Drömmars Sjö", "lat": 59.27807700000000, "lon": 18.01129100000000, "bs": 17, "bc": 62, "rs": 12, "rc": 52, "ys": 8, "yc": 42},{"id": "5bbbdf0f14c642aa97db9733e022d65f.16", "url": "https://lh3.googleusercontent.com/HdTIePKpqJYVoSt-tb1q7oR6eeRkO4KZUFsmss89buazs3idUWsX5kXYq8cPYWAmA45M79ffThVJr94DWs7P0C705A", "name": "Ångest Vid Groddammen", "lat": 59.35675900000000, "lon": 18.08279700000000, "bs": 18, "bc": 27, "rs": 28, "rc": 31, "ys": 31, "yc": 21},{"id": "5c1ef678fff64eca90e0cfbf4d306852.16", "url": "https://lh3.googleusercontent.com/9zRrDXSdIiF1uqMc2UG-Y9lwXwb4cDWLHrIgY_FEBol0GoVng1FU4aRk2osMe5K_Gj4QelCdmalFYwb490e1KDrnwT0", "name": "Hagsätra IP", "lat": 59.26500400000000, "lon": 18.01998600000000, "bs": 14, "bc": 68, "rs": 4, "rc": 27, "ys": 15, "yc": 66},{"id": "5c5a15bc01bb47b09f7dad3349eed9b2.11", "url": "https://lh3.googleusercontent.com/yOBB1NANZmrCIGS7xl_98abv597rWEr6aTGyAcqhcOoLm-875kue8O_oikpr0nQdiFV_1JjOD_zae2AZJ1jqsJCYiQ", "name": "The Seahorse - Another Statue", "lat": 59.30844500000000, "lon": 17.98075600000000, "bs": 8, "bc": 39, "rs": 30, "rc": 53, "ys": 5, "yc": 24},{"id": "5c74f18e34d534a48a0dbda1fac2272f.16", "url": "https://lh3.googleusercontent.com/ORURtJa_fLxvRytuxKIxZBZNFLeqgh-PH3DZrE27J-gUSMqiflfqfFBPBjSixMG_fe30iwOtpl-D2PSiouXU5R1zIjZJHbed4F_3LLGT", "name": "Hundrastgården", "lat": 59.23495300000000, "lon": 18.11512100000000, "bs": 3, "bc": 64, "rs": 8, "rc": 72, "ys": 0, "yc": 0},{"id": "5ce30619101f42fb816340c9ed59d44b.16", "url": "https://lh3.googleusercontent.com/3geZY4kQcmcdSVK8rQCgbw8VA35T4K1SsJv-uG5w5rbqqMIQpyeICnc4prSLmb4Iv9Fggj1wzUx8YqlieZmqBIyoV3E", "name": "Djurkyrkogården", "lat": 59.29295000000000, "lon": 18.11988500000000, "bs": 16, "bc": 25, "rs": 22, "rc": 35, "ys": 26, "yc": 32},{"id": "5ce52a784d7843dbab1abaeb79635c2b.16", "url": "https://lh3.googleusercontent.com/-kBkhSx3JNLTpwtRsOTo9js716xAAc2QdkAiZ06PBXFCjkgyjywGyVzAbtOrdAAeKdqhy3F-HZJB17PH4l3IYgWrZrgttSLkOwi727Y", "name": "Ensamma katten i Dälden", "lat": 59.24620400000000, "lon": 18.09528500000000, "bs": 8, "bc": 36, "rs": 28, "rc": 55, "ys": 6, "yc": 31},{"id": "5d6398b13dad443ba65e4750c9c12abd.16", "url": "https://lh3.googleusercontent.com/8LmYAkjRoUvUWomQ3T8_6jZpwGHl1ruAapIUCDbii1trr6_2QIQ-ZBVzlTx5zg5PuOykf0HYsVnw161McVqYdnvn_lY", "name": "Lenah Och Crister", "lat": 59.26190800000000, "lon": 18.07957700000000, "bs": 10, "bc": 55, "rs": 7, "rc": 19, "ys": 23, "yc": 55},{"id": "5d68ce08db344dd1a8d02940ea800ff6.16", "url": "https://lh3.googleusercontent.com/psbSH2H2FYKLVX_e1w2vmII8ZoIPu0LHGrH-TSETj-vLl3VpvRB42nnBSexzFLiAZpFDIScpkhfLBsHB5d7GnVd8XNw", "name": "Fountains at the Plaza", "lat": 59.33230700000000, "lon": 18.07085800000000, "bs": 9, "bc": 114, "rs": 6, "rc": 74, "ys": 6, "yc": 86},{"id": "5db74c278ba144b89604ab58338f4078.11", "url": "https://lh3.googleusercontent.com/DuIIxL3m2Ha8G9XaVU4SupQKfDb7id6tBaVgXYuHTgE_sDPHnFwiae_O9UOob3kLy94xETFe5q4J1uUaTFlSjxN2ZY0", "name": "Stenkvinna", "lat": 59.40211400000000, "lon": 17.94299500000000, "bs": 21, "bc": 57, "rs": 9, "rc": 37, "ys": 14, "yc": 37},{"id": "5e2a3aeee3cf4eaa9299abcc381f6e08.16", "url": "https://lh3.googleusercontent.com/eus1D1iJqCu6Nga2ffnE6VHs0YbPrj9wFk5X97kRWgFeS2jZtwaviFz0aM5tEh2jc8W-6XsvM0XyFtqr_unvczxr7g", "name": "Lokatt artwork", "lat": 59.26250800000000, "lon": 18.08372700000000, "bs": 10, "bc": 75, "rs": 8, "rc": 61, "ys": 12, "yc": 65},{"id": "5e2ed340e94b45ca9f86b211ea16ffe3.16", "url": "https://lh3.googleusercontent.com/m0ovAHFKKEzkcQ27fh8F1J1qlXX-wTBLBlmbKXQcHfN1XsFQHKfQhw6qOZRfmV1VJQ6VvPJcTeF6Aexlb2cRSBvHegmegVTEjX0PJgnK", "name": "Årstaberg Station", "lat": 59.30011200000000, "lon": 18.02925400000000, "bs": 10, "bc": 103, "rs": 7, "rc": 86, "ys": 6, "yc": 52},{"id": "6080c25ac38b4b2885420a16d29daf6e.16", "url": "http://lh3.googleusercontent.com/7ATmD6Vnnxj04IW61EOdJs_paUotTFfz3U25kVsAwRqh3F5YJSEYywWyD44oHH3AcS2ylNOPcQlvI6PAPJCubDW2yA", "name": "Nockeby Station", "lat": 59.32905600000000, "lon": 17.92782500000000, "bs": 16, "bc": 46, "rs": 17, "rc": 47, "ys": 16, "yc": 30},{"id": "6090ee81d9794d9ebd2642f3aaa01567.16", "url": "https://lh3.googleusercontent.com/DodK3uu5WH6aFYIdM-Zy11RGlgQtknEMl-tVI4_Y7Zh0fPBW56FMZzs7bfQGVI_In8InDmZ1vqDhmtnbgDBGRelLh_0", "name": "Musica", "lat": 59.35127100000000, "lon": 18.04897800000000, "bs": 24, "bc": 47, "rs": 14, "rc": 37, "ys": 10, "yc": 33},{"id": "61a11c93a29948bda7824e3c4be83230.16", "url": "https://lh3.googleusercontent.com/6oqbCYQnkCelqyT-IU5OOFp1fUrJDnqVKPbaSC6OR20Eqr3sdLMAKf__xyJyB2EzC83U6vDkVQLgjuhZWmQhlqAzmQA", "name": "Fish Crest", "lat": 59.31524100000000, "lon": 18.06168100000000, "bs": 8, "bc": 121, "rs": 9, "rc": 95, "ys": 3, "yc": 70},{"id": "61aa423b95df411da404dc324dbf8f9e.11", "url": "https://lh3.googleusercontent.com/iqZwUvkcusUXQ-RGIZQ9jYD2KnIk5TfIqLuE6NkWQIzex5KffhRoQ3Fm3vyYWKeSjW_2KQOW3EweWV7iL8j9udfitHEN", "name": "Vårfrukyrkan", "lat": 59.28534800000000, "lon": 17.96758900000000, "bs": 9, "bc": 114, "rs": 6, "rc": 88, "ys": 7, "yc": 75},{"id": "61ad141d56504089a8bff44d2777baac.16", "url": "https://lh3.googleusercontent.com/xDpP6OoBdCLi8lA6H9I4zP4u5ixfnUugNQQI0Oga5QrzkB60A2PsChdVMU0e7yRVjjXz9ZHf1wxkSOl5PhXFYe-Iuw", "name": "Sphinx", "lat": 59.29127500000000, "lon": 18.10793400000000, "bs": 18, "bc": 33, "rs": 20, "rc": 44, "ys": 15, "yc": 36},{"id": "61af93e37d934b5989b86a7619eed8dd.11", "url": "https://lh3.googleusercontent.com/449Yc2jv5gYLBW48Lr5AKJ4XMBfp_7cqkPQxRLdlcDGEihIh_1rwM0nNEdzTyNxsnaszwP6TMvC0wcRBfx1xwD4nXlJ7UCUgzsF3N92bLQ", "name": "Swedish Museum of Natural History", "lat": 59.36873600000000, "lon": 18.05300400000000, "bs": 21, "bc": 49, "rs": 12, "rc": 43, "ys": 13, "yc": 37},{"id": "61efbab7003040c6827fc6181bb2ef56.16", "url": "https://lh3.googleusercontent.com/W6M1a427xRX1qt_nfIc81_WufPufEcN9sbo_kTQj7-J_S8Vf_8j63pByE-uxPxT9HAJed-ywXeXliQBZ5EjaRGr7aw", "name": "Gamla Stenar", "lat": 59.35544700000000, "lon": 17.91959700000000, "bs": 11, "bc": 19, "rs": 19, "rc": 41, "ys": 26, "yc": 39},{"id": "621dee22aecd445db223bb48e3be6bef.16", "url": "https://lh3.googleusercontent.com/vZQ7_WzaBPQVdHAnlX6wzPtWREZWGfsM5reJ1ecoCalnqzuBHCLFQNqiBC1Q5f3SfXsDXDrCtDK5vgbHqxwt3LEUNLo", "name": "Enskede Rackethall", "lat": 59.28744200000000, "lon": 18.05738700000000, "bs": 23, "bc": 26, "rs": 32, "rc": 32, "ys": 16, "yc": 23},{"id": "62a67ce357d43f369d69140577ccb2ec.16", "url": "https://lh3.googleusercontent.com/CPDUCfxOESUtklYTMpHH0MrXEE8p8P7ZROr-GsvzvdaiHQnTg47hlYuJRioZtxJ0iV1LCKBDD-Dh_u0R3-jO--lgg-N5", "name": "Kyrksjön West Entrance", "lat": 59.35013900000000, "lon": 17.91058300000000, "bs": 6, "bc": 4, "rs": 71, "rc": 5, "ys": 25, "yc": 3},{"id": "63047c3e4d3947d187b7e65ce5fe9b1e.12", "url": "https://lh3.googleusercontent.com/nr8L3z7E1Gi_P3qcO__-Nq9FxHZ_V8DFQ0zzVzX9DrFWzQbzFh71JkXlSBnYeOpB6TlKjzNIDOzYqBiWae5vi35g1E8Q", "name": "Kristallvertikalaccent", "lat": 59.33256700000000, "lon": 18.06521300000000, "bs": 11, "bc": 103, "rs": 8, "rc": 78, "ys": 5, "yc": 61},{"id": "641c14b30c764ef4ab8374f8a70833b3.16", "url": "https://lh3.googleusercontent.com/2Wr0x-DP_fgzO9MnTosiJm9HZ5aNL4jk7eAE6pc-6tjO3gibVtlujwEkIUkbf4V9M56YtLRdXeGCvO1jwUQtN4UweQ", "name": "Konst I T-Banan 2", "lat": 59.36408000000000, "lon": 17.87085000000000, "bs": 10, "bc": 89, "rs": 8, "rc": 52, "ys": 8, "yc": 92},{"id": "646d567e68c24ce0b097a099d049c38d.16", "url": "https://lh3.googleusercontent.com/OaLz0yqE-FhpzD-gxRgIJy0XQuY5Z8Co3s-yZjqKvtDJYzZMh40-urdhFsFp1f0Om92J4BDgm2_3ShCDTzl90wbGGw", "name": "Bredäng Station", "lat": 59.29476800000000, "lon": 17.93368500000000, "bs": 11, "bc": 114, "rs": 5, "rc": 70, "ys": 5, "yc": 71},{"id": "66cf6577c2ae4c63b09cb7046da3267e.16", "url": "https://lh3.googleusercontent.com/8r46MCyNI_IvFGdjrXQjoW1fD7_YZEgeVvPWXa36-7hglowlcRxikmto5vs5LIeDON_Wd-a0muqiYxa0-5Ee9RJ6ito", "name": "Cave in the Wall", "lat": 59.32692400000000, "lon": 18.07389400000000, "bs": 14, "bc": 64, "rs": 11, "rc": 48, "ys": 11, "yc": 49},{"id": "6729ece18c48468886c1883f37da40f8.16", "url": "https://lh3.googleusercontent.com/DZMH2l7fdjdaGrFGIt_SkaErtIUErxnH1Z0BkfGSe7wdhPBq7wmnHJbvMHJAYFQBrmm-ijrgXl8Wt9-I-VISXT3X5RB6", "name": "Norra Ängby", "lat": 59.34763600000000, "lon": 17.90206200000000, "bs": 15, "bc": 48, "rs": 9, "rc": 47, "ys": 17, "yc": 52},{"id": "6830df18f4f2496180157e6a8ec31fc5.16", "url": "https://lh3.googleusercontent.com/4zh15u22Sd4vQpd4XiopxNWJcwwLMQP878FQH7cAfIunSr-JnqPakq2YxAP3OwpleV5YV_qf4zI4mhTwor_LlPiZkw0", "name": "Ånghästen Stockholm", "lat": 59.31394900000000, "lon": 18.05514000000000, "bs": 9, "bc": 69, "rs": 13, "rc": 49, "ys": 11, "yc": 71},{"id": "6840f9362abd4f548d9f67789e32c1ef.16", "url": "https://lh3.googleusercontent.com/1s_VtaLC26-z0c3Zv0-eUdQR0NWSJaus3XCNNMBd-eU0KITu3mJ-MWPkV0_DPwBfWbs5jTknY0pXqVPGWYjGRgoCHD0", "name": "Lagerkransen 14", "lat": 59.31761700000000, "lon": 18.05771400000000, "bs": 7, "bc": 116, "rs": 8, "rc": 123, "ys": 3, "yc": 34},{"id": "6873562685b34e3b836e0b448015d847.16", "url": "https://lh3.googleusercontent.com/8DQ1TNNbpsQ8o-8kCM65pjlZCV1AHnVvJj6EO4JYM30N9U0yQ4QrjHaa96BHB0kBPJ5d-JgXG_N90OemN5G3mZGdUw", "name": "Nike", "lat": 59.29248900000000, "lon": 17.93532100000000, "bs": 10, "bc": 91, "rs": 11, "rc": 93, "ys": 2, "yc": 8},{"id": "68964060caec432f899fff1a32f705ae.11", "url": "https://lh3.googleusercontent.com/zk3ehsfD7PJsImpwbIFOIegOOYVJIPTlQnGBfOGOpC5s9ImAUhxLDeMnshEQzSO6ThLzoIbZZHmh3fetQA-a4dJekA", "name": "Kungliga Tekniska Högskolan", "lat": 59.34681000000000, "lon": 18.07254700000000, "bs": 9, "bc": 61, "rs": 11, "rc": 64, "ys": 12, "yc": 57},{"id": "69223264b5bb485ebe58ecf2aa47a2af.16", "url": "https://lh3.googleusercontent.com/_ZN7nBkjMiLN-eg877RXv9oARXeRcXnZCVMAAdUlYABV747CA99TEU8yFTRY7dMNN9vGpZQhom6mQjv-j5cTbWsIVsmq", "name": "Lokatter", "lat": 59.34393300000000, "lon": 18.04088100000000, "bs": 9, "bc": 80, "rs": 6, "rc": 37, "ys": 12, "yc": 89},{"id": "69680273cbb74c4dba4f8d0db6647b77.16", "url": "https://lh3.googleusercontent.com/fUJxiuVdG1Wr3K8PpynmV8bb6NM2gMxeSWcIrXGs6oZOUQVH2w-uv1TEbh8wdVdejbsCnk0zrjXpHUaBu04hGaRaZusC", "name": "Rovfågel Med Finbrallor", "lat": 59.31876800000000, "lon": 18.04262100000000, "bs": 12, "bc": 37, "rs": 17, "rc": 32, "ys": 21, "yc": 49},{"id": "69b8b466c60049d290fd9516802e74f6.16", "url": "https://lh3.googleusercontent.com/-J5iXll_X9ECfZUmpHIQUjdi5MnmtckP4P44CCWCM8i-ZTYQPSZeh-THkcb59YEqgApR22wFHaoleJv1FF8t7MgmA9s", "name": "Högalidskyrkan", "lat": 59.31740700000000, "lon": 18.03697500000000, "bs": 17, "bc": 37, "rs": 12, "rc": 26, "ys": 21, "yc": 50},{"id": "69cc979c5ec7459ebb9f3dc6a6c083c0.16", "url": "https://lh3.googleusercontent.com/hoy9_TLL0L6JF-uer1MJDosUdIbV4vJCnDBGdxQCG2Jq7oHOkz7C_ULaCDTCmJEUpeEtGW7FFokfqDayv3Pe2qgDZMs", "name": "Stone Turtle", "lat": 59.29794500000000, "lon": 17.97815000000000, "bs": 8, "bc": 34, "rs": 19, "rc": 60, "ys": 11, "yc": 48},{"id": "69e829679b914831a7af54c62ea22afc.16", "url": "https://lh3.googleusercontent.com/E4c5OcsJvou_VQ6ptq0X2WcG98aWJJufYX4YGedqJ8n6yOqHVLEgTULAls5EqbOQZjQGFejDZQgZEdr73mim6XosgzQ", "name": "Litet Lejon", "lat": 59.32892800000000, "lon": 18.04317400000000, "bs": 14, "bc": 89, "rs": 7, "rc": 38, "ys": 6, "yc": 76},{"id": "6a8d78b0864441178d890e77905d6160.16", "url": "https://lh3.googleusercontent.com/iBHxEm_TA7AAX4B4wykVVDp9WpAcakUCVNordHAhvEivVSenLsyT5s4JGnIG9-YVRtSXipii7OAGw-RodDniGrWplEY", "name": "Groddammen", "lat": 59.33933800000000, "lon": 17.95551000000000, "bs": 16, "bc": 48, "rs": 11, "rc": 36, "ys": 19, "yc": 44},{"id": "6ac8972e9c784074a921e794441f5bc7.16", "url": "http://lh3.googleusercontent.com/gmqgpPHUAfG53UxzHvWADf0lWcdg2zMDLNwC0wii3BxQd7U3dmj4R1ti0OyLivM8IS_yKgzZVCNm54xuqZgzw5xrjOg", "name": "Pålsundsparken", "lat": 59.32016400000000, "lon": 18.03931000000000, "bs": 12, "bc": 51, "rs": 23, "rc": 55, "ys": 7, "yc": 20},{"id": "6acfe89e36554938a41fa6974d990935.16", "url": "https://lh3.googleusercontent.com/TGjzOnqQmkClCSY8rJeLXU5LqgAJJ2IHAA7Lj4CQ7kJgx7WzWu2lEkzIOduwucQSUsDRaxFDckg9BVOECvxbS_1_Sj5i", "name": "Green Umbrella", "lat": 59.35522800000000, "lon": 18.04795400000000, "bs": 21, "bc": 33, "rs": 26, "rc": 41, "ys": 13, "yc": 19},{"id": "6b21650c37184eb6aabe128379350f28.16", "url": "https://lh3.googleusercontent.com/vK-t6Ye6BjCbB8pOH-KW2jT2ll1Xns2VmT9YOX7fuJ6Fhim59WqV6BhI1squL4sZEIvBzoG16Wlk3G41FTtb8dGU7NQ", "name": "Klockstapeln På Västberga Begravningsplats", "lat": 59.28821800000000, "lon": 18.01856600000000, "bs": 20, "bc": 22, "rs": 26, "rc": 20, "ys": 34, "yc": 31},{"id": "6b937189075c4e92ae4d1338fa44cf7d.16", "url": "https://lh3.googleusercontent.com/-Ew7TwtESpSfZ82oMbJt-0bra-ectFWmUMJnWj0ySJG7AMNqENWgf51YRpUNcXtdU8XcQ055sankp5UVt5Zn9I87uro", "name": "Hästhagens Bollplan", "lat": 59.24211900000000, "lon": 18.10101700000000, "bs": 5, "bc": 58, "rs": 26, "rc": 65, "ys": 4, "yc": 11},{"id": "6bd9cd441fa54a4ba8e9e3a267cfe45a.16", "url": "https://lh3.googleusercontent.com/f0h8fQqKtpDh4Zr5jSP9mrKx-RitNLepAKRYWm2PGetcmZ5rVF-9JRAcG0vSvWnPFjFxwG9yOSST6_vX_MbuidaYSQ", "name": "Stencirkel", "lat": 59.37879500000000, "lon": 17.84219400000000, "bs": 9, "bc": 37, "rs": 14, "rc": 55, "ys": 15, "yc": 56},{"id": "6c4c80cabc224e8f8329c685125882d2.16", "url": "https://lh3.googleusercontent.com/NN0MVc5GEyQ6Dq02v8tRyNSCGzyF7wFZHeUu1eNUIEjy2MInlDZwK5iXGDww2Pa0cu7tHJChBd_Mfr9zzlHGHJUz4Po", "name": "Ersta Kyrka", "lat": 59.31638400000000, "lon": 18.09149400000000, "bs": 12, "bc": 49, "rs": 15, "rc": 33, "ys": 18, "yc": 51},{"id": "6d039b4fc8d142f0bcba93af6f43b46c.16", "url": "https://lh3.googleusercontent.com/jJBtncQKlnEx0rZ_NZMGlGL4H_qbxwHevWK0vFlAUoUWc2l8oi-1q8fY4qNzeOl-ZAwYI-8W4xrkha8zTEeYY8DroA", "name": "Akalla Stenfontän", "lat": 59.41395300000000, "lon": 17.91774500000000, "bs": 21, "bc": 47, "rs": 18, "rc": 44, "ys": 12, "yc": 16},{"id": "6d44f46c30c34065b50868b63e24b886.16", "url": "https://lh3.googleusercontent.com/zcipivBT7XwgZOaKneFJLhaOoxeyahBg_thWZdvt518rRbtbZnB6Rcic1818I7Xk-vKIz-yi842YiAU8P3Uzy360-Q", "name": "Kampements Bojen", "lat": 59.34222100000000, "lon": 18.10892500000000, "bs": 20, "bc": 72, "rs": 6, "rc": 49, "ys": 6, "yc": 45},{"id": "6d7d2b48ae7148e38e82cf0add1b93bb.16", "url": "https://lh3.googleusercontent.com/3Qlw2-6xfUii00JnEm9mrqEljJ29-R08z3z-N6W1zFb4Cvr5EXKdqeew7_OcXf23wzficqHCwsoEFC5nm66s0xqOMQ", "name": "Lekplats Fagerstrand", "lat": 59.37620800000000, "lon": 17.79836800000000, "bs": 19, "bc": 37, "rs": 23, "rc": 39, "ys": 22, "yc": 16},{"id": "6dd878c0d987408aa406496815f23937.16", "url": "https://lh3.googleusercontent.com/uUpuHTOv5zPrNCGN_NOb4_pWGvUjdicna3XvT5l8TrcMATTEJ9pE0j5XErzkhOv3Yf5U6RBonioaWt1dtGBvPYb9nP8", "name": "Pelare", "lat": 59.36498000000000, "lon": 18.05863800000000, "bs": 2, "bc": 33, "rs": 27, "rc": 71, "ys": 1, "yc": 22},{"id": "6e19d19ba74d49c3852a66c1506d7e96.16", "url": "https://lh3.googleusercontent.com/QKvYStlCHrvmfcD1r1XQmYVDlJiogQnYaGhGc6iz9s3xF2T1S0ONIIol2obb5y7v35Z5M4rOSs236Z1Ety1ZLdw1Nqw", "name": "Iron Cross", "lat": 59.28620100000000, "lon": 17.92305800000000, "bs": 17, "bc": 40, "rs": 23, "rc": 40, "ys": 12, "yc": 33},{"id": "6e5ae75f21a94631b0b746b6026f37a8.16", "url": "https://lh3.googleusercontent.com/TKP4ObT1sSlYewRp9NXbEMdhSQjujNLTNZ_qWw3LHhifa6_xmiNtSctb6foEiQcgBPFwk8zy179RGU5ER8Jwst5bsq4", "name": "Felled Tree 2", "lat": 59.31669700000000, "lon": 17.99865900000000, "bs": 13, "bc": 36, "rs": 16, "rc": 25, "ys": 25, "yc": 46},{"id": "6f22f2eeb05f4c10a9c36555eda3b1db.11", "url": "https://lh3.googleusercontent.com/5VJYwZNC2npCn03sg0H8ZCqHRqxL4AhtbgrbO5cyOaBgXaP2iY9nLfDD6a1K4Q8aVeAZ0iz7sR1b6sW13kJwl5o9Rg", "name": "Kasper", "lat": 59.31514400000000, "lon": 18.07161600000000, "bs": 8, "bc": 90, "rs": 10, "rc": 79, "ys": 7, "yc": 74},{"id": "6f439edd8eb741938e68ba9a29f79dd8.16", "url": "https://lh3.googleusercontent.com/-GHtnh28v37YZWkW8L2uCX3d5Gm5ifWrvKD_5jVMwn32yqHe1Bme3BD4VqsSW02RTehH907HpwqCiRXqIT1yjYCkEJ0n", "name": "Svenska Kyrkan", "lat": 59.28492000000000, "lon": 18.08795800000000, "bs": 17, "bc": 56, "rs": 10, "rc": 48, "ys": 14, "yc": 40},{"id": "6f9aab0bc3a54b0d91a5253caa19fafe.16", "url": "https://lh3.googleusercontent.com/jZdNO6BicY2LWP5zM2l-9H9Rnd7gGPtLDhGjic-dMut665ukdSL0SrgMyDsRVDQBmzjtRSQQMwsK4EviFtiyQuutpOw", "name": "Dove", "lat": 59.30792200000000, "lon": 17.98435900000000, "bs": 20, "bc": 49, "rs": 14, "rc": 35, "ys": 14, "yc": 37},{"id": "6f9bcf287f4843e2a0ea68b9972ef532.16", "url": "https://lh3.googleusercontent.com/OqmmXCwuKf3dPR69ZgXcUhBBawSIa0LhPihT7Ehhk-VTUMdzIr1hr4LZ6sJsBsJVX9hl1326pl4hT0HSzFh_SeTClJY", "name": "Hybrid", "lat": 59.28742800000000, "lon": 18.00241900000000, "bs": 8, "bc": 101, "rs": 5, "rc": 43, "ys": 4, "yc": 68},