[{"id": "0663e2773ecb495db97ffa38617930dc.16", "url": "https://lh3.googleusercontent.com/Nkotfp-M5S43enOAAj5ZrAmou57cYjO0dfrKxNHdlroPBd7Rh8JT-iqXnloyeUtSKMo_SWi1dNj7g96UwWiypvATwoEK", "name": "Sundbybergs Rackethall", "lat": 59.37690100000000, "lon": 17.97611700000000, "team_id": 3, "available_slots": 4, "bs": 25, "bc": 217, "rs": 13, "rc": 131, "ys": 18, "yc": 158},{"id": "0c9f5a1f3b444854861d9e00cf31002c.16", "url": "https://lh3.googleusercontent.com/4l69ISFTAZSLtKOYQ9fvf8Pm_PshbbwK-5ezLJ0JuAT5GENjLCs2bsdnfJ3TMHCua1ZkzIdCpj2EHO9eYZRkal9C7_N9", "name": "Badgers Nursing Flower", "lat": 59.38263000000000, "lon": 17.97761700000000, "team_id": 1, "available_slots": 4, "bs": 26, "bc": 251, "rs": 14, "rc": 174, "ys": 9, "yc": 117},{"id": "0f7e55c63c3230e4ac6b70a9523145bf.16", "url": "https://lh3.googleusercontent.com/RKNa9DONfiTsrYSt1gN_1i7YYAhbhOBpCtDNyoYtD0KlwezgQXYlWBaXW_aA_9DXMk5SQ90dwqqmgDZ5lb4C-KCnyO3fX3bnCZU1ABf5", "name": "Ursviks MTB-Spår", "lat": 59.39811500000000, "lon": 17.96400500000000, "team_id": 2, "available_slots": 1, "bs": 72, "bc": 49, "rs": 64, "rc": 15, "ys": 102, "yc": 53},{"id": "143072eec05b458ab26b0ed28912978e.16", "url": "https://lh3.googleusercontent.com/7p8uVH1C_Aa3TXuVNXvOk7kuEoYji7ygsaRwPUKf9oGoCGyxvL5HB0bExYFiI9RBMLZtXAg1SD7GxVi97-wRJZ0DOpJRkAzyfto8NbtRKA", "name": "Drop Rock", "lat": 59.38472500000000, "lon": 17.95491000000000, "team_id": 1, "available_slots": 0, "bs": 61, "bc": 125, "rs": 16, "rc": 64, "ys": 14, "yc": 79},{"id": "14872f9b784a43a596c91087e37d55e2.16", "url": "https://lh3.googleusercontent.com/qZ-gAbd0Ud34s0t_vSQxdVAIP_aY1x7Em5FFXOHD_2Sie6JmZPvpSxPRgALP6vTL2m1IxVgX6wBOAlVA6V5Tqw2LkDE", "name": "Örvallen Basebollplan", "lat": 59.37537900000000, "lon": 17.98055800000000, "team_id": 1, "available_slots": 1, "bs": 22, "bc": 139, "rs": 22, "rc": 179, "ys": 22, "yc": 125},{"id": "1a82a22854764aaa9669b5f60c3de843.16", "url": "https://lh3.googleusercontent.com/XMlnRT30n97lZfHoedOx5Vx8OvXE6EgO_4PlZjdsbFB_szQSaWYF7GLmf_-BCbbRew_oADDj9Y3cNOEnm2Qbi0ewCvA", "name": "Alby Kyrka", "lat": 59.35944100000000, "lon": 17.97114500000000, "team_id": 3, "available_slots": 2, "bs": 13, "bc": 203, "rs": 13, "rc": 51, "ys": 28, "yc": 234},{"id": "2357734d56d3418e9b5eb0cebae25c96.16", "url": "https://lh3.googleusercontent.com/frWfhN4pYzV-wJbzYaY3DEixjzgZLNuGbC8OfJ-j0jZLFnVSP8hV4BW0pSmw2qzQMOYovElEGYYR-rjdDW0Xb5TYAAE", "name": "Watching Owl", "lat": 59.36984500000000, "lon": 17.96243200000000, "team_id": 0, "available_slots": 6, "bs": 16, "bc": 285, "rs": 17, "rc": 293, "ys": 5, "yc": 71},{"id": "24d5df73a26643fe95ee8c41244e3905.16", "url": "https://lh3.googleusercontent.com/z4W3ipuS3oZp5HYjIphbDLkp96MzXxjDjf_Yxtcw0yP392diN6uJnHtzo2AOPzNw8MIffO_mZ40sjTFOvRk-keHguA", "name": "Krutbanan", "lat": 59.39025000000000, "lon": 17.95867500000000, "team_id": 1, "available_slots": 4, "bs": 68, "bc": 55, "rs": 68, "rc": 65, "ys": 28, "yc": 44},{"id": "2604fc83d4d54c6785dadb34ede69902.16", "url": "https://lh3.googleusercontent.com/jQL_SJoLs5J8DB34-jilZUBvpbdtedZCO9BKH2TrGDQaYI_1ocKB46DNxt2GipYImqZ3kn5qlxqLQdmzLkxJprdgSNW9", "name": "Horisontdykaren", "lat": 59.37799300000000, "lon": 17.93630900000000, "team_id": 2, "available_slots": 4, "bs": 25, "bc": 159, "rs": 17, "rc": 94, "ys": 34, "yc": 129},{"id": "270cd4eb1afc474ca035354a77c16786.11", "url": "https://lh3.googleusercontent.com/88xJgXGTwuYVVrmoSoKbeBF4ct81VGd_jE0e6z5lifkEqhOcdShps0zihhRrU78Dl-zYRtf1d9V09eebDBl2kqs99gc", "name": "Sundbybergs gamla vattentorn.", "lat": 59.36505300000000, "lon": 17.96841100000000, "team_id": 3, "available_slots": 0, "bs": 10, "bc": 195, "rs": 10, "rc": 263, "ys": 17, "yc": 312},{"id": "274f2f2bb6d047b9a9c0928e79045e8c.16", "url": "https://lh3.googleusercontent.com/axhpZevuWhhaIhbwZkzB_5o39SBk7tRygmwHYg28GVQZaCvDlUTjZejJZ9dzS-Q16vLIWsYmxbGsus5YFYWnlnt7Qn8", "name": "Tornparkens dansbana", "lat": 59.36533400000000, "lon": 17.96730200000000, "team_id": 3, "available_slots": 0, "bs": 25, "bc": 138, "rs": 24, "rc": 157, "ys": 24, "yc": 109},{"id": "279140e498bd4009b8b5c7e5c0e64566.16", "url": "https://lh3.googleusercontent.com/G-tc6n4XkfAZyULDJOR6jMBy7fUo--XF4ogjUu-Z8G0sYHtOFr-kiL_Wis8NFkXl26VvMwQcmY8OwOpRJDj4u4DC9y1u", "name": "Rytmisk Lek", "lat": 59.35862300000000, "lon": 17.96640900000000, "team_id": 3, "available_slots": 1, "bs": 16, "bc": 273, "rs": 15, "rc": 269, "ys": 8, "yc": 199},{"id": "2e944987859740089e7a4f311ad7b764.16", "url": "https://lh3.googleusercontent.com/JUwBqRcbtQkTtwSVp5Y1kIumI17YdpXxIa-TN8hNcY2rTeH0bTSAbhiKxI-xZxLyDvN1DHcrJcQiNAQlWnoq3FoMEqM", "name": "Sparbankseken 1820", "lat": 59.35905500000000, "lon": 17.97443500000000, "team_id": 1, "available_slots": 1, "bs": 19, "bc": 232, "rs": 10, "rc": 138, "ys": 20, "yc": 207},{"id": "30b0a561253b4596b2d7037f5798ca97.16", "url": "https://lh3.googleusercontent.com/7I6XhrLbj5kexfQHMjWKN_1k0zrXAD_Tr52WYWT7RVswv70tHmyPmx4Z_iADieFzyxF04MCqMHNzTQWWqo0GuZHFYhc", "name": "Kosmos-Världsalltet", "lat": 59.37333100000000, "lon": 17.96445500000000, "team_id": 1, "available_slots": 0, "bs": 43, "bc": 43, "rs": 72, "rc": 69, "ys": 52, "yc": 60},{"id": "32343dd9f78138cba7c200cd00321b13.16", "url": "https://lh3.googleusercontent.com/cRdZ92sChyZ7RKOijEGZoZLIh8vQGVF2h50hvuUGpKchattH_SUkgu_v3tcYlFvXYFzTCZlGcfhwYijZ4_D0vv0mlfw2udWHUAGttMWE", "name": "Ursvik Xtreme - Nordligaste punkten", "lat": 59.39966300000000, "lon": 17.96713700000000, "team_id": 3, "available_slots": 3, "bs": 142, "bc": 16, "rs": 39, "rc": 3, "ys": 280, "yc": 18},{"id": "3372c273aeac479ba1b637decab2a31d.16", "url": "https://lh3.googleusercontent.com/fb3tXzjJrwRvknTkdlBLXX1E6mKvART7kcDBfms7WBg4GgIvc_PpwnMDMdS43nMwwq9AipT_IZ5zT93EUyTQ6hVbr6M", "name": "Järnåldern", "lat": 59.38581000000000, "lon": 17.94725600000000, "team_id": 3, "available_slots": 3, "bs": 35, "bc": 140, "rs": 25, "rc": 144, "ys": 19, "yc": 75},{"id": "346c3935f1b24232b1a19cba25d0e6b2.16", "url": "https://lh3.googleusercontent.com/YpxzMAXtUHOtXKPRXv7J2BOoS2v_9qDIS-OWjpm6P2P6ixeFduI1PJ3Wzn6evb7hDwcGrRtHTM0VucWnA_tz2nkUaTl3", "name": "Bumlingar", "lat": 59.38444500000000, "lon": 17.95541400000000, "team_id": 1, "available_slots": 0, "bs": 47, "bc": 153, "rs": 15, "rc": 86, "ys": 13, "yc": 98},{"id": "347453f554e648e2a3e3aec1f3611fa1.16", "url": "https://lh3.googleusercontent.com/lzHPP_6BQwS5jkMDUPYR4u9Tcl-SjrufXeuWjFnxtYNeSUoNaB-LuWHoOit6Qt10HoM4WqcSTLpnv_9cBAv0FIiEsg", "name": "Bevingad Flykt", "lat": 59.37884700000000, "lon": 17.96837700000000, "team_id": 3, "available_slots": 0, "bs": 24, "bc": 175, "rs": 18, "rc": 165, "ys": 17, "yc": 159},{"id": "3570f59d45dc4edd8254e874e065e12a.11", "url": "https://lh3.googleusercontent.com/GcvvhKOjV1IFyG6Tq7FMi-XAtGasLCpi8ncNV_2vI-M2-5IFT_KChpki5Vv9eZ6DZNiZsnRbqE0wWOffikYCGauAmNM", "name": "Sundbybergs Kyrka", "lat": 59.36404300000000, "lon": 17.97292200000000, "team_id": 3, "available_slots": 5, "bs": 24, "bc": 299, "rs": 7, "rc": 246, "ys": 7, "yc": 139},{"id": "385b2e6032e747c6a240fb584863fbee.16", "url": "https://lh3.googleusercontent.com/c2ZK2z5km2sBwdgh_hroof2G7DO-bcquL7f0uRdnra7g4dWtSJTHuRSNrWg83RHiVFKh2Fk65ikWkj5RVK1m9bR3s5E", "name": "Lötsjöns Utegym", "lat": 59.37120400000000, "lon": 17.97293200000000, "team_id": 3, "available_slots": 2, "bs": 24, "bc": 150, "rs": 19, "rc": 129, "ys": 25, "yc": 156},{"id": "3c5810e78077452d8149aca2ea3c6415.16", "url": "https://lh3.googleusercontent.com/eAGFGcpRyBCLXwBiMPO6hao976ddGspP5SwXhkWVUnyZk0Ro6xuoz7ytBvUpJtfu5ubbnMePIOSL22981d8BAO5GrA", "name": "Metallåbäken", "lat": 59.35878700000000, "lon": 17.96573500000000, "team_id": 1, "available_slots": 5, "bs": 21, "bc": 267, "rs": 9, "rc": 140, "ys": 13, "yc": 237},{"id": "3d6ba8587bea43688d9c8447ccf47730.16", "url": "https://lh3.googleusercontent.com/mlC54avT6-hbVJ1ubplklj_HpCWpIN3vUrOWEcX4mYDkSZ8GNy1Oml_COjrtHEea0xjxnyukIbFwHhOCS4Cacuy1eQ", "name": "Torso", "lat": 59.37475100000000, "lon": 17.93575400000000, "team_id": 2, "available_slots": 5, "bs": 25, "bc": 98, "rs": 31, "rc": 151, "ys": 26, "yc": 100},{"id": "511516aa78094c53ae403175e498feab.16", "url": "https://lh3.googleusercontent.com/kc4a3r-Ysu8yXWjEDlPDM4PAHCX8MWcq0Q12ttbJUQ9Lo2MJC5cXgdVGUK0r8Dg4jAMEFp2sJnuBebfXxxNnblFoIQ", "name": "Sundbybergs Station", "lat": 59.36077400000000, "lon": 17.97176800000000, "team_id": 3, "available_slots": 1, "bs": 14, "bc": 366, "rs": 9, "rc": 269, "ys": 10, "yc": 262},{"id": "53fbe62ee62a491ba35ce5822e9b04c9.16", "url": "https://lh3.googleusercontent.com/lodbCt-oyXETsTUPrCzBxJiGPJdQPEizdNb-S8ggEBAYiJs7pmYFvdVOMHPOkqdm-xaW5U0vdw5t07VCkYjbjiqSTNw3", "name": "Igelbäckens Naturreservat", "lat": 59.39696000000000, "lon": 17.97096800000000, "team_id": 1, "available_slots": 4, "bs": 232, "bc": 19, "rs": 194, "rc": 11, "ys": 150, "yc": 18},{"id": "572c9d85672b466fa13490d693181a22.16", "url": "https://lh3.googleusercontent.com/W_rhYZ12Wi2DFQ5Pwd8Y4ipNXXgfH_21nHObjgWwJ_2XfXWOB6ZxqQasZEovB8dFDXyIH4FCvI0EMSL97asgbrJpDQ", "name": "Välkommen till Ursvik", "lat": 59.38825000000000, "lon": 17.94359400000000, "team_id": 3, "available_slots": 5, "bs": 48, "bc": 33, "rs": 81, "rc": 27, "ys": 162, "yc": 38},{"id": "57f752cb3893453f8f7b3892aae7933b.16", "url": "https://lh3.googleusercontent.com/iLcTde8C7iE8k_d5-YlF6NNTEh97ennGsXUNDvlA-YwMXJ0FKY-N9WWub2lWJAmHZpJPCAFkzdaIWmPSpLR6t9-3g8k", "name": "Glowing Rocks", "lat": 59.38369700000000, "lon": 17.94739300000000, "team_id": 1, "available_slots": 1, "bs": 37, "bc": 171, "rs": 19, "rc": 126, "ys": 12, "yc": 88},{"id": "593f630bc51d400c84e29f4b0cad7a95.16", "url": "https://lh3.googleusercontent.com/hsHmgzgm3zL5zpvlFniombKxz5AFe2pHfSW45p2uRZSpY4p5b0tdVf7NdzTQDpAivV04XEFsN0xjS7w9-J-akaXa_1E", "name": "Spindellya", "lat": 59.37578700000000, "lon": 17.97566400000000, "team_id": 2, "available_slots": 3, "bs": 17, "bc": 196, "rs": 18, "rc": 104, "ys": 23, "yc": 208},{"id": "5ef0a17f29f4487582b220d4991f6137.16", "url": "https://lh3.googleusercontent.com/syHTIYYdzeMT591QbwuwtOXTu87m9-2qiO54aoRyqE_wHg6h1ZhDfdasQ8G8fvtNbMqabDb8fV5RIDiDe8hj-KI2Fx4", "name": "Hus Med Fågel", "lat": 59.38436400000000, "lon": 17.95819000000000, "team_id": 3, "available_slots": 4, "bs": 25, "bc": 130, "rs": 16, "rc": 33, "ys": 44, "yc": 139},{"id": "5f6c4fd283eb38e09eb5678d83253e25.16", "url": "https://lh3.googleusercontent.com/0EqUbpxVHrHn7iNj9ctwTifxy9wRRrjdJ3akIMyNkuI9ZiZBzRKNFuZKjuGeUrGKDty364XMlwH4SeVDKCrgmJauz9XpHfa-IFNHnag", "name": "Milstolpe Ursvik", "lat": 59.38064600000000, "lon": 17.95430700000000, "team_id": 2, "available_slots": 5, "bs": 39, "bc": 71, "rs": 24, "rc": 46, "ys": 40, "yc": 73},{"id": "5f9ff88de87e4c2dbe37ad596e949014.16", "url": "https://lh3.googleusercontent.com/vOV8R7ZOQRgHKpPiyvwMqhqNXsvSfRq10qN8foXxXpM3-r252cnjN65SYxKzBbacWRqzDCnj6bs6WgI_TLAowfr0IH0A", "name": "Sångare", "lat": 59.37429100000000, "lon": 17.93638300000000, "team_id": 3, "available_slots": 4, "bs": 28, "bc": 96, "rs": 32, "rc": 142, "ys": 30, "yc": 89},{"id": "5fff5ffe38fa343d9a368862215b4067.16", "url": "https://lh3.googleusercontent.com/_6IwG7BAfUjju39u-xQEVbeiFI0fU1sr1al-Qmg_EDHqQh5nV8b02OHSCN7ElZ5QrcISUEu83AVBMf9W13_1VPUOkLOwU7GrqAbutsk", "name": "Ursvik Xtreme & 10-kilometersspåret", "lat": 59.39506700000000, "lon": 17.97832100000000, "team_id": 3, "available_slots": 4, "bs": 152, "bc": 22, "rs": 171, "rc": 14, "ys": 121, "yc": 14},{"id": "6179e02e9a2b4a5bbf70f329bb4c3f72.16", "url": "https://lh3.googleusercontent.com/a1d1Nc9YO4VHQ9syZiinK47rmvK-vujJGCAn2d6oksdMlHDmr22zr3zlXHiyC164Ppzj6660iuIV0mO9UfoQIf9XYbI", "name": "Lilla Grodans Lekplats", "lat": 59.38323500000000, "lon": 17.94640700000000, "team_id": 1, "available_slots": 0, "bs": 24, "bc": 158, "rs": 34, "rc": 158, "ys": 12, "yc": 58},{"id": "68fe690ac74b3356a88d329263017386.16", "url": "https://lh3.googleusercontent.com/zd7ftxybQJ92r_L024ynb_2Thg1EWBJkcyfQ4n_-jTMqZU448Gptd7N_03jT0TthIl7x-u3sPSj_nD6D_2ILioGanCxylxtc4y5PMGFW", "name": "Ursviks Discgolfbana", "lat": 59.38857200000000, "lon": 17.96030500000000, "team_id": 1, "available_slots": 2, "bs": 80, "bc": 78, "rs": 31, "rc": 48, "ys": 37, "yc": 57},{"id": "6c7da77b7a6e470d88941da6b90dc2e0.16", "url": "https://lh3.googleusercontent.com/Ofx7UHm8cDOHSGCrDtaElDpUbh-a2nYS_4YiTFs3daucvZEYOPJwRMlp4Oqk2iJotbElwBilj1OiBCC6uugkKgVVmw", "name": "Skrivargatans lekplats", "lat": 59.38377500000000, "lon": 17.94482700000000, "team_id": 2, "available_slots": 0, "bs": 17, "bc": 214, "rs": 20, "rc": 188, "ys": 15, "yc": 172},{"id": "733d7a955f704a78b3733e8819ba3135.16", "url": "https://lh3.googleusercontent.com/ZbPIDpPBf7mffzK_ewBf523FMIcMXJXpUcPt4qLvVuGBo6faQ1zL7bgXeWijxm_M_OgPASwg49kH0p4w8CQQc93zCg", "name": "Orange Blobs", "lat": 59.38553900000000, "lon": 17.94503300000000, "team_id": 1, "available_slots": 2, "bs": 27, "bc": 200, "rs": 17, "rc": 144, "ys": 16, "yc": 124},{"id": "745852fdebf943a79b341c441c523761.16", "url": "https://lh3.googleusercontent.com/E0rwZsBhRpMlt8oeeKbnRenF-q_BNR-z_Q2cxVzGIOq7tFLj_8Gfr_epGllCdseiGYHkWI6HX2PoYYIisXIdZi93lQ", "name": "Miniatyrskolbänkar", "lat": 59.37661000000000, "lon": 17.96348600000000, "team_id": 1, "available_slots": 3, "bs": 29, "bc": 108, "rs": 33, "rc": 154, "ys": 17, "yc": 93},{"id": "7652eca72bed4d40a6e7a8c3cb4810dd.16", "url": "https://lh3.googleusercontent.com/jzFKgx_n1c1hCsKVumkXHwMmo5HYWk_2ACYRBWPpzcOf-R0M8NMc8X9OfTZIskZdEyiN_d9DTV_gTxqyqiGwHT7juBY", "name": "Förvandlingarnas Brunn", "lat": 59.36365600000000, "lon": 17.95830300000000, "team_id": 3, "available_slots": 4, "bs": 29, "bc": 178, "rs": 22, "rc": 121, "ys": 16, "yc": 128},{"id": "810d2005c533480d8865230fc1b83a90.16", "url": "https://lh3.googleusercontent.com/mKXEY2B5wB2ACFhgKlZrC3XDHs8N_nH0PU-44i4EVlHRYFJDuu3HdYMequNP_H0TgOycy71R_wZ0SUFqlnlVFLKBtQ", "name": "Lilla Bocken Bruse", "lat": 59.37510800000000, "lon": 17.94160000000000, "team_id": 2, "available_slots": 1, "bs": 17, "bc": 182, "rs": 27, "rc": 195, "ys": 14, "yc": 106},{"id": "95a972fb4a664f8585fefb2455bc9d1a.16", "url": "https://lh3.googleusercontent.com/QiQEp232UsSmDlXaK8WrktOgc_ag2x-egxGpCd8927ep6aswAJXHaO6-70TW2rCVT4sg6zfyupRWRm3n2f_gZavLqIM", "name": "Sittande kvinna", "lat": 59.36804400000000, "lon": 17.95908400000000, "team_id": 2, "available_slots": 5, "bs": 17, "bc": 327, "rs": 12, "rc": 307, "ys": 8, "yc": 83},{"id": "960886aa035c491fb464baf9aa67280d.11", "url": "https://lh3.googleusercontent.com/5OfFh16B2FaQMqHBroRmX19Bp2SX2blMkVfaOD4Rlyex_LbNO4K4LDb4CFCDGoNhSpYnzUhetggW9_V7fy9-", "name": "Staty Spelande Tjäder", "lat": 59.37862300000000, "lon": 17.93493000000000, "team_id": 1, "available_slots": 5, "bs": 28, "bc": 97, "rs": 19, "rc": 60, "ys": 50, "yc": 118},{"id": "967243215526429890711b5158b66890.16", "url": "https://lh3.googleusercontent.com/NH23ZgJmwfd_7Ff6sgzm95Fn4byec-JPpWu58dBFJBaLTOUJ-kc19fH2g83xjiu5686lbbxETFOx1SAt9E42rSbx_A", "name": "Goliat", "lat": 59.37369700000000, "lon": 17.94279000000000, "team_id": 1, "available_slots": 5, "bs": 21, "bc": 170, "rs": 24, "rc": 183, "ys": 15, "yc": 135},{"id": "98b90d12d65d4fd2afc7e4a58f28ab55.16", "url": "https://lh3.googleusercontent.com/_ulxZP3qPCX0B7nqvh7AHOti0WVr9rba-kr50p4WgpSSv2Jbo3tJjCinPSyuwz9MXrY-imdzYCgbQg9rHeKLnSCWaw", "name": "Rastplats Ursviks Motionsområde", "lat": 59.38313300000000, "lon": 17.96836900000000, "team_id": 3, "available_slots": 2, "bs": 81, "bc": 56, "rs": 61, "rc": 45, "ys": 50, "yc": 50},{"id": "a6094f85cf4847c9a6898bb970a07dcf.16", "url": "https://lh3.googleusercontent.com/An3mBgQ6g7bmA1m1e60HXwETxg8J5LyhTzwnJIrebyLe9LkMq3Nsjgw87GYDVXwOAoCwqHMN890PaJ6o1Gf32jVccZA", "name": "S:t Petrus syrisk-ortodoxa kyrka", "lat": 59.37597100000000, "lon": 17.96972900000000, "team_id": 3, "available_slots": 0, "bs": 12, "bc": 318, "rs": 11, "rc": 384, "ys": 7, "yc": 255},{"id": "a62b9468bdd547708775b6e5c22e043d.16", "url": "https://lh3.googleusercontent.com/YWCKS2UY-ZRvY4RFjbP8t7sMk52WUD9cSEnxxicbK7W17RMsVvOQ49kUHjEcHXeOHDAoiAAayih7-AOAHSsR0sxAquCoarvyT-fbO9AA", "name": "Ursviks Motionsområde", "lat": 59.38164800000000, "lon": 17.96969700000000, "team_id": 3, "available_slots": 0, "bs": 51, "bc": 115, "rs": 21, "rc": 68, "ys": 27, "yc": 95},{"id": "a9619c4d8ee14a5685c4c1f2aa88e732.16", "url": "https://lh3.googleusercontent.com/Qkdc-_jJehOW6BtmFCdE2HIo66RAjPeqCvCDfHCnSsve3DNmEhM7z6BeCIoGaWVIM2HQRTwI6T9A9f4v-hDEREi47_pR4jvhb4X2eEs", "name": "Nötbacken", "lat": 59.39055900000000, "lon": 17.96252900000000, "team_id": 2, "available_slots": 4, "bs": 86, "bc": 60, "rs": 58, "rc": 58, "ys": 42, "yc": 30},{"id": "acbd879e0f8b4d56b7acc2d66d295ea1.11", "url": "https://lh3.googleusercontent.com/yZ9yxquuVMvW8BVSdJKOG0w5WQW1bOWuIHmYXseXtBms6WslHVP64wqpe3hwpsDHVLaEhPJZ_XRCV2Dak3HRBJ-H3Yws", "name": "Spjutslungaren", "lat": 59.36778100000000, "lon": 17.96617300000000, "team_id": 3, "available_slots": 0, "bs": 15, "bc": 281, "rs": 8, "rc": 145, "ys": 15, "yc": 297},{"id": "af1fe6f6ff24474e828dda5b3649a0dd.16", "url": "https://lh3.googleusercontent.com/RM_lGYtskM5LF8jO16c5VI0t619ckncFilMTS3BTndNeJ3GmaBhEJpQKFWREw-OSfS0qV1txZ9YuVU2S5esQ5-vTFQ", "name": "Bihuset", "lat": 59.37472500000000, "lon": 17.95300300000000, "team_id": 1, "available_slots": 0, "bs": 55, "bc": 60, "rs": 33, "rc": 59, "ys": 62, "yc": 74},{"id": "af67fe5ff6f84c03a884ac30914f738c.16", "url": "https://lh3.googleusercontent.com/7rJCaxpNnOShvSWIiDSdpBKXHpHJA5NOzJ8yoa2x_KDXmqsH5-2352Gq0dFwwzjSfNqRh_lrTc39f_4LVlHpKy3XnoEf", "name": "Stenkatt", "lat": 59.37234300000000, "lon": 17.97843600000000, "team_id": 1, "available_slots": 4, "bs": 19, "bc": 181, "rs": 10, "rc": 126, "ys": 26, "yc": 196},{"id": "b05f89a64f0d45c394ea6a4a4cdec092.16", "url": "https://lh3.googleusercontent.com/NtQbXuipgV06jTvQzlv7G4TmhK9i7JvF-CtmUkL9X8O0wIF2ghO7fhio4FPVm9QGx8nNi59lttU0KDvJH1PKk99ggQ", "name": "Abstract Faces", "lat": 59.36365600000000, "lon": 17.95753900000000, "team_id": 1, "available_slots": 5, "bs": 38, "bc": 119, "rs": 29, "rc": 91, "ys": 29, "yc": 96},{"id": "b11e027c6bd54a08b8cfea9e9fe6b6ed.16", "url": "https://lh3.googleusercontent.com/ukeU3m88kenu8jlnPic9NaVChDxRDf6JnyfdOHAacwm952OMK_KBk1zTxOuM7aqxQpfV1gTl1OANY6efbO1tLi6f2Ynr", "name": "Plommon, Therese Clewenstam", "lat": 59.37650300000000, "lon": 17.94439600000000, "team_id": 1, "available_slots": 5, "bs": 10, "bc": 304, "rs": 20, "rc": 337, "ys": 7, "yc": 47},{"id": "b553b08d2f964ee6abe30f7860fc965f.16", "url": "https://lh3.googleusercontent.com/aA8tQmZQ9RahQ52zAG5rtai6OkisfZsPMfxV6lx4VeNlDE7G-fbL0hoGrjEmCR1XP_smvXBbKZ04ReJg9dASnZsBZPw", "name": "SEB-huset", "lat": 59.38109800000000, "lon": 17.93770500000000, "team_id": 2, "available_slots": 5, "bs": 75, "bc": 74, "rs": 56, "rc": 31, "ys": 45, "yc": 59},{"id": "b559d64be8c8412587f94621f33ee16e.16", "url": "https://lh3.googleusercontent.com/_vNm8_AQVu-fPVL5MlRostyUI1MXyic7mpqykEDDqhO-vfTNPfGEj7wIMEsxyg6BdC8ceJztwbqDjn4N3KegHH8l6A", "name": "Sundbybergs bibliotek.", "lat": 59.36259000000000, "lon": 17.96549800000000, "team_id": 2, "available_slots": 0, "bs": 15, "bc": 224, "rs": 16, "rc": 224, "ys": 15, "yc": 183},{"id": "bba50a168a6143ce89b84f3387731e0c.16", "url": "https://lh3.googleusercontent.com/Io_Dqzld8Q7WAcLrxr68oNfqnmIehs92M7pwozxk18E4J_2hueeKmRmXM9j5HRrNqyFo4OW58I_WUN1AcniTzhbOMQ", "name": "The Western Chapel", "lat": 59.37456500000000, "lon": 17.95577400000000, "team_id": 1, "available_slots": 0, "bs": 81, "bc": 48, "rs": 50, "rc": 59, "ys": 55, "yc": 53},{"id": "c2912be2697c4aa2b3230c7887eb499b.16", "url": "http://lh3.googleusercontent.com/iIEh5TiWJMvpBueGjXE0rL3WANdpvH9N8SWIZEJY3uEIKarIk24K1fevL740IbzzHgVxgPxT3u0YwS8u9tOvmZAdbY0", "name": "Jorden", "lat": 59.37720100000000, "lon": 17.94613800000000, "team_id": 2, "available_slots": 3, "bs": 40, "bc": 92, "rs": 48, "rc": 56, "ys": 43, "yc": 81},{"id": "c4f965142e684d59ad3ea66e7307d64b.16", "url": "https://lh3.googleusercontent.com/LBV6JE9UjMhLpvtB4DmhoZyC_YGNetnHUUVD8LufmNYs-KqCiVP8T6F65V57cxpvmpkhFT4oHfmfdc7N2pJkwj0iJe4", "name": "Uppe Med Tuppen", "lat": 59.36724300000000, "lon": 17.94968000000000, "team_id": 1, "available_slots": 5, "bs": 32, "bc": 65, "rs": 63, "rc": 81, "ys": 42, "yc": 66},{"id": "c9cc0f38f1fe4e2cbef5d179370519d8.16", "url": "https://lh3.googleusercontent.com/eP9vpCk5YPUEFcYAwCbbKHnMcarELpIF0fpJfPyRS9cxIdYcgtrVXyPK9a_od5Ku8ZWgcVU_Q7lNcaWVfiI-WXedZg", "name": "Kulturhistoriska Spår", "lat": 59.39392600000000, "lon": 17.95610000000000, "team_id": 1, "available_slots": 5, "bs": 84, "bc": 33, "rs": 138, "rc": 39, "ys": 73, "yc": 23},{"id": "ccec512d970a4080a0a2a220e14cc6b7.16", "url": "https://lh3.googleusercontent.com/679AsQhPd-u3j4y7BAJnX_-RXa_98XQKwX53WQh3fTDQuEk2QAJNrspMYP4B8jcjcuO2J7tNlPR4kFQ4U_OUVSohVg", "name": "Sundbybergs Stadshus", "lat": 59.37832100000000, "lon": 17.96866800000000, "team_id": 2, "available_slots": 2, "bs": 17, "bc": 303, "rs": 13, "rc": 283, "ys": 8, "yc": 109},{"id": "ce9fd4f5409d424897b7fdca99dcbae2.16", "url": "http://lh3.googleusercontent.com/HInTwN6l1j61UyMO6fK_8OIXXvVByMChNzqK8-AygeMrvXr4y_vOsFMHf70TJzDQkgb9bfA7S6JwXMEDP-lICzOACQ", "name": "Dalgången", "lat": 59.39349200000000, "lon": 17.96138500000000, "team_id": 2, "available_slots": 3, "bs": 106, "bc": 39, "rs": 117, "rc": 43, "ys": 52, "yc": 13},{"id": "cf574b93799c41d3bd714b9f96f898e4.16", "url": "https://lh3.googleusercontent.com/X_t458zig1qRqRMS4eF_SXK1q18_hpMZA07yNALfIeyXJFBAZTQNzdZL1hOhhtbSpXEttZF_pCGSeJ0n9dGErZaVtVg", "name": "Spårkarta Och Naturreservat", "lat": 59.39617700000000, "lon": 17.95866200000000, "team_id": 3, "available_slots": 0, "bs": 73, "bc": 40, "rs": 54, "rc": 59, "ys": 63, "yc": 59},{"id": "d04878bd9ed347b99c5fd2ca04c1e58b.16", "url": "https://lh3.googleusercontent.com/tySK7MyeNsr4QX91ZwI04hOyjt6eg-UlZzKgB3u3UnH2C4G-4Ra3nhRa_-oxbb3h3Ql46fml4fzPlY-hleZ-TugR5g", "name": "Betesmarken", "lat": 59.38979500000000, "lon": 17.96128500000000, "team_id": 2, "available_slots": 4, "bs": 69, "bc": 67, "rs": 50, "rc": 71, "ys": 41, "yc": 39},{"id": "d114f77ba12a4db0b07546d59dc5fd48.16", "url": "https://lh3.googleusercontent.com/4GxYQ0OHT11ZtpWbT0tca3fH77wYy0Lq2hBACjP-m0Bo_8HVVLF64S-bZVzFNUx4G40fYXO15hPkzp_pYTMAc3pxOxDq", "name": "Med karta och kompass", "lat": 59.36156900000000, "lon": 17.96599600000000, "team_id": 1, "available_slots": 0, "bs": 11, "bc": 311, "rs": 13, "rc": 322, "ys": 9, "yc": 286},{"id": "d447fcfbef333a15b626bd14936aae79.16", "url": "https://lh3.googleusercontent.com/28X9YeME3DVYQpVUGlx3vZuCYNNTOOtQhzj_iAqKN3p8kQM_Uaz-nL4nq7qR8JaZE2ri8MbfIvgDOeltCXoxxglsRna7aGR8mDyKXXEY", "name": "Stora Ursviks konstgräsplan", "lat": 59.38206200000000, "lon": 17.95363200000000, "team_id": 1, "available_slots": 0, "bs": 32, "bc": 175, "rs": 20, "rc": 91, "ys": 18, "yc": 139},{"id": "d84ce5d92b103526871949ac659fa3d9.16", "url": "https://lh3.googleusercontent.com/itTITOonedNBvAezeOXIUCCyd8THViHOZOVdmr1VXV_WnXRCDUw6v4PW5rMra9xvQX-JWdirG92FovthPxMhwps5gyxVuVnpqbxGYfZ6", "name": "Igelbäckens Naturreservat Rastplats", "lat": 59.39453500000000, "lon": 17.96978800000000, "team_id": 1, "available_slots": 4, "bs": 294, "bc": 17, "rs": 210, "rc": 15, "ys": 168, "yc": 8},{"id": "db073205ff0d385caa4dda2dec08e460.16", "url": "https://lh3.googleusercontent.com/2AplxUv_9zo1QvOJv9BNgni1uG6OpAv_VdvDJCOH291OL19K0tO3ws4ji-aUFFVu3XM4VpyX5W3TchPTOpA-W9GGrwgANNA1qOOIioc", "name": "Spannmålsgränds Grillplats", "lat": 59.38596400000000, "lon": 17.94355800000000, "team_id": 3, "available_slots": 3, "bs": 14, "bc": 68, "rs": 19, "rc": 87, "ys": 16, "yc": 54},{"id": "db0e9737efc74de5ac6847eca0ab6cef.16", "url": "https://lh3.googleusercontent.com/RREorFTjrR8AfTSiqfsDpQ51EH7A4_Bmshh_temsstZnQjFRf2PAE6JtzHIe78Vg1X-ifzq9yUySyrbLjArQcmmtiUBo", "name": "Lynx Mother", "lat": 59.37277600000000, "lon": 17.96706300000000, "team_id": 2, "available_slots": 0, "bs": 39, "bc": 100, "rs": 32, "rc": 84, "ys": 41, "yc": 80},{"id": "e39676aed0c748669dc60461c0150c9e.11", "url": "https://lh3.googleusercontent.com/hnSO6I1yenlctqwNKSsfDSivU-cFiCEaGw36GkfSCWMWWE5lsGmX1V5BHSvsZ1yK3W4_2pNaV8-1r36QfduhwqwmjQv2", "name": "Money", "lat": 59.38074600000000, "lon": 17.93689600000000, "team_id": 1, "available_slots": 1, "bs": 70, "bc": 79, "rs": 36, "rc": 35, "ys": 46, "yc": 67},{"id": "e6725d4c2bd3496b998f52c10e015267.16", "url": "https://lh3.googleusercontent.com/XZV3qVEuYBE9h9ZdhMWKubRq4DjFj4TTNqPUhbEENL-7jHcEDMC_izZapy5kJiTvRiqRTZlP62yL9o5Fs6Ff50x0YV7q", "name": "Sissi", "lat": 59.37403200000000, "lon": 17.94212200000000, "team_id": 1, "available_slots": 5, "bs": 28, "bc": 141, "rs": 26, "rc": 142, "ys": 25, "yc": 88},{"id": "f0ac51f1e0994fbc9e1bd120713b46bf.16", "url": "https://lh3.googleusercontent.com/PnHHVJhk4mOeRt62Dwgwdj2lHD2Pp5S3liKt0yUV1AN0QpvrERBYP2Kj8BOexNoSIiDflfVCriA2TKcH8NfPS9p5pHoN", "name": "Bryggarkyrkan", "lat": 59.36358100000000, "lon": 17.96632900000000, "team_id": 1, "available_slots": 0, "bs": 20, "bc": 248, "rs": 11, "rc": 211, "ys": 15, "yc": 181},{"id": "f534dc24662a484cbc29a2d9d5a66cbb.16", "url": "https://lh3.googleusercontent.com/kf1UmWukJkEnKLzVMhRWaLUyY1HiWuJlEvYwpKJuF5wQc4PaLS_h1MaGE6HE5AyJXw6QfniwE8mDiwJwweK7irxNsQ", "name": "Mata inte fåglarna med bröd", "lat": 59.37183000000000, "lon": 17.97229200000000, "team_id": 2, "available_slots": 3, "bs": 27, "bc": 128, "rs": 20, "rc": 138, "ys": 27, "yc": 139},{"id": "faedbba186d343a7b0c805a0d4e8bea5.16", "url": "https://lh3.googleusercontent.com/K6QYa6l6awk3oKa-Zkoj2ybYwXboYhcBfl_n-j3TM5RlWpSYH0rUYqeKiAv_NcO3HSQVXse_DEzjUYl64lc2R7SYHQ", "name": "Kymlinge Ghost Station", "lat": 59.39465700000000, "lon": 17.96570300000000, "team_id": 3, "available_slots": 0, "bs": 209, "bc": 22, "rs": 207, "rc": 18, "ys": 109, "yc": 14},{"id": "fb559ace518e37dca8b9c8d409c4d402.16", "url": "https://lh3.googleusercontent.com/6G3b9fsp90Ckc-qhoNFVjshGNIYi_3BOt0y1y1X0KskargOCU5RXxMGmTZRJglKu5Mz3XkthVQcFkKkKgcW3v8100NA6-umNUnVD5tYM9w", "name": "Kottespåret - Låghöjdsbanan Stocken", "lat": 59.38509400000000, "lon": 17.97019400000000, "team_id": 3, "available_slots": 2, "bs": 65, "bc": 65, "rs": 35, "rc": 42, "ys": 44, "yc": 60},{"id": "fc647078f6e740d7aa8e6f048ab6b434.16", "url": "https://lh3.googleusercontent.com/ZHRWJLoa7DKX9g3Ri6ufhWP9_GApYvAbE1LASkBVDuayneDue4t-nu5GJ_tw07cW_5z8ualNX6AD0ino1mvv2vewKLY", "name": "Här stod järnåldershuset", "lat": 59.38370900000000, "lon": 17.96956200000000, "team_id": 3, "available_slots": 0, "bs": 65, "bc": 62, "rs": 53, "rc": 55, "ys": 51, "yc": 56},{"id": "fe51402f24c04363adcb0eaca8f39ecc.11", "url": "https://lh3.googleusercontent.com/43Kc4SPMdGDiCFZEsUoHyh9M1Jm1moPlnnu0wAsnHUg28Wy0bQpSgVmehZPDc6Wr-BnJtRsBu9AUzGvCMBt7I-c8cJw", "name": "Spruthuset", "lat": 59.37116000000000, "lon": 17.95452900000000, "team_id": 1, "available_slots": 5, "bs": 10, "bc": 104, "rs": 56, "rc": 146, "ys": 15, "yc": 49}]
