[{"id": "008c3a1cc4cd412d97a83ebee6d8738b.16", "url": "http://lh3.googleusercontent.com/5SU6MzJnSl1fE8kRqsgcSk4ysJLCwgqtHX-y-YJJLgRiUP28vQdxNKobY2PvsTce_XoDbM-AQeHuypHwMqv903SSgr0", "name": "Iron Wheels of Sura", "lat": 59.70699300000000, "lon": 16.21556500000000},{"id": "0c1a46cdc1d24ff9b26b203011563c70.16", "url": "http://lh3.googleusercontent.com/QdXjtB3CPcWy9cDGpTc-6X0r6p4NWjWiABY6BxTIud5qtjFdecL-OTprPnYZy_mt-5c79luavXN1ZYG10Xdhwy2xa6fW0pJTJ40P1Xw", "name": "Peggen", "lat": 59.72529100000000, "lon": 16.23567100000000},{"id": "0de49cbf32db45219f7aa8e65daf1d2a.16", "url": "http://lh3.googleusercontent.com/4UVHXI2p_sh-aYIyqZSVJPuD2lcGjMSYt_0qHC5fpN283j6MM9jRqy0cdf_JvEgN3bl83UnBQGT-al-jaeE6KFbVXaI", "name": "Informationstavla Surahammar", "lat": 59.69902900000000, "lon": 16.24414700000000},{"id": "20a05fe3b25543f8a197070b93633263.16", "url": "http://lh3.googleusercontent.com/Hxeh2FBJGNDdteBcM2h2rQvI6bMsgAN_C3SGWzGQpPuZrSyG8DPMA_vdiJmRwWmCtiLR07zezurYNk_0NnPdIXnra40", "name": "Lekplats Munspelsvägen", "lat": 59.69445600000000, "lon": 16.24054700000000},{"id": "22a1baef2c0c49ffb78a46f23cfc002f.16", "url": "http://lh3.googleusercontent.com/oPBHC14y8cy_6GjejEM-2Wr9xDkaqsFM0m9hX8WjVUftfgksS4S1ODBdJhdiwJmEfVk0keISn_FDPGZbcRSi8boPmTQ", "name": "Kungshammarområdet", "lat": 59.77894600000000, "lon": 16.18874600000000},{"id": "2348262ced38402f88a1dfb3c6c2a5b3.16", "url": "http://lh3.googleusercontent.com/lSQbJ6BMM98LxM6EcBjeQF_vl3Xp64ffvCfOmh6S2MhsyTUS_1kfLt5N6djyEBluf_MevNpBjcGM1pUT0D7V5fSAdPM", "name": "Mälarenergi Arena Surahammar", "lat": 59.70202400000000, "lon": 16.22119600000000},{"id": "235ec6055e0841be8d6f35a57937cfc9.16", "url": "http://lh3.googleusercontent.com/l_Sentv9JWONMnbAfZt0lLm20fcj0p55R-EH2Kq38BZGItUqne4qRnngErMX-3UrkOtpdYqubaZu243KjzDkFx3zJA", "name": "Pingstkyrkan", "lat": 59.70788500000000, "lon": 16.22306100000000},{"id": "242721c6589f4a4bae0df9fc1b47db82.16", "url": "http://lh3.googleusercontent.com/Mrr11ONGwunWcJ35366N5uv7ZRMk_Z5AJ05Y1qn0Lyg7MLo5RwjOs2SL10pSEa0ActBzp1PRjBVs2EMS1zQDMo8M7nM", "name": "Surahammars Kyrka", "lat": 59.70673000000000, "lon": 16.19686200000000},{"id": "2a8e85f5a18746ea8668294f076554fe.16", "url": "http://lh3.googleusercontent.com/vApiFfAZ7NY6PRzzhyEBuFnmW5ni4e3LHWiYC7IvsBO8yXEG5p71-vaWOwauDGY_C8dJhkPNaugqQhSU4K0bcK1LnaA", "name": "Hjulsmeden", "lat": 59.70731400000000, "lon": 16.22211900000000},{"id": "30740042b9454a5ead4a76154d3024aa.16", "url": "http://lh3.googleusercontent.com/u8cyfK2GS_T6UdAKlNc2fCpk-XLXKsfMnBVBZSz_guHdj01hAzjoLZJepbTnc85pDgnygGzpGryA4Lwi2xEZ3pBrnFQ1", "name": "Virsbo Kyrka", "lat": 59.87491800000000, "lon": 16.04962300000000},{"id": "317b70d07139484789e99ffbbccf3e39.16", "url": "http://lh3.googleusercontent.com/WCWGg017jiz78nN6yITwFhwS14jCPRtlFy--Jj5mx8mhXSCi3-ckKneBMGdxR1EVXjkktF_J2sYS1-MaVY105zGiUi0", "name": "Folkets Hus", "lat": 59.86501400000000, "lon": 16.04044500000000},{"id": "348bc4738b8042319c98448950ece33b.16", "url": "http://lh3.googleusercontent.com/UsH_QnZWclxsJPFAAm4LOQovlicqthpNz9SABviDvyeElRR9s1Pd8Zb6wSryt5PqE5u4WFe9EvCVlq1JqY8PhZXGq6A", "name": "Välkommen till Surahammars kommun", "lat": 59.87147600000000, "lon": 16.04594400000000},{"id": "38aed07c7a454265bb96426f3d16e18d.16", "url": "http://lh3.googleusercontent.com/Wa61lxPeowD5eiubM_qw1aDKnRzycOY4O0ZliYFE4E7Gp8YrU2HR8A0zTpP9tRV2CF4Nwy9EIjDV33w3FjAqim6r464", "name": "Ramnäs cykelpark", "lat": 59.77579000000000, "lon": 16.19850600000000},{"id": "3f41256979be417eabda0f20946c6dc2.16", "url": "http://lh3.googleusercontent.com/dv_MFLWVkYLoi4HRcIDgcuZ2oTwNWqpb3uVBwQnYuCbMCh5PHjUSQH7LkNn30HCzaOIjGq2zX5ha2uBCJttB9wFBrWhg", "name": "Såpbubblor", "lat": 59.70795700000000, "lon": 16.21555700000000},{"id": "43446e81fb923722a96f38b2411048be.16", "url": "https://lh3.googleusercontent.com/ILeT-SWAUcFAvSX2MjqbwUlAteIjWRyzPJi4AogCdb7nn0DX87jsSy5AgebxZ3SkUXgU1pQYQzWXrkUNVgGU2aCu27d0sCVgYXTsbP1c", "name": "Stigen delar sig", "lat": 59.68732600000000, "lon": 16.26379000000000},{"id": "545bf74ded2e35e6899133c2789b82df.16", "url": "http://lh3.googleusercontent.com/teGDdOqS8aWQsGALL4E6jt_jiddIODgqJR5y3b6W887H96xBs_LsIJowcx5F_cpWvqMrq8GBeCs2bO2vHmhMPFsNHd3eJFXlgYu4w032", "name": "Virsbobadet", "lat": 59.87017400000000, "lon": 16.05674700000000},{"id": "559c5db91125478b93b6aca433a0a3b2.16", "url": "http://lh3.googleusercontent.com/qoyi5yY2tLwadum-K4rKn2LyuAZFN0cYWkjl2sEqzSq38khCjBUZv1JA-ak9osFD7L34TQ7q4ZSv_VqjZj5QgRGFiGq7", "name": "Kyrkbyn", "lat": 59.76572400000000, "lon": 16.20718500000000},{"id": "67a1ae8af96648c99ff67e8b6fcf8829.16", "url": "http://lh3.googleusercontent.com/AvppJvWOXtuMtVW-F8EB_c1m9noFwUZ1pB7IkbGy2VKMN-NDp1BBAAupT16E28gy27MGSbwTC46cURK-Br7Q0z99_PQ", "name": "Tallskogen efter branden", "lat": 59.89878300000000, "lon": 16.10845000000000},{"id": "698d86e72004429ebebaaced9553e0f5.16", "url": "http://lh3.googleusercontent.com/Uz6-gFXsW1e_RJKOkhQZav1youHPB5fgTcddhiP1Fc4NRm22SYAsoffJMqOryZajk9DBQJePRDj5OjuBAaWlE6Uttqk", "name": "Vita magasinet 1810", "lat": 59.86766500000000, "lon": 16.04677500000000},{"id": "6a920a9e9dec4b38b531c44717a787f4.16", "url": "http://lh3.googleusercontent.com/SNG2JPzWYP_cvYCAtyk4ZXnhy4jfID9_KRZaSGXt8kH5c-WfydCW62K3oHdp7T5LkM9q8mBMeVct8qVJldKuEBNgxQ", "name": "Bigrafven", "lat": 59.71057500000000, "lon": 16.21118400000000},{"id": "786ef5a2a0024c298adf63b423fdb7fc.16", "url": "http://lh3.googleusercontent.com/uPwgIyhU70wMmyN4xRfPvvENZwJzFW7XWpUsD6-gkt4i1jHUHM21Uu06L1Q_gWU9k3Yuk2Zi6FKplpkDc8-ZRSt5Vg", "name": "Magasinet", "lat": 59.78378600000000, "lon": 16.18795600000000},{"id": "79c452ca8a7a433c800d42d44fe861a6.16", "url": "http://lh3.googleusercontent.com/6c8YRNiyDvn8CxoE8MB7H1C9z_jvI8FAmnPV9yLR0fwMTZkXsxD40qNP8KvDsHC4Pa5FZNfKQs76UxvsZVNjq6GCIg", "name": "Granbarkborre", "lat": 59.88611900000000, "lon": 16.09530000000000},{"id": "818c7d6b83864f4aaf5df4b2100f953f.16", "url": "http://lh3.googleusercontent.com/5TaMzBUhoviIsjB_qmhnuVaLIoxznkpL4envQrPtXG3mq3_Qbz0poGXNVYfgpOv1jd47sLXIlYyZQ0OQAFTtJPvH-II", "name": "Sura Mural", "lat": 59.71567500000000, "lon": 16.23971600000000},{"id": "8e4f816e152f4f5db59bb012e773369d.16", "url": "http://lh3.googleusercontent.com/AjCi5d1rvXj0jh7ub2gbAnOCXegyfV2oTEhYH01MxADW5GiQAqbk2ZCUVyDdSPihftqJFbpYyf7R057O27bdBLncV6c", "name": "Strömsholms Kanal Surahammar", "lat": 59.71620100000000, "lon": 16.21298200000000},{"id": "8f159d5056054fddb05831964e9b057b.16", "url": "http://lh3.googleusercontent.com/b22AMK9Va1irp9Ucl4nbkCa3Nwe1_bA6gZlLXPDXfKD5YzhQAFhl46aYD0AcaJp3ufY-_ynMD87Fcyzquxw5i4wWKaZg", "name": "Kyrkbyns fotbollsplan", "lat": 59.76866700000000, "lon": 16.20673400000000},{"id": "93368a54b81f46c48523e794e85dc7ff.16", "url": "http://lh3.googleusercontent.com/MOYy3t4cIxyfg-pPvJySw9djLQxsA5dXoEx9U9hUlPvlSheWXb0qwEsmZasSyPeWkPLslWsVIPLkArb9fHS789IFabY6", "name": "SSOKs klubbstuga", "lat": 59.71961800000000, "lon": 16.21901700000000},{"id": "9b2f0ce468b44d429d497a9716c9291e.16", "url": "http://lh3.googleusercontent.com/OYJDcD4Srxe5_CEwn4QP_1ekSHh5hOaQ0EPJHm0IzPMCalwnqDbCXj868Z4qNMIi7U6npxXKgzABULBpg8BSzcfkySg", "name": "Strömsholms kanal Ramnäs öfre", "lat": 59.77339200000000, "lon": 16.19010100000000},{"id": "a204c02ed03e44fc8ee70af57a3edfd3.16", "url": "http://lh3.googleusercontent.com/DnYixXdu-cVf1EHBiQKqWhXGkvq1XK_tcXfrwszothiqU0NZy_fa4FlH3LJ8lcBrXaLkGdLbbXz-3Do7f2cJYiSJ", "name": "Schenströms herrgård", "lat": 59.78057900000000, "lon": 16.18230800000000},{"id": "aea8f54302814345990e32f5982df294.16", "url": "http://lh3.googleusercontent.com/acmjWiZF6AOJFk_gQo_QOV4N2RufIYS1UM-gnXAJRbHyr_JvwRU_JjeghEvdI7sUnudoxBUC9u-0piQKo34xNYE_Gv8", "name": "Ramnäs bouleplan", "lat": 59.78228600000000, "lon": 16.18846000000000},{"id": "b3843877d0eb49c0a6628c17143e24ab.16", "url": "http://lh3.googleusercontent.com/Jh7s-ngk7U2-uCdwgc7neBFNpfDS4Ib0iX9Mla5wpcdTjst5dUKcHLytZ3GaIIELhg4AlmjQ1YrVmXLn_DEy8NQ9uw", "name": "Ekängsbadet", "lat": 59.71527700000000, "lon": 16.21943300000000},{"id": "c1762c2695434fdc937d05ed5375835c.16", "url": "http://lh3.googleusercontent.com/-RsosKlvVsLGxPvi_gK7t0UN4mMRiVVlFaWN_zH_8SWEp3s3IJky-CEp8HnD2SNBHT7dYKPn1DuNYLr-DfRD5Ya2sNJpgRo6UySaHtwmeA", "name": "Lekplats Durvägen", "lat": 59.69017000000000, "lon": 16.24369500000000},{"id": "cacb65871bfa4fb2897fa4fe99b18c0b.16", "url": "http://lh3.googleusercontent.com/z1EG_C72W-UIokM95U0X5GS_cDO_F4_0NYj-5yJZ1NLcv05R9EPZY58CoVpFLaMY8g_2YenW-cwzANplmKLAbblWQN8", "name": "Skogslundshallen", "lat": 59.70826900000000, "lon": 16.23083600000000},{"id": "d1c087c802ac411f92fbf00372e55c21.16", "url": "http://lh3.googleusercontent.com/x89Lww0eVzgmd2t647GfP6y1x17_Wg_MSge8pftzM8brvx_eW7IDy43qb-6WiXyCblT7NFNWT_QF0IlQn9nN5MgDnEE", "name": "Virsbo fotbollsplan", "lat": 59.86451100000000, "lon": 16.04101400000000},{"id": "d679a9c4d8fe4791ab78e8733c8a1160.16", "url": "http://lh3.googleusercontent.com/Er2EboJQ1dC3w-CbLO9Fl7w46yzPRrJNLfeTfBMrqHJu4wDtvpvaodxmqee_bT7XaqdnTghyvqkfNUIcr0R49VXYuQ", "name": "Virsbo konsthall", "lat": 59.86648800000000, "lon": 16.04561400000000},{"id": "e16319b8416d31459412a2d04f059916.16", "url": "http://lh3.googleusercontent.com/ThDs0e5LKhqScPk2K1Fn5zdsts2wt87ZmREZ1PnzZtHti25J1SEDAnpqsJ8q7O7fzkCn2BsMB8gyJXgvH6keqTFejIT6gDwcFllIH-Vtbw", "name": "Gamla Kvarnsten", "lat": 59.86696700000000, "lon": 16.05300200000000},{"id": "e8614f6d43354313aba8cbeb823fb696.16", "url": "http://lh3.googleusercontent.com/HL4ryRfMQgs5yJPZnvRiTkPOBazJlQMPgw3ElF3hjzJYhY3-YvGhJnaLmjccO3Bpe11TuFPQI9-7G_uCzVP-gdByhBD2", "name": "Chain Of Youth", "lat": 59.77423400000000, "lon": 16.19712700000000},{"id": "e86e145117644744959648d0a577d893.16", "url": "http://lh3.googleusercontent.com/8WCAdH7lNMfIesCnGG91jT_rzrWH9lVYK-7c-2qCOkt48sk9cJdtmcFwhDLQGEyY396l-6YCknQjEKHs2LAV4A5wMf_9", "name": "Slussen", "lat": 59.70952200000000, "lon": 16.20812600000000},{"id": "ef96bdf9a40c4b828b3410bd82ec9a68.16", "url": "http://lh3.googleusercontent.com/1cJMyNLcPn890qT6YhofFpmpZOssay8egVg0Tkp88zeiuNdbebXt7oyA9SHwJutvYpyxSBkI47MhD5ees0JlLJJBUg", "name": "Ramnäs Kyrka", "lat": 59.76260000000000, "lon": 16.20857500000000},{"id": "f052bffe33483f708458540c9a3f120d.16", "url": "http://lh3.googleusercontent.com/prsZHnhRGNmAqp0jVykPRXnrFyfgc1cBulKqx5sAuf4hnRG9Kxx37pC3shPsW4lnM5pIDyUfODkK4PyxvbIyvC7rZXSMAKyZCt19RM0SsA", "name": "Virsbo bouleplan", "lat": 59.87405800000000, "lon": 16.04551000000000},{"id": "f6dc617d658341acbf57efcce3b69eae.16", "url": "http://lh3.googleusercontent.com/oxW-m175AGHENxd9wIg-UyRpR7ki1b4mHauzauqd7klcu4EhFs60MTLZ34F3bNQ1-g_W5iAVW110j8Lp1TCDH4Jh6Ow", "name": "Fredsduvan", "lat": 59.71459000000000, "lon": 16.23642800000000},{"id": "f7d0c2f1f9784ebd801e1015515b6730.16", "url": "http://lh3.googleusercontent.com/K48Jvx7JertnHqXZb0MFnrHigYT9opNwZT5KXr0GmE17LI0toY5G4AVaQCeO_2zx54aLCkzxxCiEKmAiuT8l7gO_Jak", "name": "Tonshammaren", "lat": 59.70969800000000, "lon": 16.21582300000000},{"id": "ffa4b5da19534adba1a6c30a22bf8de2.16", "url": "http://lh3.googleusercontent.com/vkGSwgIYwUOcez_Oe70ciYCHd1dIhGSuMtaeiqj3fB25TO24gGfGTRwYMFzWBO0-qw_FxY8wIuYah7xhq8trl8fJ8Q", "name": "Vattentorn", "lat": 59.77389900000000, "lon": 16.19829400000000},{"id": "ffd52e34c943432999bbc3719754f750.16", "url": "http://lh3.googleusercontent.com/kvhKRz548OsLJfq0Alt6StPwR1NLC8BQVGW84UcjV_wo83gN2uhGM5TkuUqi4bhjgiv2j4tEyjM7MWwsFOdy9QxPrh0k", "name": "Wirsbo kapell 1922", "lat": 59.86988200000000, "lon": 16.04564900000000}]
