[{"id": "00b8c0fdd880426395237df4dca287bb.11", "url": "https://lh3.googleusercontent.com/LGhpAaEcf4xIY6AFDneEffqUPqWWdFmm-0ME2Owdg8dWX_fqBx2921IEcKR3LkN_tyt_lLevu9w7KnkLs3FruVqYJrw", "name": "Pingpongspelaren", "lat": 59.30816200000000, "lon": 18.06515700000000, "team_id": 1, "available_slots": 1, "bs": 13, "bc": 375, "rs": 11, "rc": 371, "ys": 5, "yc": 121},{"id": "045687132353408f82072eb7d69016c6.16", "url": "https://lh3.googleusercontent.com/Pg4kD8QyzLjnmaQ11g1Fqt9pG8LULvBKb1Par6BDdTpWXeiXPeUKlYcBm7f3DyMZJzhHJrtuMIscsaUpmCIWg-o-_sc", "name": "You Can Lead A Horse To Water", "lat": 59.30864700000000, "lon": 18.07236900000000, "team_id": 1, "available_slots": 0, "bs": 29, "bc": 287, "rs": 5, "rc": 163, "ys": 3, "yc": 154},{"id": "05aa621d758b4a97a7e892297a3ba884.16", "url": "https://lh3.googleusercontent.com/w-cLJgWNfM0hDnbv13KK_A2DcsiZDCeEnt-yTVUpr2_DYfv1MbUuAXlh8-usRgtJFAbqk9UTE_W00vhAxzX0EI2q3eg", "name": "Vinterfågel (Winter Bird)", "lat": 59.30773200000000, "lon": 18.09077600000000, "team_id": 2, "available_slots": 3, "bs": 11, "bc": 290, "rs": 14, "rc": 292, "ys": 10, "yc": 232},{"id": "09e21b7317604bdcb9840cfcf02767be.16", "url": "https://lh3.googleusercontent.com/qo_0GTkMNvCCw92-w-H7m0V8ZZlXOYezxtCpxHy8yYMREbc5Q-RhNojFLHXrFwhieWpEFBby0hB4q1uM7io1kCmKEkWo", "name": "Varning för stora barn", "lat": 59.30292400000000, "lon": 18.09168700000000, "team_id": 2, "available_slots": 0, "bs": 6, "bc": 116, "rs": 42, "rc": 202, "ys": 5, "yc": 108},{"id": "0c243f69d2004672a3b3051a8efec2f0.11", "url": "https://lh3.googleusercontent.com/sgydVzoL22fn8ph_YwFYAtijNyZahrx3H-RRPxDvqYlrWXGYMSIaEElDPWss5rh9Qi71oTT6JyVNr5NhKPLr8BzVe1A", "name": "Katalanskan", "lat": 59.31660000000000, "lon": 18.05598900000000, "team_id": 3, "available_slots": 1, "bs": 9, "bc": 277, "rs": 16, "rc": 326, "ys": 9, "yc": 205},{"id": "0c59602c044e43a480af3c82f755024b.16", "url": "https://lh3.googleusercontent.com/4RaYk6-V98OeOmO3Gux8u9ogCYmAhpriQGgZWUxdp1zSEQ1KLigU31A8qzdv-qIRrSW_183291Y8SZLj1lwb8JjbPQ", "name": "Sprallens Dansbana", "lat": 59.30375200000000, "lon": 18.07214000000000, "team_id": 1, "available_slots": 0, "bs": 36, "bc": 127, "rs": 28, "rc": 117, "ys": 21, "yc": 92},{"id": "10b4e0bbcd85467186a7c01cf734c612.16", "url": "https://lh3.googleusercontent.com/ecjn2fgBb5vUtKdxDLMztKX_QafuTg3V7mg7fkB5N7xfjKaDGm797gZleOtPGq0LtBPQcDL89J4oZa6UfmTDUigYUQ", "name": "Stockholms Södra Train Station", "lat": 59.31282200000000, "lon": 18.05770800000000, "team_id": 1, "available_slots": 1, "bs": 26, "bc": 343, "rs": 2, "rc": 141, "ys": 2, "yc": 221},{"id": "13ad2bd4f4a6415f8b386ba30e91803f.16", "url": "https://lh3.googleusercontent.com/cUP8gmsznmnLCjwM9DI-0_cuELZ6jBv_qKWgOO2TCWtNtysU3yCQiTO_ZNigHymwjh5MpjDMlvFOv-jLldlwd5g7GBDM", "name": "Tower of Mormor", "lat": 59.32079400000000, "lon": 18.05119200000000, "team_id": 3, "available_slots": 4, "bs": 28, "bc": 209, "rs": 10, "rc": 103, "ys": 15, "yc": 185},{"id": "17c925492db74ad2a942d7fc712181a9.16", "url": "https://lh3.googleusercontent.com/_zn12Xk96OA7gfeEc3bxB-JWLkiNOjCYjfF7qTyqx8ewT5KNJZ3hNQ4B5R6AHcn_SN7DalKaJeIs8BUxZ3VGeZA0IX0", "name": "Blomsten", "lat": 59.31797400000000, "lon": 18.03372500000000, "team_id": 2, "available_slots": 1, "bs": 7, "bc": 437, "rs": 8, "rc": 465, "ys": 7, "yc": 424},{"id": "18c2f8f8d4004ffbba6c154982a7e3cd.16", "url": "https://lh3.googleusercontent.com/d_kbpsI9MRgJbxNxvea7lWRTVQnY5fWwGn-zAZlmCAwNAuh_7LBbYqCILONd9wtn91FZ9DeK4EF6f2UYE6012tuhRg", "name": "Det Litterära Stockholm - Harry Kullman", "lat": 59.30967700000000, "lon": 18.08245900000000, "team_id": 1, "available_slots": 4, "bs": 11, "bc": 475, "rs": 4, "rc": 394, "ys": 7, "yc": 490},{"id": "1f9aa54c3c8e43f3ad5e611972a703b9.11", "url": "https://lh3.googleusercontent.com/zdL5zs8SSrJIu6ViQ3nE-8arH8ewm9BnrOXJBS2TT38S3juHEYdtd5fm-ydiPNr-6KTYLU4shd8RK0RaUlotjBf1cPQ", "name": "Katarinahissen", "lat": 59.31993300000000, "lon": 18.07320500000000, "team_id": 2, "available_slots": 0, "bs": 12, "bc": 294, "rs": 14, "rc": 299, "ys": 9, "yc": 209},{"id": "2594c75cb8a5445a87cf9775cc23b6f7.16", "url": "https://lh3.googleusercontent.com/Oo8Xv6RP_w7UKpVfipoen3I-peNSQoOe9aHl1P-Q1pGcFfkqk5K8QArUgPOYwkrpAxvnxa2hH6-gpsbPZTF7nKJRVMs", "name": "Tyska Kyrkan", "lat": 59.32406500000000, "lon": 18.07137700000000, "team_id": 2, "available_slots": 2, "bs": 8, "bc": 339, "rs": 12, "rc": 424, "ys": 6, "yc": 306},{"id": "2611bb4dde06496d83eb080a1a8b3512.16", "url": "https://lh3.googleusercontent.com/jKE0QtfuVZvEYafkWk3DSw0giiPCQvS33sowhpgb_h5zcMOGmYMzFGL2fQbkDOqDeJ-MAoohJaDZXVOLz9gJg-b6F4k", "name": "Kvinna", "lat": 59.31749900000000, "lon": 18.02294200000000, "team_id": 1, "available_slots": 4, "bs": 17, "bc": 280, "rs": 14, "rc": 201, "ys": 8, "yc": 259},{"id": "2a64fc801c4d460484cc18dbbd856a39.16", "url": "https://lh3.googleusercontent.com/GhZF5szHbr5eAv7dG0QTmASWcO3vCitD6wfBPabtXNIC-M1FrQxvO4i72qZqyNKJeWE7AQJ2LUqgxHiQNrTfFpUuKto", "name": "Färjan till Årsta Holmar", "lat": 59.31100700000000, "lon": 18.04057000000000, "team_id": 1, "available_slots": 0, "bs": 39, "bc": 122, "rs": 29, "rc": 108, "ys": 18, "yc": 93},{"id": "2c23b9709729461db96b0300892d55d5.11", "url": "https://lh3.googleusercontent.com/s-f67QNfGIqmWWrGOUqqvc8wRCdoRT_NG0tpxsR8SG7dhWaZ2DQ8lbTm6sZpe-M9sfRDwDqQJduyEI6KUrBPQnY3Kw", "name": "Commedia Aeterna", "lat": 59.31412200000000, "lon": 18.06972600000000, "team_id": 1, "available_slots": 2, "bs": 22, "bc": 331, "rs": 7, "rc": 245, "ys": 4, "yc": 138},{"id": "2cdc4aac66634488838c7e994901d2fb.16", "url": "https://lh3.googleusercontent.com/0_07KIuvAAAD647ohPyCWw1ppr-Cv_95QW7BhosOxpARvNEvvrktyLq0Ziiruk_0KntA5xDNPzNt6Nv2Qa1hKBOJIf0", "name": "G2 Harbor Marker", "lat": 59.30522600000000, "lon": 18.08655200000000, "team_id": 2, "available_slots": 3, "bs": 14, "bc": 350, "rs": 9, "rc": 276, "ys": 10, "yc": 226},{"id": "2fec6c7de58347f1bd4acb5767090170.16", "url": "https://lh3.googleusercontent.com/SQnzQMwTow5VRN1rLyeeemVTWqhBwC83gNZbvw0dICf3yNEH_w-Po2fO6uDOrz6un2bd5o3TfLaTxBKed9FTr9cS2w", "name": "Ringvägen 100", "lat": 59.30740300000000, "lon": 18.07526500000000, "team_id": 1, "available_slots": 0, "bs": 8, "bc": 641, "rs": 5, "rc": 441, "ys": 5, "yc": 473},{"id": "30a71486975c4294add0807001394049.16", "url": "https://lh3.googleusercontent.com/gFBzTWCce6wpYoqmnak9q_0YxKSoU1GoA0b4oYMrn73njOB9XDtOVGoUf_ZllI-PBagtLNJDGO6h_NAdxKjZ46jzmr8", "name": "Sofia Kyrka", "lat": 59.31220500000000, "lon": 18.08793900000000, "team_id": 3, "available_slots": 0, "bs": 20, "bc": 160, "rs": 19, "rc": 152, "ys": 22, "yc": 164},{"id": "313baeb154234d74b2fab56f1fbcb8f6.16", "url": "https://lh3.googleusercontent.com/SPVdRvv6vIvJlKRkKgmka53nWywXv3hwnAMpZ63cqqrUi1D6pQ5WM-7vZGM5ESlVH5PgZmstaEeM-SJIR-IQ4xU6gg", "name": "Modell av Riddarholmen", "lat": 59.32502000000000, "lon": 18.06513900000000, "team_id": 1, "available_slots": 0, "bs": 44, "bc": 101, "rs": 36, "rc": 77, "ys": 28, "yc": 84},{"id": "337b7c06fa844274a6b552c172b26c0c.16", "url": "https://lh3.googleusercontent.com/Sn1WEmOu1wD8AKk1LtqDZLdp3HaD96hQbeCmaR_FA2nBksKl-7HGkFsKPU2SXZcx-DDhMtb-hb37pn3YzVBXwzFK5g", "name": "Kitty Cats", "lat": 59.30508400000000, "lon": 18.11254000000000, "team_id": 3, "available_slots": 3, "bs": 21, "bc": 152, "rs": 16, "rc": 106, "ys": 29, "yc": 170},{"id": "33eb4653ce204268bf60cb1e4964d36c.16", "url": "https://lh3.googleusercontent.com/07TzKxQA5M67eS4onGTKb_HYEVqV20WsgwYzxRPISUklqNC9csKT64RWDKUnjzIaeZRVjc0yT6WaiNnJmtV9gj-M1njz", "name": "This is Stockholm", "lat": 59.31549300000000, "lon": 18.10353300000000, "team_id": 1, "available_slots": 5, "bs": 52, "bc": 74, "rs": 45, "rc": 65, "ys": 49, "yc": 55},{"id": "3950456d8b6241f689eb5b01964c6bf6.16", "url": "https://lh3.googleusercontent.com/iG-o_0Iv8gwjP2WVFSpMxJFn4zyVgFg8o3PF6tgfW2fB6NzbSH9S6GELKosoqcS0umZt1aScKv9DjnKqXDvlh9nhdjs", "name": "Svarta Elefanten", "lat": 59.30900000000000, "lon": 18.06017100000000, "team_id": 1, "available_slots": 0, "bs": 18, "bc": 156, "rs": 22, "rc": 163, "ys": 20, "yc": 164},{"id": "3fe2ab3b5d79484abc2abbfd893b6983.16", "url": "https://lh3.googleusercontent.com/TAKvB6M65sAfbnWXFHPx8pVykOtXtmshrNtnyWq48Tzcyvhv34_F6PNs-ywGPs8Fr2Hkm72u2x2kYiMoL8051M5EDvQ", "name": "Märta - Norges Kronprinsessa", "lat": 59.31665500000000, "lon": 18.08432700000000, "team_id": 3, "available_slots": 0, "bs": 19, "bc": 202, "rs": 15, "rc": 168, "ys": 16, "yc": 203},{"id": "4031545f873b4326bed74b5b49143bb1.11", "url": "https://lh3.googleusercontent.com/Hdn19fTR_Zs2tVmsKcwAPOJZs4smc8oFaRyK4A-iNDkKRXFqZImyX5PuUJRqfeVmcBLU7G1w5FUtuRo2K1XEVZ9SLnVh", "name": "BP", "lat": 59.30728400000000, "lon": 18.07284200000000, "team_id": 1, "available_slots": 0, "bs": 23, "bc": 149, "rs": 20, "rc": 141, "ys": 22, "yc": 154},{"id": "43350814896d48669929d24e78d914e7.16", "url": "https://lh3.googleusercontent.com/t-Lz7Zwk8fkPtRlWGMwH6XNIq7tFYE5DjLCNRow7tEcovTAzIgvxEHB57VCQqjg3ujGARYBzcW4gI34q99mquQjrayM", "name": "Seal Of Arms", "lat": 59.31872900000000, "lon": 18.03941300000000, "team_id": 2, "available_slots": 5, "bs": 21, "bc": 258, "rs": 14, "rc": 213, "ys": 10, "yc": 128},{"id": "44061382d20d48b5b20ede3a1eba1bba.11", "url": "https://lh3.googleusercontent.com/7O97nMup5g25Cv-BzKhz7PAkbGefQ5lQhi1MQDNpUr0mSX4GKdDfWjWadL_uvLbpyDfX616_YtNtIYKzHKPhCC08t0I", "name": "Instabil", "lat": 59.30690000000000, "lon": 18.10706200000000, "team_id": 1, "available_slots": 0, "bs": 24, "bc": 119, "rs": 28, "rc": 132, "ys": 22, "yc": 140},{"id": "4787d15b53034049af7413aa9a6c82db.16", "url": "https://lh3.googleusercontent.com/FGAhc0GhwJTDbB38MmUNYVYPrAk9tRAhMlRKgxAGW8HtUa00mh6v-33qDjZVcU97ODLmAvwgo9SpuantACcb1RXAIUbV", "name": "Bearded Man", "lat": 59.31713800000000, "lon": 18.04805900000000, "team_id": 3, "available_slots": 0, "bs": 26, "bc": 113, "rs": 20, "rc": 111, "ys": 34, "yc": 136},{"id": "496cbc265ac5401fad2b927c33030117.12", "url": "https://lh3.googleusercontent.com/DTtcs2c5KO1Lhwf1RqWnDeAh9xGk1bqZJFnw1vUpWyoyGKL67cqJueH9msLUpGHwAoT5nkpr3gvhcxZ7TK7PHDJyng", "name": "Familjegrupp", "lat": 59.32318900000000, "lon": 18.06814700000000, "team_id": 2, "available_slots": 0, "bs": 12, "bc": 341, "rs": 10, "rc": 298, "ys": 10, "yc": 270},{"id": "49ea21558a8b4af39004fd6494be8af8.16", "url": "https://lh3.googleusercontent.com/-TByT-O4RsyaRcKVSBE06mn3BBOV8USSY2TISx9tbffnziS2LXgK9sPMht_BtOLova9LJTSn8mfrFyrn_exajfLCxSU", "name": "Strömsborg", "lat": 59.32712800000000, "lon": 18.06333300000000, "team_id": 3, "available_slots": 0, "bs": 48, "bc": 88, "rs": 45, "rc": 75, "ys": 35, "yc": 60},{"id": "4bb8050639fa4fb9af28b213e0488341.16", "url": "https://lh3.googleusercontent.com/ODr77U9CNGyCQ44iJDkz1uACUo6C1q141ExamUH8kDnZjNYl_JFqMeRMAgpH9HDJIwCiZEhGtLO0oo3RwTMqwjlQGw", "name": "Mårtensdal Tvärbanestation", "lat": 59.30271000000000, "lon": 18.08821600000000, "team_id": 1, "available_slots": 0, "bs": 15, "bc": 316, "rs": 10, "rc": 248, "ys": 11, "yc": 204},{"id": "4cb2e932fad9437ea7b7e210c3f22179.11", "url": "https://lh3.googleusercontent.com/yKaSy97Vlwx0yxFCF8jyoqnoq_klEFTOANhtGo_qBI5lQYiY780ZFGLaEfYdypqlT3LSoX52sjWgA0kHCv5R9J_piw", "name": "Lasse liten och hans mamma", "lat": 59.30577200000000, "lon": 18.10648600000000, "team_id": 1, "available_slots": 4, "bs": 11, "bc": 274, "rs": 14, "rc": 229, "ys": 12, "yc": 285},{"id": "4ee1faf7dc0e4b04a443408f774d680a.16", "url": "https://lh3.googleusercontent.com/119E4gQl0jLwa1hykh-DgI1ATuTD8EfaOXEjVMU7kytyr1xN_M1KiJUNzYTcAqari_s384hvHTnfE5WbNQfCHD2PYA", "name": "Tantolundens Strandbad", "lat": 59.31209200000000, "lon": 18.03809100000000, "team_id": 1, "available_slots": 0, "bs": 45, "bc": 150, "rs": 17, "rc": 115, "ys": 12, "yc": 83},{"id": "4f54e43438e34b559abfa5c216731f87.16", "url": "https://lh3.googleusercontent.com/jOuaHI8Q9TBGYitXnNKRaf2M1aq68OcWRHc1UOJ1FO9Oefw3T-p3dHmuRPLescsc3f-9gGCIJxhc4pQTfejqfcsvtXIJ", "name": "Klinkerkonst", "lat": 59.30594800000000, "lon": 18.08884700000000, "team_id": 3, "available_slots": 4, "bs": 13, "bc": 319, "rs": 14, "rc": 320, "ys": 8, "yc": 121},{"id": "50cd4bb059f445a68fbf74ebe9d86fc1.11", "url": "https://lh3.googleusercontent.com/_MbkLPMM8PekNHIKU66pyWk1WyuWcK9_hwO75ftC3woIbBK8fWZ5Yt0_RYmjgGtD6gnLpMH3WFXrJt3WRqTyOie7Uq8", "name": "Jannica med dockvagnen", "lat": 59.31195800000000, "lon": 18.07757500000000, "team_id": 3, "available_slots": 0, "bs": 8, "bc": 219, "rs": 15, "rc": 370, "ys": 8, "yc": 313},{"id": "58ce50a9fb994ac8aae28a7c65a3dc39.16", "url": "https://lh3.googleusercontent.com/mfNmqLAFvHH6YC7sWacik4liybFiwtiGBL6wSUKUhA9I5n9YmYPQjUh1rGOvO4ysC4jm5seUpNzm6F8T1xnqs0FQB33d", "name": "Last Death Penalty in Sweden in 1910", "lat": 59.32084200000000, "lon": 18.02580500000000, "team_id": 2, "available_slots": 1, "bs": 24, "bc": 171, "rs": 20, "rc": 172, "ys": 15, "yc": 141},{"id": "5aeb967c50db46fd86c9d217fa9e4586.16", "url": "https://lh3.googleusercontent.com/9ET3enzOC87zDO_SBdVai_LOfZq4I0y1cbvRyaTRAn2ZEiVeoNa1-Cfcpx7dJVt5Z4H2VuT4bhe2J8QKIxp_sL5lBA", "name": "Fotografiska", "lat": 59.31800400000000, "lon": 18.08525100000000, "team_id": 2, "available_slots": 0, "bs": 34, "bc": 138, "rs": 27, "rc": 96, "ys": 22, "yc": 110},{"id": "61a11c93a29948bda7824e3c4be83230.16", "url": "https://lh3.googleusercontent.com/qn_uPPRZP32CwpUfxRkxeRFdb-d2fEp5bnV1goCH3-jeRsF2imqD3knsXrrHdHRHzcjg7r8E_4r3NMZhDCtImDcc0w", "name": "Fish Crest", "lat": 59.31524100000000, "lon": 18.06168100000000, "team_id": 1, "available_slots": 0, "bs": 10, "bc": 351, "rs": 13, "rc": 341, "ys": 7, "yc": 257},{"id": "66cf6577c2ae4c63b09cb7046da3267e.16", "url": "https://lh3.googleusercontent.com/8r46MCyNI_IvFGdjrXQjoW1fD7_YZEgeVvPWXa36-7hglowlcRxikmto5vs5LIeDON_Wd-a0muqiYxa0-5Ee9RJ6ito", "name": "Cave in the Wall", "lat": 59.32692400000000, "lon": 18.07389400000000, "team_id": 1, "available_slots": 3, "bs": 21, "bc": 214, "rs": 14, "rc": 161, "ys": 19, "yc": 159},{"id": "6830df18f4f2496180157e6a8ec31fc5.16", "url": "https://lh3.googleusercontent.com/4zh15u22Sd4vQpd4XiopxNWJcwwLMQP878FQH7cAfIunSr-JnqPakq2YxAP3OwpleV5YV_qf4zI4mhTwor_LlPiZkw0", "name": "Ånghästen Stockholm", "lat": 59.31394900000000, "lon": 18.05514000000000, "team_id": 2, "available_slots": 4, "bs": 12, "bc": 317, "rs": 12, "rc": 180, "ys": 12, "yc": 311},{"id": "6840f9362abd4f548d9f67789e32c1ef.16", "url": "https://lh3.googleusercontent.com/1s_VtaLC26-z0c3Zv0-eUdQR0NWSJaus3XCNNMBd-eU0KITu3mJ-MWPkV0_DPwBfWbs5jTknY0pXqVPGWYjGRgoCHD0", "name": "Lagerkransen 14", "lat": 59.31761700000000, "lon": 18.05771400000000, "team_id": 1, "available_slots": 0, "bs": 9, "bc": 406, "rs": 13, "rc": 414, "ys": 3, "yc": 140},{"id": "69680273cbb74c4dba4f8d0db6647b77.16", "url": "https://lh3.googleusercontent.com/fUJxiuVdG1Wr3K8PpynmV8bb6NM2gMxeSWcIrXGs6oZOUQVH2w-uv1TEbh8wdVdejbsCnk0zrjXpHUaBu04hGaRaZusC", "name": "Rovfågel Med Finbrallor", "lat": 59.31876800000000, "lon": 18.04262100000000, "team_id": 1, "available_slots": 0, "bs": 27, "bc": 151, "rs": 23, "rc": 91, "ys": 23, "yc": 155},{"id": "69b8b466c60049d290fd9516802e74f6.16", "url": "https://lh3.googleusercontent.com/xOQf-t6bJA_yImc_a3dneZI3_51GQAcIwu79upAjN2XUqdDKA8bnKqFu5TykiBD5OBRcm05SalTTYYBQ1tdRvMZvGdo", "name": "Högalidskyrkan", "lat": 59.31740700000000, "lon": 18.03697500000000, "team_id": 1, "available_slots": 0, "bs": 25, "bc": 130, "rs": 15, "rc": 77, "ys": 34, "yc": 155},{"id": "6ac8972e9c784074a921e794441f5bc7.16", "url": "https://lh3.googleusercontent.com/gmqgpPHUAfG53UxzHvWADf0lWcdg2zMDLNwC0wii3BxQd7U3dmj4R1ti0OyLivM8IS_yKgzZVCNm54xuqZgzw5xrjOg", "name": "Pålsundsparken", "lat": 59.32016400000000, "lon": 18.03931000000000, "team_id": 2, "available_slots": 5, "bs": 12, "bc": 170, "rs": 30, "rc": 231, "ys": 8, "yc": 110},{"id": "6c4c80cabc224e8f8329c685125882d2.16", "url": "https://lh3.googleusercontent.com/NN0MVc5GEyQ6Dq02v8tRyNSCGzyF7wFZHeUu1eNUIEjy2MInlDZwK5iXGDww2Pa0cu7tHJChBd_Mfr9zzlHGHJUz4Po", "name": "Ersta Kyrka", "lat": 59.31638400000000, "lon": 18.09149400000000, "team_id": 2, "available_slots": 0, "bs": 18, "bc": 173, "rs": 19, "rc": 159, "ys": 21, "yc": 169},{"id": "6f22f2eeb05f4c10a9c36555eda3b1db.11", "url": "https://lh3.googleusercontent.com/5VJYwZNC2npCn03sg0H8ZCqHRqxL4AhtbgrbO5cyOaBgXaP2iY9nLfDD6a1K4Q8aVeAZ0iz7sR1b6sW13kJwl5o9Rg", "name": "Kasper", "lat": 59.31514400000000, "lon": 18.07161600000000, "team_id": 1, "available_slots": 0, "bs": 14, "bc": 344, "rs": 9, "rc": 276, "ys": 9, "yc": 257},{"id": "723b1cc439de474fb07e53fe8e5cc7de.16", "url": "https://lh3.googleusercontent.com/KvapzKhKVT0d46E80rmpCZQXnfGWRWLxWCeU__7pJkMs-L8saV5VlgxzRVTAoGHcs7LgllRPc_OpRUAzT1KqCR-rMQ", "name": "Sjöstadskapellet", "lat": 59.30305200000000, "lon": 18.10431000000000, "team_id": 2, "available_slots": 0, "bs": 9, "bc": 331, "rs": 8, "rc": 157, "ys": 16, "yc": 354},{"id": "7bf8a1bbf0034ba4a15b5978da14e99a.11", "url": "https://lh3.googleusercontent.com/8hzEZmiQPn2zBayCnM83HNeKZUKbqJDza-roARs4difr3I7UndQLB0pbEAyf2guT_HpcrbM2atjw4Dajuh_NIcWMsS5m", "name": "Sjöstadsparterren", "lat": 59.30438500000000, "lon": 18.10080300000000, "team_id": 1, "available_slots": 5, "bs": 12, "bc": 308, "rs": 7, "rc": 129, "ys": 17, "yc": 304},{"id": "7d3eff8d9ee04f34a21d6855cc75edfb.16", "url": "https://lh3.googleusercontent.com/1bjI_mKVQRMj8UseiUC2OPocTGyT8QdwHXlTE09JpSWu0ZqkiTEmj46W0MaPjdxBcgX1cqSaPhby7R57f9ARm9upSBw", "name": "Hänglåst Kärlek", "lat": 59.32385300000000, "lon": 18.02833700000000, "team_id": 3, "available_slots": 0, "bs": 82, "bc": 46, "rs": 95, "rc": 41, "ys": 64, "yc": 32},{"id": "826b4be8272445db83150472d43aab34.11", "url": "https://lh3.googleusercontent.com/3-lZoWhNKxBDIgnJU4520yRFoFdjv_w0tvCmoZ0rapm_1qs1KHHZUFVrcr3fGUX591S4b4ojU6XZlq6srT_hqIkH0A", "name": "Mer än bara vänner", "lat": 59.30294600000000, "lon": 18.09273800000000, "team_id": 2, "available_slots": 0, "bs": 4, "bc": 143, "rs": 48, "rc": 185, "ys": 4, "yc": 61},{"id": "86e7d7e0192945a9ae0c8d70ecb763c0.16", "url": "https://lh3.googleusercontent.com/-8eY0lUQUHZzfLtXtkUxZJBHXPi7p8DSGa-DV4njI8Z4v0iBpLJfLTEwCnhcfnUuljGRjOmz3DzNWuf3LMMgn8lO0Q", "name": "Gul Sandstensrelief", "lat": 59.31280800000000, "lon": 18.10211700000000, "team_id": 2, "available_slots": 5, "bs": 20, "bc": 241, "rs": 14, "rc": 246, "ys": 10, "yc": 137},{"id": "897c0efd30a741de80702c17167a08c3.11", "url": "https://lh3.googleusercontent.com/Yo8kPma5g6AVv_LpRcmnB03DDgC4d4RmytMU5-VGJ4EX0bVSWQU9qv99fOLzWkD1EQ75IMRCvIf9XkDruTYy6ytB4Q", "name": "Uppvaktningen och kärleken", "lat": 59.30212500000000, "lon": 18.10219000000000, "team_id": 2, "available_slots": 0, "bs": 8, "bc": 221, "rs": 14, "rc": 346, "ys": 11, "yc": 293},{"id": "8c7ae49a921a4be0b9cc9f1a5c711975.16", "url": "https://lh3.googleusercontent.com/GoMy3rcZI3ewSVBrOebegu10xbH4gYE55DNbHxe-H-xSfo9atcUowdieZNXf3WN7VfnTryxrZWnSu730jGmXE7qMJA", "name": "Bird Glass", "lat": 59.30402100000000, "lon": 18.09422300000000, "team_id": 1, "available_slots": 0, "bs": 23, "bc": 311, "rs": 8, "rc": 207, "ys": 4, "yc": 191},{"id": "8da21f350b5d459f8b17c3293d67a172.16", "url": "https://lh3.googleusercontent.com/i3_zC-j6FTUX-GjcUsYaoN5rDvPoPoZrMMkVcbyWpelMNp1j4UuIkWgXiSqUTf_APAlv2Q1xLeUNb3ADwPvy_YSaDb-T", "name": "The Anchor", "lat": 59.31969500000000, "lon": 18.07686100000000, "team_id": 3, "available_slots": 2, "bs": 26, "bc": 169, "rs": 22, "rc": 160, "ys": 16, "yc": 115},{"id": "8e18ad619ec04844b2d87d7c211cd2a3.16", "url": "https://lh3.googleusercontent.com/McJmvKDOw3Vb0Kw3f-OnVE6zTS5fzug4QxaSDkdKDeAhlUChFJz4ns3WwgwtChzhUyMifA7FsQSw7htQHOqpErWwJQ", "name": "Vintagekonstverk", "lat": 59.31008900000000, "lon": 18.09862100000000, "team_id": 2, "available_slots": 2, "bs": 16, "bc": 220, "rs": 19, "rc": 230, "ys": 11, "yc": 170},{"id": "8e3d215f5d83449681663d80d47c6733.16", "url": "https://lh3.googleusercontent.com/ETi8G20HNu6Ni6-Z3iU5MLvCxguBj-03PvqxaTcSt1z_pwBt4EoX03BOrIfGI6VMVm2zdZ0MDJkKJc19hlr6ZkiA7R4", "name": "Era", "lat": 59.31532400000000, "lon": 18.05623100000000, "team_id": 2, "available_slots": 0, "bs": 12, "bc": 190, "rs": 21, "rc": 237, "ys": 15, "yc": 162},{"id": "8f29d61f9ab84c9b89558517b62160e2.16", "url": "https://lh3.googleusercontent.com/2WObZ7qoQwSzlh7wAZqpPMAxqjeEhgafw6pRZNED6V6steh1a3rZPDhoG0cceHdhs-PQd2giHWOxLqzvTKjejIfmtwjB", "name": "Where The Wild Things Are", "lat": 59.31870300000000, "lon": 18.04732700000000, "team_id": 3, "available_slots": 0, "bs": 26, "bc": 243, "rs": 10, "rc": 138, "ys": 12, "yc": 175},{"id": "8fe5eee93b7a493fb4335d6eb4196263.16", "url": "https://lh3.googleusercontent.com/U55JWpJp7ucw01Q6u3mKq8VcNw6lTteaFHXao_EER-rA8V3Sn8Ns0oNf31ODD5IGya0DWOpVFn8Rr47uvtUVQ0Qv_xv9", "name": "Grodan", "lat": 59.31536700000000, "lon": 18.07390600000000, "team_id": 2, "available_slots": 0, "bs": 14, "bc": 340, "rs": 10, "rc": 299, "ys": 8, "yc": 248},{"id": "946031591d464a2d88512b1297a12996.11", "url": "https://lh3.googleusercontent.com/-tGvqJC4n4M8RpTZaOfgCcuDrK47YXBlijUCttPIR2xYOdixu1mbROXhio7Wc6vw2QfGLkL49XnqpmRdUB6_IUzFrw", "name": "Duo Statues Stockholm", "lat": 59.32016300000000, "lon": 18.06778700000000, "team_id": 2, "available_slots": 0, "bs": 19, "bc": 241, "rs": 14, "rc": 199, "ys": 15, "yc": 162},{"id": "9c9d75f64ba54aa2a17702b538781289.16", "url": "https://lh3.googleusercontent.com/EH9pTzShZyprIwvxWhgCOJz3D0cvNnymBtYvkXpyoFplxL9UKjLGWW4Wcw0xNnlGKEzH45ToTFDS94ySPgS107uQviJi", "name": "Drakblomman", "lat": 59.31465800000000, "lon": 18.04089500000000, "team_id": 1, "available_slots": 0, "bs": 38, "bc": 214, "rs": 7, "rc": 151, "ys": 6, "yc": 74},{"id": "a0ce8d6cb09a438b89a1cf6c9b0377db.16", "url": "https://lh3.googleusercontent.com/djcFdhRAtm3HykxWuhiMmj-qNm4nmSQfQweJAuxKIpmb4tX43-05aFf8jPnQx3ws4U4gS75dNFIeOWNvLN5qhJsI5Q", "name": "Glashusfontänen", "lat": 59.30338900000000, "lon": 18.10354800000000, "team_id": 2, "available_slots": 0, "bs": 19, "bc": 276, "rs": 11, "rc": 133, "ys": 13, "yc": 229},{"id": "a3fe094e0e2d428295fec37e2515088a.16", "url": "https://lh3.googleusercontent.com/g2GtlELA-Qoxiwx5vLjigHdK9r9GHvwwnVSGTihsg_FjY7wRLjuizi8_lO-KUvh58Sf-EvW6VNr-cv3nC2aLq6CdWvo", "name": "Morgon", "lat": 59.32603800000000, "lon": 18.06814700000000, "team_id": 3, "available_slots": 0, "bs": 18, "bc": 206, "rs": 17, "rc": 202, "ys": 15, "yc": 166},{"id": "a44b836fe0744f95b682b1f05660f422.16", "url": "https://lh3.googleusercontent.com/mIz5x47QPBYSyXM3MSfXZkrOkmvcTXiT_lPTAfYLjGn9L7OPLkqjZzyHuT49GJWDKEbqVWDTlR8wMJckL0LufBzDYkhf", "name": "Eriksdalslunden", "lat": 59.30601900000000, "lon": 18.06078500000000, "team_id": 1, "available_slots": 0, "bs": 36, "bc": 164, "rs": 18, "rc": 113, "ys": 18, "yc": 95},{"id": "a597864f9a5c4396a909c772e58b5c74.16", "url": "https://lh3.googleusercontent.com/d-g1xvw6WwDr1baZFAmHqEBjrPsyb-ot26bDRFbG13QrnkPhe7w0_BAR2ubNt_i7YY0n_sqZZQ18WwnOzGIVWDXySSo", "name": "Kristinehovs Malmgård", "lat": 59.31828700000000, "lon": 18.04109200000000, "team_id": 1, "available_slots": 0, "bs": 23, "bc": 235, "rs": 13, "rc": 122, "ys": 15, "yc": 190},{"id": "a7c1774ca1d04361a5a3288c3451824f.11", "url": "https://lh3.googleusercontent.com/Fm9V8inWdaKgL4MZAe-k3lw4cUSp4wPxaYCkmeje5cKZ3DHqSISb5XDgmz9onYtoa4ZWZYCl4WclW2AeMPdGQILcPNQ", "name": "Nacka Skoglund Memorial", "lat": 59.31128500000000, "lon": 18.07992600000000, "team_id": 3, "available_slots": 3, "bs": 18, "bc": 274, "rs": 9, "rc": 208, "ys": 13, "yc": 221},{"id": "a8a8cc19bf67400d8e3eed29af558c77.11", "url": "https://lh3.googleusercontent.com/drkJFAmka_yesWavKtv4R4d6YWF9cqEbxVZ5hfo3Gz6wzGEqFxsKPYUTiL3rOdmGHIYTjVZjFVPRS76htwxjoZE4nQ", "name": "Torso Statue", "lat": 59.31805600000000, "lon": 18.08411900000000, "team_id": 2, "available_slots": 0, "bs": 24, "bc": 155, "rs": 22, "rc": 108, "ys": 27, "yc": 132},{"id": "aaf74c8f559c41b88d2bbd583f39af95.16", "url": "https://lh3.googleusercontent.com/jytn2kRx8HSgE0vPrYd1lqCwEwtiSDc6P5pYcJ-quC74bmYaiGGh3VYnkmyfPwbrSNLSovaK4GKe7wco0VKOATF6UPLbxexyBTcNr7Hxag", "name": "Tuffsen", "lat": 59.31833800000000, "lon": 18.01943100000000, "team_id": 2, "available_slots": 4, "bs": 10, "bc": 156, "rs": 17, "rc": 262, "ys": 14, "yc": 258},{"id": "ae76621ba006498eb29bfcf0bb5f6ea5.11", "url": "https://lh3.googleusercontent.com/QPTCI0d6RdKmbEGIXmTM0sTvbxND05s_tl6HXlMLfMXerA4fRZmSxm3Fw0W1GeG5ECq1oEysQCpQwYMv-1zK5BMVuQ", "name": "Seglats", "lat": 59.30490200000000, "lon": 18.08882700000000, "team_id": 1, "available_slots": 4, "bs": 7, "bc": 199, "rs": 11, "rc": 315, "ys": 14, "yc": 352},{"id": "afdfeab3c3b64c05976ebd2d47ee6f29.16", "url": "https://lh3.googleusercontent.com/-m7wm3WWazSKhAWCD6oBM415KQwjV2LHE4tAeJ0HEEY8gOgRBbJckVxxeJz6Y8QqvT-hA2a8xoYGsmDW9NJf477wSA", "name": "Zinkens IP", "lat": 59.31641900000000, "lon": 18.05064400000000, "team_id": 2, "available_slots": 2, "bs": 21, "bc": 197, "rs": 21, "rc": 185, "ys": 13, "yc": 136},{"id": "b080a8722c3c484bb55fe8bc177c3501.16", "url": "https://lh3.googleusercontent.com/cMvvfFoKqt6BHlnvUDrPHy4qQeB5IdKXADmgqTJuNcV823FaiIq05Pq0UfuH-e11Hlgl6WwdXivdHaCxOb45rCziakw", "name": "Här Och Nu, Mitt I Livet", "lat": 59.30552200000000, "lon": 18.08178700000000, "team_id": 3, "available_slots": 4, "bs": 15, "bc": 241, "rs": 12, "rc": 173, "ys": 16, "yc": 254},{"id": "b5143d236b4e4ec08be9ffe76a4108d2.11", "url": "https://lh3.googleusercontent.com/3EDwn6nv_dbIYGrjk_RhPbALUpRu1wtAzwkOLGaHSPeiwOTw5YCddJcjPvWDCB7abT_CBeXSvxEBx0Jf_NnqrR_Kuh-o", "name": "Tanto cats", "lat": 59.31111100000000, "lon": 18.05000000000000, "team_id": 1, "available_slots": 0, "bs": 30, "bc": 166, "rs": 17, "rc": 62, "ys": 22, "yc": 160},{"id": "b8cb414595e0478ea213131b27be33a9.16", "url": "https://lh3.googleusercontent.com/vT6oTlh77TdtcXdkeN3VtmtKJAirC9mdGFdhEkJ58xPxAx0_KQzX3V8WSs-GpLSCmJIktNr3t-ztDTLAgN5iErbYuV8", "name": "Stående figur", "lat": 59.31214100000000, "lon": 18.07462800000000, "team_id": 1, "available_slots": 0, "bs": 14, "bc": 372, "rs": 11, "rc": 390, "ys": 3, "yc": 174},{"id": "bb85c5b3353644868ea4f8958dfb1f17.16", "url": "https://lh3.googleusercontent.com/JsB7rFx_ujBOVXSz_TVsYexjRjxt2c6c0q3X5qJ6i1nnuvlR6rBdy658smbbBqh2xtOFML_gDZnmAqcTUGtrba_LDCY", "name": "Blomsterfonden", "lat": 59.30765000000000, "lon": 18.07205300000000, "team_id": 3, "available_slots": 0, "bs": 23, "bc": 75, "rs": 19, "rc": 52, "ys": 16, "yc": 61},{"id": "bbd17030453842f6b3e2d056eb4b258a.16", "url": "https://lh3.googleusercontent.com/6Tvh1oXvq3S5wwBdhb7T9V6RT9PpnM68Xr7Pm97smeB1p8SgMTcSkiwRB8E4kEI4DeL6FuYRO6NJYAze4blgISxRfw4", "name": "Maria Magdalena Kyrka", "lat": 59.31902900000000, "lon": 18.06672400000000, "team_id": 3, "available_slots": 0, "bs": 17, "bc": 199, "rs": 21, "rc": 191, "ys": 16, "yc": 138},{"id": "bca29baad02b472b8771a9b557a04c36.11", "url": "https://lh3.googleusercontent.com/4tvAUshxku4j6h45fdqGzqEaOweInSYTGa3JoagZhaDIjmU3O0yCdBv-X534IoB0ZZh-HWbFYteHQ8qFjFJeWOtiCg", "name": "Söder Torn", "lat": 59.31497500000000, "lon": 18.06949800000000, "team_id": 3, "available_slots": 1, "bs": 24, "bc": 324, "rs": 5, "rc": 207, "ys": 5, "yc": 175},{"id": "bf354e5c1bc649d8ad8b94c93b7baf39.16", "url": "https://lh3.googleusercontent.com/CmSH3wfrLfcLduDSxhG9VU_kl0CssZIDJAeqTv8pIpHeATbwlKe6BR61pAw0-oAHeMKcoUW9L2YnekGN3PweQ7O5PmA", "name": "Kaninen", "lat": 59.31607800000000, "lon": 18.06131400000000, "team_id": 3, "available_slots": 5, "bs": 10, "bc": 378, "rs": 10, "rc": 352, "ys": 9, "yc": 283},{"id": "c04073bdc04c4ba89d20856670293a23.16", "url": "https://lh3.googleusercontent.com/sHXRQDbXslB5vQE6qzW9MGHLsB-0KQy-Slm45-8vHHQi159bh8qEuCRc3jlgUkFffVlPjM-Whn2Upi8p2wW5KWH-ElY", "name": "Orange Blobs", "lat": 59.30906600000000, "lon": 18.04870800000000, "team_id": 3, "available_slots": 0, "bs": 15, "bc": 178, "rs": 9, "rc": 136, "ys": 26, "yc": 224},{"id": "c0f47e57c4254e6683c977d4d7793063.16", "url": "https://lh3.googleusercontent.com/VhXl2A-pUPkJBxTF3h-W7jkNEafgerky8tWfF8iYYT3gjbSe8mxdfWCBpeT-Aq5ngCfvmJDm40LWIDNnQRPWlD8JzQ", "name": "Hot Lips På Skåpet", "lat": 59.31995300000000, "lon": 18.02882800000000, "team_id": 1, "available_slots": 0, "bs": 27, "bc": 130, "rs": 32, "rc": 117, "ys": 22, "yc": 109},{"id": "c2e59dcdc63b43299c84d53877f35cb9.16", "url": "https://lh3.googleusercontent.com/4CXOJB2ulAX3v5Pop_5rJj6qpOTAxPe16zq642Akb1qrVT2wNTQ61ncnYgoxaSDZ1k2VyhgUWAlwNOw7_papR-Iuqg", "name": "Konst i gatan", "lat": 59.30972400000000, "lon": 18.10411100000000, "team_id": 2, "available_slots": 4, "bs": 20, "bc": 222, "rs": 15, "rc": 222, "ys": 14, "yc": 134},{"id": "ca430bc2a1424fad9f69b9ce9cbd38a3.16", "url": "https://lh3.googleusercontent.com/wn1TReCqY6FpKOACqxApULogOwzmw01jIhnbpJ3n3Z9hj9i5_O-2yKPv7ZTnf1N6pJTbkHoJVL1WgJ5oLeyHa5CFPlc", "name": "Powered Flowers", "lat": 59.31051700000000, "lon": 18.10458000000000, "team_id": 1, "available_slots": 3, "bs": 19, "bc": 256, "rs": 15, "rc": 270, "ys": 9, "yc": 108},{"id": "cff7a269169743f48da08695e2af8785.16", "url": "https://lh3.googleusercontent.com/poXKGqSCNtEiYIhda1hMoTByYIvbBgO9UuBwSYid5LfXTWLLywDNvuAdPKImUKMLufEJk4UDXDfE24xg40-n0eCZpw", "name": "Fiskenät", "lat": 59.31700700000000, "lon": 18.02332400000000, "team_id": 3, "available_slots": 2, "bs": 18, "bc": 164, "rs": 21, "rc": 188, "ys": 16, "yc": 170},{"id": "d63e413d652a4ac881274b5b58f8d6a1.16", "url": "https://lh3.googleusercontent.com/bzAzp9BMAM1NetjlW2NM-PQCa9ANoTkgCskMIZdt1_zNd9WK30NcXFOQkP6fFjW_BvybWdLWoj4mO9ic9-Jggtn_nLw", "name": "Näckens Polska (Knut Erik Lindberg 1967)", "lat": 59.31220300000000, "lon": 18.09530700000000, "team_id": 2, "available_slots": 2, "bs": 19, "bc": 192, "rs": 19, "rc": 217, "ys": 12, "yc": 147},{"id": "e8bc123b49e44205aa497747540e82d4.11", "url": "https://lh3.googleusercontent.com/BycgrsABJByxpdnY5wajUtvHzNfk7obVHbOOpy6Y0LpCuEdYAKwdpZH9EkYA0xQBiQpQio1LdZYhV6tNeSm2yrpcxI0", "name": "Människa och pelare", "lat": 59.31739800000000, "lon": 18.05804100000000, "team_id": 1, "available_slots": 0, "bs": 26, "bc": 325, "rs": 5, "rc": 196, "ys": 3, "yc": 160},{"id": "ec80301417ca4d84a997381d0f3d9c8d.16", "url": "https://lh3.googleusercontent.com/p5cvhCiQ6E0eSNuNvD8WrMWGOYyHDQ0es3kgiIolJtOR5IeiK-61G4P0hk6nK55h1_p3ZRIbE4n0ctc7RdJx23CZAKLm", "name": "Ägg", "lat": 59.31821400000000, "lon": 18.01556100000000, "team_id": 2, "available_slots": 3, "bs": 38, "bc": 78, "rs": 51, "rc": 97, "ys": 25, "yc": 67},{"id": "f0be3e9bfa134fef93c95fc4c7f3c466.16", "url": "https://lh3.googleusercontent.com/7xO6pQsBSJL0tk8jM3QCwHbD1vich3kvhbDKM9xDpIpvMBGNqZwus5cSHvxPa2PKkXKEe_Ff15DCCQSO3pAYaxDI61T2", "name": "Barfotasångare", "lat": 59.31327500000000, "lon": 18.06048100000000, "team_id": 1, "available_slots": 0, "bs": 16, "bc": 377, "rs": 8, "rc": 337, "ys": 7, "yc": 135},{"id": "f1c575c114e047fe84d5fd9ffa87ec14.16", "url": "https://lh3.googleusercontent.com/UCqb6sl4YmtfPFEHKY7e20sYVaoWo9hdBDuPoCEAk0WYFmQ82gLavpDGKItUAGm4tFdEtCoWPFzTwaXPe9Ys_Cft5Q", "name": "Pillar of Hands", "lat": 59.31588700000000, "lon": 18.03433200000000, "team_id": 1, "available_slots": 3, "bs": 11, "bc": 376, "rs": 10, "rc": 349, "ys": 8, "yc": 267},{"id": "f483077c2f75408eb482f0487a9c8c33.16", "url": "https://lh3.googleusercontent.com/qo6Lnb--OqI67dpk3hZwrTVE8dJajso0KU6X0epqyiFyxT2Tilhu9Fh95tnt3P_CMAUapNMaz8lDN2SXLGoeZ8RgcmID", "name": "Orionteatern", "lat": 59.30827300000000, "lon": 18.09003000000000, "team_id": 2, "available_slots": 0, "bs": 4, "bc": 186, "rs": 29, "rc": 288, "ys": 4, "yc": 144},{"id": "f709f29e453248ddaa67d74f229d9c49.11", "url": "https://lh3.googleusercontent.com/-mKG2QrLmHsnKGFHoHMTRDFoNKgdLiE5sPgYMv8dVAaaVnrcWUR7SjjzB9TmBeSNrZI1Xy1kyLN4MEpEkKLGCYA4siQ", "name": "Observatorium", "lat": 59.30621400000000, "lon": 18.10203600000000, "team_id": 3, "available_slots": 0, "bs": 40, "bc": 108, "rs": 29, "rc": 80, "ys": 30, "yc": 101}]
