[{"id": "00f4af912b0b43ed927218c0f2e34dc9.16", "url": "http://lh3.googleusercontent.com/62quuDki6MdC1oxbJttcDt7_7yufCe93itJyYlIxHd824UADVmWduS3F_EbvJOQAK6ga39_BuePXquFmCkPghx1R_z8", "name": "Mehedeby Beachvolleyboll", "lat": 60.45660100000000, "lon": 17.39210800000000, "team_id": 2, "available_slots": 4, "bs": 0, "bc": 0, "rs": 0, "rc": 0, "ys": 0, "yc": 0},{"id": "04a6196f0b5747a7889ea137bef67bd4.16", "url": "http://lh3.googleusercontent.com/Zq2wfKPf8NauZeL_DdECo3CWQBJrb7HwG60WGCu4Cn74ABAMHwrQ0BYQoM4TW4nhEwVG5kRsiSyGp15NA03YY19tn2M", "name": "Vendeltid monument", "lat": 60.16285300000000, "lon": 17.60158800000000, "team_id": 2, "available_slots": 5, "bs": 0, "bc": 0, "rs": 0, "rc": 0, "ys": 0, "yc": 0},{"id": "0578e73e9efa4269b39eb1207f4687bf.16", "url": "http://lh3.googleusercontent.com/yFWPIz6g99vcVSmLCXhbVqaOF0ksXcxDZE0mGavI4RO1eA3Vn6NVu7-fi3wj36BTmJGj-lsVbhjjgmZlS_qhHm2CXuo", "name": "Flätad Vägg", "lat": 60.22739100000000, "lon": 17.70115500000000, "team_id": 1, "available_slots": 5, "bs": 0, "bc": 0, "rs": 0, "rc": 0, "ys": 0, "yc": 0},{"id": "0823de66a4764ebba33887b81e119c8f.16", "url": "http://lh3.googleusercontent.com/UThib_KsG7hZHrFovd6vWXHW3ZNiSEosrALofqtPEcz2LRNu-3wKF6_vad3MdZGFx6XtrAmz3HjGlvDlTVwxTvOipw", "name": "Lövstabruks Folkets Park", "lat": 60.41658200000000, "lon": 17.87944200000000, "team_id": 3, "available_slots": 2, "bs": 0, "bc": 0, "rs": 0, "rc": 0, "ys": 0, "yc": 0},{"id": "0848fc0d595f3262ac19c914ef22f2ab.16", "url": "http://lh3.googleusercontent.com/ohFHIfKrjtz-8hoK-mggeyA7yHJqrKmHYbml8ly6TNIZ9ZqykgeWrX2BuiHr_qz0KQJ4rxQonzMuXAfnfLLZl9CKLG8RgoH26btn1nI", "name": "Lekplats Vallongatan", "lat": 60.52700300000000, "lon": 17.63159500000000, "team_id": 3, "available_slots": 0, "bs": 0, "bc": 0, "rs": 0, "rc": 0, "ys": 0, "yc": 0},{"id": "0a3e4c3fc2694fd79b319b8aff53c681.16", "url": "http://lh3.googleusercontent.com/XmbKFk03CQciTS35Hrb8dw3g0iCX9-6K7bi3Dg_CB_FRC9cgNHo1HVq_gfxqB6Pzh8ekFoMOpsfIFILecb3lL1m12LM", "name": "Vendels Bygdegård", "lat": 60.14253900000000, "lon": 17.57419400000000, "team_id": 1, "available_slots": 5, "bs": 0, "bc": 0, "rs": 0, "rc": 0, "ys": 0, "yc": 0},{"id": "0a97875ed8a247c6b3b023954ac68cdf.16", "url": "http://lh3.googleusercontent.com/AkZBRrSl5ogZ4Q-j8wBBShaqYL3ae0crr-D5Uns1fNQdjtB5bo8OhAKqJRuXoMCIdAffuZ-Fw-xNrxLB_TbUSi_e7Q", "name": "Örbyhus GK", "lat": 60.20001300000000, "lon": 17.70088900000000, "team_id": 2, "available_slots": 3, "bs": 0, "bc": 0, "rs": 0, "rc": 0, "ys": 0, "yc": 0},{"id": "0afba15d9c554011bd732004afa3dcfe.16", "url": "http://lh3.googleusercontent.com/MUrfgkOdDYoHWB-NiQ8xHW_dc6KzrEUU6SA7TweFM689C3LkW5223n5m_UqYMancrUpeMQG07wKKGBE4CQQ6WPLpNQ", "name": "Söderfors Kyrka", "lat": 60.38500200000000, "lon": 17.23238900000000, "team_id": 3, "available_slots": 3, "bs": 0, "bc": 0, "rs": 0, "rc": 0, "ys": 0, "yc": 0},{"id": "0b4cd0cc6e4a49cc8352a98a59de8a44.16", "url": "http://lh3.googleusercontent.com/1Ea5ufBh-EEfQSkU3_v2_AxyVHzidlT15S_Y3ayF603Du0rQtDHvxTo5Vm5_nqVCgvQTRAMjuzj-gsBhMuNQIZlF764", "name": "Örbyhuskyrka", "lat": 60.22703000000000, "lon": 17.70622100000000, "team_id": 2, "available_slots": 1, "bs": 0, "bc": 0, "rs": 0, "rc": 0, "ys": 0, "yc": 0},{"id": "0be76fe293b5446e84868fb6dca0fbab.16", "url": "http://lh3.googleusercontent.com/DQ5tMxyYVU89m5hV5L6qbGzzlnw67ycfZe5AJagqcQFZ0WlR6JoxVTfmagv644Fq3so0ytmk8cqfzO1ciDK7dfFyP75q", "name": "Missions Kyrkan Karlholm", "lat": 60.51951200000000, "lon": 17.62404900000000, "team_id": 3, "available_slots": 5, "bs": 0, "bc": 0, "rs": 0, "rc": 0, "ys": 0, "yc": 0},{"id": "0c7c3c970ab843c7a3a71bba4fc3470b.16", "url": "http://lh3.googleusercontent.com/yuG-HBe8BXEeJ8Lwz3ubA8IXgop2nkU_soanZlFhXFQQPZI8bdjodjw5ZH9jbEruCUt3viSkafQkpgrL6Ut6z10v8Q", "name": "Källarbergets Naturreservat", "lat": 60.56729900000000, "lon": 17.77313900000000, "team_id": 1, "available_slots": 4, "bs": 0, "bc": 0, "rs": 0, "rc": 0, "ys": 0, "yc": 0},{"id": "10c7bfc82efc4291ae2b6bf6e4b5966f.16", "url": "http://lh3.googleusercontent.com/xwqmqnTyv2UgqdBAoEnHNbpPYVwntwnpcWvjALq5fdTNnyfhBGDGQDVwrJhk8XBDC8aKw-gXc353fruJkEAdxpu-vEoa", "name": "Sagostigen", "lat": 60.35470000000000, "lon": 17.50682300000000, "team_id": 3, "available_slots": 5, "bs": 0, "bc": 0, "rs": 0, "rc": 0, "ys": 0, "yc": 0},{"id": "118ce0dff17d48eaa47d814647d95945.16", "url": "http://lh3.googleusercontent.com/oV-JKuJtKCdmTg5ienKdPxNOwD9Ws7JJlTyXrnsgL6X5a-LBk8vE5S63NAcXK0VJWmKwFcx2pOv5Iba2N3XGYdleLjg", "name": "Eric Sahlström Institutet", "lat": 60.25928300000000, "lon": 17.65628300000000, "team_id": 1, "available_slots": 4, "bs": 0, "bc": 0, "rs": 0, "rc": 0, "ys": 0, "yc": 0},{"id": "131d91597fc44905a5369974ac946490.16", "url": "http://lh3.googleusercontent.com/538GRVHT7xV3jSTE9jbKafzWJDMvWLF7akiLZlWLiPmbEy6LFPFtB-u6r1K8eytO5H_FCFEJmK5Xq0t175L-afAh7SQ", "name": "Damasteel Söderfors", "lat": 60.38341300000000, "lon": 17.23603800000000, "team_id": 3, "available_slots": 4, "bs": 0, "bc": 0, "rs": 0, "rc": 0, "ys": 0, "yc": 0},{"id": "1a0ac4a97bb735ed98db8879928bc9d6.16", "url": "http://lh3.googleusercontent.com/yPotKH9rwpTNhopsk5WIiid8TOkq6l3FtvND2APqFMMaepgTJRev6sK7xPlHvnglsM3P5ak3M60WpaFngD0CQdc3sWci9D39lBMR8GpTig", "name": "Gångbron Bolstan", "lat": 60.44165800000000, "lon": 17.60982300000000, "team_id": 2, "available_slots": 5, "bs": 0, "bc": 0, "rs": 0, "rc": 0, "ys": 0, "yc": 0},{"id": "1dd492c5056e46c3bc0218789960d471.16", "url": "http://lh3.googleusercontent.com/AdIuxazF_W3ly3Kbc3gpvq7eQEWgbbj1VgYzT7FOCpVRDzgbvsjEM6Wu4IBB98ODZ3QzJeOhr9qOhmzqaJyDhB65LIJ_", "name": "Klockstapel", "lat": 60.29898600000000, "lon": 17.46853200000000, "team_id": 1, "available_slots": 1, "bs": 0, "bc": 0, "rs": 0, "rc": 0, "ys": 0, "yc": 0},{"id": "1eaf1ae4da1c31518b09f5b962c06841.16", "url": "http://lh3.googleusercontent.com/OLmvHfkv4LdMa7mR6g_8Yt2Uhqj1OUwv7KcCLGG4j04eD_p6yaiURVqMCPVDkBN6hIlotCBxxiVayPrks9kyXGbPd5amlc7R_UdvWLuA", "name": "Vendlas hög", "lat": 60.16103200000000, "lon": 17.60124700000000, "team_id": 1, "available_slots": 4, "bs": 0, "bc": 0, "rs": 0, "rc": 0, "ys": 0, "yc": 0},{"id": "23375aacee844ed79bac54b957a802aa.16", "url": "http://lh3.googleusercontent.com/R0aoueqcAUhIxA0Ubho4in3s6pwoFdrOIHUVuHwYFWUMncvuaDe5I3fDbreSQxBMNd7xir4PkQhZ5xktoCUzjeOZptKaz-2z8Evo43iH5g", "name": "Rest sten 1845", "lat": 60.48608500000000, "lon": 18.04502800000000, "team_id": 3, "available_slots": 5, "bs": 0, "bc": 0, "rs": 0, "rc": 0, "ys": 0, "yc": 0},{"id": "23a04148de774081bd2c40a01ab7af6d.16", "url": "http://lh3.googleusercontent.com/poTQk06Kku8PEiQlTTZPVzeh6mR05AlfhItJI1IkgCqmLlShMvlco2gZO52CQ0522qvdDa62pQ3Xob3GtKa-h-qUGDk", "name": "Strutsmålning", "lat": 60.26157600000000, "lon": 17.45724000000000, "team_id": 1, "available_slots": 0, "bs": 0, "bc": 0, "rs": 0, "rc": 0, "ys": 0, "yc": 0},{"id": "24e6ec904d5241259eb85f3f86eaed31.16", "url": "http://lh3.googleusercontent.com/UG3uOal8iTE1rwKya5SEdidEit8b2zwM71d76aCEqjRHrSfkBxmSsjxkHFVFfVdU1utlE0VS5Glmb45A5pxIHpUcArA", "name": "Tierps Station", "lat": 60.34514500000000, "lon": 17.51384800000000, "team_id": 1, "available_slots": 2, "bs": 0, "bc": 0, "rs": 0, "rc": 0, "ys": 0, "yc": 0},{"id": "255d9f8755e94a979678dd69d1140a77.16", "url": "http://lh3.googleusercontent.com/kCft4X7fCmJ3ZrrFun6GocfY7DlUu53k8ey2sxc1KO3ae7OwI7SpZ1fV9qcoRnjVDXEuG5gGGxt1MACRyOlVBrH17k0", "name": "Klockstapel Strömsbergs Bruk", "lat": 60.40249300000000, "lon": 17.57971400000000, "team_id": 2, "available_slots": 5, "bs": 0, "bc": 0, "rs": 0, "rc": 0, "ys": 0, "yc": 0},{"id": "264a0d97a801439fa1099ec75cb2cbd7.16", "url": "http://lh3.googleusercontent.com/I4-r0KtIHbAXRfC2l5TDE0rkff2_oh3uAlk3WpVlvMOBjAY5mesUKWABvCIJCcQUj_qs0GkVsiDQkfpBtTOCDeHPLwJD", "name": "Järnmagasinet", "lat": 60.48594600000000, "lon": 18.06136900000000, "team_id": 3, "available_slots": 5, "bs": 0, "bc": 0, "rs": 0, "rc": 0, "ys": 0, "yc": 0},{"id": "2eebc72d352a4708832123ce48fdf340.16", "url": "http://lh3.googleusercontent.com/0LUnpi3wS0bXhUGzOa311n8-svblljqcMiQgd9f8F9G3nOscagAHIJr11_ovKYNZfi73wzlneHjYC3RvxkdUWGnL4A", "name": "Örbyhus Vattentorn", "lat": 60.23151600000000, "lon": 17.70599600000000, "team_id": 3, "available_slots": 5, "bs": 0, "bc": 0, "rs": 0, "rc": 0, "ys": 0, "yc": 0},{"id": "34514ceab26e4109880e43891ef8ff47.16", "url": "http://lh3.googleusercontent.com/jTtLlF9KuG1sjKh8xD9s40u9zhuEa8lyNIDVaxo-tzxLoj8i0Ksdez5TiJb7ZoZLxINPq3cxNd0rCiE47_vVw15zgnBn-pZzCAJYy6g", "name": "Aktivitetspark", "lat": 60.52309400000000, "lon": 17.62657400000000, "team_id": 3, "available_slots": 5, "bs": 0, "bc": 0, "rs": 0, "rc": 0, "ys": 0, "yc": 0},{"id": "352eb0e1cd534ce09561c473ae94335e.16", "url": "http://lh3.googleusercontent.com/2ZHTR4OF9g4QAo9jQ1nGQBCy23KbaUoFkadgp4RCTXKsYu44T3CnqTsMe-Ys6xv8NWaOdOc7S8CuBWpG9QYknSlUDA", "name": "Runstenarna vid Tierps Kyrka", "lat": 60.29940400000000, "lon": 17.46981700000000, "team_id": 1, "available_slots": 4, "bs": 0, "bc": 0, "rs": 0, "rc": 0, "ys": 0, "yc": 0},{"id": "3978f25ce2d44ce697e0d3a8dfa45ac9.16", "url": "http://lh3.googleusercontent.com/boSm7CubNfGvCe-Pq0XIh4mTfc8mGx5ksmWbR_RJigwo0VS_DdOPtvI4mI5i9Q313hkU7Z82Ju1FmSZw9fgds3RJSIk", "name": "Varggropens fågeltorn", "lat": 60.15593100000000, "lon": 17.63259200000000, "team_id": 1, "available_slots": 1, "bs": 0, "bc": 0, "rs": 0, "rc": 0, "ys": 0, "yc": 0},{"id": "397a77067e944888acb90120e543f804.16", "url": "http://lh3.googleusercontent.com/gS4i193BSpL-H6ig7XZkx1Eh-fl-Y09C7_plFc14P3UQq3x6rUm4X6cLbmOknfdGkCyqDwYmoxysX7jh8Vo7lqj6CJo", "name": "Gammal Planksåg", "lat": 60.52221700000000, "lon": 17.63728900000000, "team_id": 3, "available_slots": 0, "bs": 0, "bc": 0, "rs": 0, "rc": 0, "ys": 0, "yc": 0},{"id": "39872155a29f3b6ab2a8dcc042eab12f.16", "url": "http://lh3.googleusercontent.com/VDjJKfO0h0-P2LH2F5VYog7rZBcWj4PPZK4YMwi8nncrrN2Klr3bIBkZBw3PoN4aVM_hDMzLZsEvh2nnQUTYqiJMAHhXwKY8TzxBBESbmA", "name": "GRAVFÄLT FRÅN JÄRNÅLDERN", "lat": 60.28906700000000, "lon": 17.47130900000000, "team_id": 1, "available_slots": 0, "bs": 0, "bc": 0, "rs": 0, "rc": 0, "ys": 0, "yc": 0},{"id": "47a468ae6b874fdda13bb51f85e39625.16", "url": "http://lh3.googleusercontent.com/bE6KS5le5SotjMwXKV3QfsZv2esu1uB9zQj2VYcBUljpC-88jYJhFJgDwUoz8Yx8hWcGrzEhmJ_FbESLgA8ekCS_pA", "name": "Gravkapellet", "lat": 60.33848300000000, "lon": 17.51133500000000, "team_id": 2, "available_slots": 5, "bs": 0, "bc": 0, "rs": 0, "rc": 0, "ys": 0, "yc": 0},{"id": "4ab8f23a54ad4326a4c457f5178dc6b9.16", "url": "http://lh3.googleusercontent.com/Rx7eFV-8QolriD_u-k3ENieucoTl-hiML5HCO2u1NjXcEXylnC3QgnSTFITmSWP6VNg8e1z2uoDCqS7T_XGf7Ik3yek", "name": "Torkvind", "lat": 60.27297700000000, "lon": 17.43108900000000, "team_id": 1, "available_slots": 2, "bs": 0, "bc": 0, "rs": 0, "rc": 0, "ys": 0, "yc": 0},{"id": "55679f89dfb04878abcc962196dce7f1.16", "url": "http://lh3.googleusercontent.com/7o_n8QGJ73UHz5CQLO2sBXfMUrIfIte78k89PdpkUNH6FO1MZwBrvp9jsZRE-X9Vr9D0PdH-yuO66LZyuJUmkCbs1g", "name": "Naturreservat - Välkommen Till Hållnäskusten", "lat": 60.57380200000000, "lon": 17.99254200000000, "team_id": 3, "available_slots": 2, "bs": 0, "bc": 0, "rs": 0, "rc": 0, "ys": 0, "yc": 0},{"id": "571f9a414de949c591a49a3b7739269f.16", "url": "http://lh3.googleusercontent.com/ITRyKYcwSqO0D1-wdejcCttKgoNUs_NFJ__JAQvwbcDokmuVBADrkvq7wxifJ3_RRko0YX12ZKRsogjHmWSy0T_eO7sx", "name": "Kapplasse naturreservat", "lat": 60.57567600000000, "lon": 17.82116500000000, "team_id": 2, "available_slots": 3, "bs": 0, "bc": 0, "rs": 0, "rc": 0, "ys": 0, "yc": 0},{"id": "59600f74a6044967bdbecb0e1a1e34f1.16", "url": "http://lh3.googleusercontent.com/kInKOQLzojXEaE3rb7-Up2U0xErslkAGWhk0FWFHWvNoOe9qHQyDAAleYr68LDBkBBl4yf6vEhxZ6pafAC0RFDVVp6w", "name": "Tegelsmora Kyrka", "lat": 60.25851300000000, "lon": 17.71526600000000, "team_id": 2, "available_slots": 1, "bs": 0, "bc": 0, "rs": 0, "rc": 0, "ys": 0, "yc": 0},{"id": "5de100a808c8402b99e92a52b77f2357.16", "url": "http://lh3.googleusercontent.com/6bajl8jBtWdQ2uObQDTOMIv-5d27ErTba_3_yjJ9UofDjfLzSwSg6PAVhEHH0533JtmbmkIyXZDTo9MxXKe0VTn__ko", "name": "Grefve Carl de Geer", "lat": 60.42286500000000, "lon": 17.85760200000000, "team_id": 3, "available_slots": 1, "bs": 0, "bc": 0, "rs": 0, "rc": 0, "ys": 0, "yc": 0},{"id": "5e6d187457144367b4a027bc97054f93.16", "url": "http://lh3.googleusercontent.com/y72cHMdoi5QOeUXZn5OrXUuTUW6kM6G2QQ1J-W35rsVT_h_YIVOBjJxgmaRa4rkUPKl3hLAEkTYU9sCZ6E9D_O4eQWw", "name": "Tankegång", "lat": 60.34171700000000, "lon": 17.50798900000000, "team_id": 2, "available_slots": 5, "bs": 0, "bc": 0, "rs": 0, "rc": 0, "ys": 0, "yc": 0},{"id": "609f23c52e9449459a3228432f379fb8.16", "url": "http://lh3.googleusercontent.com/si0DLVJNc6-tj4bZ6iCdUQyhasqgZzyr9914H9aAdtPniIgw6vxB7gXE-1kea0Yt-aXAQr4Bm-MAXDXPCQuAwUz3xuTV", "name": "Västlands Kyrka", "lat": 60.44680600000000, "lon": 17.61371100000000, "team_id": 3, "available_slots": 4, "bs": 0, "bc": 0, "rs": 0, "rc": 0, "ys": 0, "yc": 0},{"id": "6163841eae8b4093b65e3be3e7bf2130.16", "url": "http://lh3.googleusercontent.com/ol-ZaymFRcTVM8xLltYP7UfrSFA4aVZu3TDCUvBHzn1qSatNj0Qk9W9UFTEsxhS-gBWwV5QaUD-4znZTG5piP3LfbrQ", "name": "Uranus, in SSS", "lat": 60.40860700000000, "lon": 17.87661600000000, "team_id": 3, "available_slots": 2, "bs": 0, "bc": 0, "rs": 0, "rc": 0, "ys": 0, "yc": 0},{"id": "61fdccbc69e24e928d482c92020e9d31.16", "url": "http://lh3.googleusercontent.com/FmnTImgSomZdypAALurepB_lsLOMeT-hi5ZHm9DRaSB3ZLrAO9Y1zWHzXRthP0S4h_-7upRTS_KPSrOgpYvYtMONuw", "name": "Info Snatra Brygga", "lat": 60.51464000000000, "lon": 17.65540300000000, "team_id": 3, "available_slots": 0, "bs": 0, "bc": 0, "rs": 0, "rc": 0, "ys": 0, "yc": 0},{"id": "65a2221ee3b3447f9b5eec999bd88de5.16", "url": "http://lh3.googleusercontent.com/xs1Izeb-sZ8QOniUV8nBAEcJlbIoJa01nbWZ2fGkW2N93yyOIOlnZ0WYUJ3O7i4-BnlreMURPo5mMnHII7UbzvL5VdE", "name": "Ängskär Naturreservat Gästhamnen", "lat": 60.49667300000000, "lon": 18.06759500000000, "team_id": 3, "available_slots": 4, "bs": 0, "bc": 0, "rs": 0, "rc": 0, "ys": 0, "yc": 0},{"id": "6b5a15dbad1944db8e2c756db7e8e560.16", "url": "http://lh3.googleusercontent.com/3YnL8VQLI_CEtL08jn2nWpSNPquDLZBC02BATTgRty-ViM3iYLtSl_QmgDpal-KmKjzXgOebt6o8mLF0cvf7FRPJmVI", "name": "Hållens Missionshus", "lat": 60.57925700000000, "lon": 17.95114200000000, "team_id": 2, "available_slots": 2, "bs": 0, "bc": 0, "rs": 0, "rc": 0, "ys": 0, "yc": 0},{"id": "6c71f27930dc48df8b1743bfdfc22bae.16", "url": "http://lh3.googleusercontent.com/qO6Tl_hCIrV8QF2JyXYdWCaxcptUuXsRW22rLDoL5zdlOe6nru3_z5YvBcNPOmOD4he2yZMVYlWuYiTXSzXOr56CfA", "name": "Tolfta Kyrka", "lat": 60.37515700000000, "lon": 17.54975400000000, "team_id": 3, "available_slots": 3, "bs": 0, "bc": 0, "rs": 0, "rc": 0, "ys": 0, "yc": 0},{"id": "6cf3b4cd51794f548ebf4fae1b593759.16", "url": "http://lh3.googleusercontent.com/HUy1ekjQk2UzeEfbRYkUS3JtcrB_nNTknb4oGb1oUMv51YxoI8e9_aosTvNXdpc9F1Rwq5Z8IT9hr2_e_Mh7KLJROg", "name": "Hållnäs Kyrka", "lat": 60.53491000000000, "lon": 17.88227100000000, "team_id": 2, "available_slots": 1, "bs": 0, "bc": 0, "rs": 0, "rc": 0, "ys": 0, "yc": 0},{"id": "70f3b599bb96492a965131536fc15d18.16", "url": "http://lh3.googleusercontent.com/uXjF7XZ0RJtvQs5QpIJ3zt799Y6-VM1zm8Ik-4oixVJCBcvVCwdK4wd0S9mqjMmh1YxrIxapLwZu_Cw8XiIIoUOGRMk", "name": "Deer", "lat": 60.22539500000000, "lon": 17.70437100000000, "team_id": 0, "available_slots": 6, "bs": 0, "bc": 0, "rs": 0, "rc": 0, "ys": 0, "yc": 0},{"id": "7392781ffec14280b53de534deeadbbe.16", "url": "http://lh3.googleusercontent.com/Z9cYJ8BXBJmevMRBH4RJoRUOOlTCk-R1ixJgWPdkbxC1Esh-Y0sVaQYoOsac_uC4MlpqNcJhLwHsfpw9NIthOanjf31g", "name": "Equmeniakyrkan i Hjälmunge", "lat": 60.53657600000000, "lon": 17.91600500000000, "team_id": 2, "available_slots": 5, "bs": 0, "bc": 0, "rs": 0, "rc": 0, "ys": 0, "yc": 0},{"id": "7406abb35597423ba18d59eb6466fc65.16", "url": "http://lh3.googleusercontent.com/1ZbDlin6QFH-6kZWEacSs8TwVL-XTG_tDChi26rrUJ4VClN8QFHRfa8UaqqD0752pJu9oTEnEV3bxMvJKDYxrRw9XlY", "name": "Sven Sjöbergd Torg, Söderfors", "lat": 60.38928000000000, "lon": 17.24234600000000, "team_id": 1, "available_slots": 5, "bs": 0, "bc": 0, "rs": 0, "rc": 0, "ys": 0, "yc": 0},{"id": "78b0e5660c01403e9f8bfc83a977c6d9.16", "url": "http://lh3.googleusercontent.com/lBIK0-6UNYXjKzYFSxEN6MDZd2UPNEIGaoXJLxMrypTYu5NkwM-y_QLuV3n7v6Myn90_bdpbB3mdgRoHJ-HA7I76zxM", "name": "Björkbackskyrkan", "lat": 60.23133200000000, "lon": 17.70646400000000, "team_id": 3, "available_slots": 5, "bs": 0, "bc": 0, "rs": 0, "rc": 0, "ys": 0, "yc": 0},{"id": "7a894c802b20461ca61ac57ea9262c17.16", "url": "http://lh3.googleusercontent.com/1tjvzICnNn-d9seoA7jUBIGOgHILKrZQAKyUe5wO7bs6nGO-_lzTW6vKJ77pS9QyN62JnLYxiSdp30JP9EKWVK5UNSk", "name": "Vendelbadet", "lat": 60.22509600000000, "lon": 17.70379200000000, "team_id": 2, "available_slots": 4, "bs": 0, "bc": 0, "rs": 0, "rc": 0, "ys": 0, "yc": 0},{"id": "7b8c3e1fbe4b4493a42015b320583f83.16", "url": "http://lh3.googleusercontent.com/z69NSOrpnuzyrnbubBXLm6ptrzkUHauFrEpn9Jb6rnxfRtlE1uLxeDPYxraouMhNsnwTqaqZ-ojt-gBAvfE2pM9aZFi-", "name": "Tallparken", "lat": 60.22778700000000, "lon": 17.45819000000000, "team_id": 3, "available_slots": 5, "bs": 0, "bc": 0, "rs": 0, "rc": 0, "ys": 0, "yc": 0},{"id": "7cf817318250384db54a3bdeacda4015.16", "url": "http://lh3.googleusercontent.com/HK97ytpuUNqNJjvF1QZesmAsk32yurScTCFUJECjcJ-uuTtdK8W5Dv63j-e2OWhrDafZ04BgozoNHk538fdklw3rNqXdQutDmhn-2PM", "name": "Beach volleyball", "lat": 60.48302800000000, "lon": 18.06835000000000, "team_id": 3, "available_slots": 4, "bs": 0, "bc": 0, "rs": 0, "rc": 0, "ys": 0, "yc": 0},{"id": "7f1e724d0fb1412eb546ea0739620060.16", "url": "http://lh3.googleusercontent.com/aF1RcRm5bM3TK9HR_kD1pr1vprnBfPnX1bv17lWi-G_vzQfGdRoHKVda52y2-cDzkKDfMmVnPEZLVsTlqovE2UByy90", "name": "Minnesurnan", "lat": 60.38981700000000, "lon": 17.24727500000000, "team_id": 3, "available_slots": 5, "bs": 0, "bc": 0, "rs": 0, "rc": 0, "ys": 0, "yc": 0},{"id": "8268aebc02b5491087631c9a969516e1.16", "url": "http://lh3.googleusercontent.com/IZ7sP7V0eh9xdtW0_J_SRAmnkMUPOjVsj1r4tWKYfwN1jpJKu2kfM7mJ0rKVVc4lVotRr3lHgPoAyeGcVfPjXyl-fK4", "name": "Karlhoms IP", "lat": 60.52279000000000, "lon": 17.62017900000000, "team_id": 3, "available_slots": 5, "bs": 0, "bc": 0, "rs": 0, "rc": 0, "ys": 0, "yc": 0},{"id": "8476b617d19d4d01b634f6dcdd798aa8.16", "url": "http://lh3.googleusercontent.com/bR9EGwENxhqsiMlTZ3nHV8rowvJbUEl3hgJ9gEtr-FQYqH5ooQ0tK39U0dBn3bfu_9KRJdNtlL7mYANCNhGSI7SSUAM", "name": "Vendel hockeyrink", "lat": 60.16800700000000, "lon": 17.60465800000000, "team_id": 1, "available_slots": 4, "bs": 0, "bc": 0, "rs": 0, "rc": 0, "ys": 0, "yc": 0},{"id": "8be36e64595249b69ea36e7b867630e0.16", "url": "http://lh3.googleusercontent.com/mmeFn_hRAEA7FEWm03NtMKsfzU7NSnxr4lcjSRp2-jTOT9WviQwUzw0yHaCnvCtn8DtDZTdXm9qNCQ783wD0x9HC0pTz", "name": "Tobo masugn", "lat": 60.26180100000000, "lon": 17.65776800000000, "team_id": 1, "available_slots": 2, "bs": 0, "bc": 0, "rs": 0, "rc": 0, "ys": 0, "yc": 0},{"id": "95100a099383488cb28bd59cd058afd7.16", "url": "http://lh3.googleusercontent.com/1tMtqS_RuC4ikxVnUQSF2lahRwJhoragTsWHXaLZv3KOL63MR4aObn0bf9ddFel5QGddadbA8hSYxPZgV2xV_jUJ77E", "name": "The Orangerie", "lat": 60.19975200000000, "lon": 17.70809100000000, "team_id": 3, "available_slots": 1, "bs": 0, "bc": 0, "rs": 0, "rc": 0, "ys": 0, "yc": 0},{"id": "95931ce7acaf4120aff70c144b114257.16", "url": "http://lh3.googleusercontent.com/xfW9JuSvH_SlvP64a_57SLM1HuY7k95SEqb64englzy3dFo4VraUZadbAqTAKDkrmhMkPmWBjsg92AJWX74HVk_SKHhj", "name": "Ankarna", "lat": 60.38656100000000, "lon": 17.24503900000000, "team_id": 1, "available_slots": 3, "bs": 0, "bc": 0, "rs": 0, "rc": 0, "ys": 0, "yc": 0},{"id": "9a7e0136de2246978b30ea9d8ec8596c.16", "url": "http://lh3.googleusercontent.com/QlPinvAihO_Ivw4o7d7NCx-RnIsbsGTxnITTBOgpN6xSM1Y24zCsTRinnHcGUdZBroiC5dKEKQapJGIuKQYWcMcixds", "name": "Välkommen Till Slada Hamn", "lat": 60.54555700000000, "lon": 18.01827600000000, "team_id": 2, "available_slots": 5, "bs": 0, "bc": 0, "rs": 0, "rc": 0, "ys": 0, "yc": 0},{"id": "9c334d944f1847739f54b2abaa82e37b.16", "url": "http://lh3.googleusercontent.com/St82KBBUc-Ei70R8rUQmft9fExdG_bZHTACKoiQqEf0y9xHhq5xVEhDXfkEiZzeVLO3BmfViirx0zoxwW_9Ewcf25KU", "name": "Minnesmärke", "lat": 60.29962400000000, "lon": 17.47090900000000, "team_id": 1, "available_slots": 1, "bs": 0, "bc": 0, "rs": 0, "rc": 0, "ys": 0, "yc": 0},{"id": "a0c807e840fb46589f33151542a9a999.16", "url": "http://lh3.googleusercontent.com/ZDXVjbYhYsi2D9FSK7DHtGZbo1VJ6vqUOTc_z64KEvhIB8eN2Qau3NWNMbKNXJZFziikn4q5PirkoeqfSDV3h8Fz9n4", "name": "Löfstabruks Herrgård", "lat": 60.40886600000000, "lon": 17.88171400000000, "team_id": 3, "available_slots": 3, "bs": 0, "bc": 0, "rs": 0, "rc": 0, "ys": 0, "yc": 0},{"id": "a243c21ec934460a9e4f4de4ce20d952.16", "url": "http://lh3.googleusercontent.com/TIJk6OjDiOoifSwJkzDSyR_U3ZKaZSqsS2xFL0wSLU8eah6SmfoUAeb4azPYVWwPUHkUf_IFj0eYBpL47KCTLok_TxM", "name": "Klockstapeln, Karlholms Bruk", "lat": 60.52191800000000, "lon": 17.63629400000000, "team_id": 3, "available_slots": 3, "bs": 0, "bc": 0, "rs": 0, "rc": 0, "ys": 0, "yc": 0},{"id": "a373b5abf8a9495e97819a7dc58ac214.16", "url": "http://lh3.googleusercontent.com/Lhxaushq5KNSm3wJaGFTpHTvxDzeXBHbV5ICQYhjH9SzhQf7jLBmpzDdLvEM0VX_PO-n9MXltmDuhKaDDRBE-qPWV6NKyUoTwRgZUvw64g", "name": "Vegahallen", "lat": 60.35340600000000, "lon": 17.50673900000000, "team_id": 1, "available_slots": 5, "bs": 0, "bc": 0, "rs": 0, "rc": 0, "ys": 0, "yc": 0},{"id": "a6d6d63488944bf99097d220f48c0e7e.16", "url": "http://lh3.googleusercontent.com/omzFHpA7FP2Bj4EKWt8QRNIkzYWGMyHa6hJyW6i7tYHOzlzwcJ0aKzM60GzD1ia8_subRDyUEQ2U8c9QSMCT9iDTPA", "name": "Tierps Kommun", "lat": 60.34242400000000, "lon": 17.51707600000000, "team_id": 2, "available_slots": 5, "bs": 0, "bc": 0, "rs": 0, "rc": 0, "ys": 0, "yc": 0},{"id": "ac8738f9de3e49fb9cedb3557a158247.16", "url": "http://lh3.googleusercontent.com/mav36VzwLd7yLnagyprJzz93ffujXrIHs6wk_H36DV0KJRkqbrDULdRiUssYtq8GGHfhiCfAs8lob3aQXn36c6o_P-XlFv1xDmf6jBuT", "name": "Tobo Folkets Hus", "lat": 60.26134200000000, "lon": 17.65773500000000, "team_id": 1, "available_slots": 3, "bs": 0, "bc": 0, "rs": 0, "rc": 0, "ys": 0, "yc": 0},{"id": "aeba79b057d44bdc928bb0ecc1c0afd8.16", "url": "http://lh3.googleusercontent.com/WvsAOh1WfnOl4ztJpXmzDiYNga2jKCUSy53hV1WybBsG2QwhS4AsrbmLaa9aJzrRscV4fTjSbEqHvo_YKSsxgXOtprwK", "name": "Södra stigluckan", "lat": 60.16315500000000, "lon": 17.60092400000000, "team_id": 2, "available_slots": 5, "bs": 0, "bc": 0, "rs": 0, "rc": 0, "ys": 0, "yc": 0},{"id": "af827b0aa63e498b8c2a691a2050b3ee.16", "url": "http://lh3.googleusercontent.com/ClE25uFYvy2VUK-wUTBH-zvZUqLoRtyeNdRsA8TxkSzWRwWmTVUcfi6Y-oe7IA-xLZrCoeCWkvB_3f3_PItXq5rM1A", "name": "Kvarnbacken", "lat": 60.22155700000000, "lon": 17.69473000000000, "team_id": 3, "available_slots": 5, "bs": 0, "bc": 0, "rs": 0, "rc": 0, "ys": 0, "yc": 0},{"id": "b0110f2c0a50435ebacb47b70e2fb210.16", "url": "http://lh3.googleusercontent.com/GGCUzaEqGoKcvpc_kghdTQHCd4C6Zk6fp0e6_cCA49ThpNiw-5UCXjiD2oxQfGgX856u2SbUSrCOH5Em-mJTAFqWBA", "name": "Borgenkyrkan", "lat": 60.34193900000000, "lon": 17.51267900000000, "team_id": 2, "available_slots": 4, "bs": 0, "bc": 0, "rs": 0, "rc": 0, "ys": 0, "yc": 0},{"id": "b2664b3e69bd498fa755469b82521690.16", "url": "http://lh3.googleusercontent.com/c6SUMpN4-gAWtGQtB1xz2rrVWAzu0mYI6F7CuJ6k5lmdP1KJQE6LUbcEntt1uZWZ2l7DCa9I2yoGgELXjrhWSTJ-XbGs96amA1DN9MlE", "name": "Snatra boulebana", "lat": 60.51144700000000, "lon": 17.66410600000000, "team_id": 3, "available_slots": 2, "bs": 0, "bc": 0, "rs": 0, "rc": 0, "ys": 0, "yc": 0},{"id": "b42c4294e45147c6b6382946af76d0fb.16", "url": "http://lh3.googleusercontent.com/xJBHZopDtmiWGDCDIcWUJZpG8wBkl7U8yaBhM5C2phpucd45kna2SlsLOB_FbtiwncNOtRgi123Afyj_CIvg1wQgsA", "name": "Fotbollsplanen i Ullfors", "lat": 60.26611300000000, "lon": 17.43353800000000, "team_id": 2, "available_slots": 3, "bs": 0, "bc": 0, "rs": 0, "rc": 0, "ys": 0, "yc": 0},{"id": "b6213a17fc2249c1888ff62e829af7f1.16", "url": "http://lh3.googleusercontent.com/Oh38DSO6s13KR04ivz5OyFV57kbrWHbzVbWk1jumRORx1LrloKcrWPSnaCNNK_3rUuwFqJ9AZJuYyPGfJO9SaNp4-AU", "name": "Skulptur Av J&CG Bolinder Stockholm", "lat": 60.40257800000000, "lon": 17.58179800000000, "team_id": 2, "available_slots": 3, "bs": 0, "bc": 0, "rs": 0, "rc": 0, "ys": 0, "yc": 0},{"id": "ba58af4f06a04dad83fbecec7ca466c2.16", "url": "http://lh3.googleusercontent.com/GNzy5EWMeebGMLFDwbXbJcNXnljCgxXGuCV4TzTO1WyCEF9b7b5Zkf24q-Ja8jIOTcl19KHb3aQAqU9s20C_Gaq5aIQ", "name": "Hornbergsgården", "lat": 60.47511300000000, "lon": 17.75513400000000, "team_id": 2, "available_slots": 5, "bs": 0, "bc": 0, "rs": 0, "rc": 0, "ys": 0, "yc": 0},{"id": "bd40a4eebe994aa489e615d37fd421b0.16", "url": "http://lh3.googleusercontent.com/NhWjq7C6rBcXaGcwSFGQUgVYKsefvFA9q2mnFIemUJCh_yiMv4ql8lW9MMNMvD-ysMGoAl9Sti0CAh5EAUPQvo1Hww", "name": "GIII 1782", "lat": 60.27950200000000, "lon": 17.45040100000000, "team_id": 1, "available_slots": 0, "bs": 0, "bc": 0, "rs": 0, "rc": 0, "ys": 0, "yc": 0},{"id": "bdc8373d87cf4b97bd32719c148fe6b0.16", "url": "http://lh3.googleusercontent.com/Orl7Jk-PB9i2cZ2aeiY0S1L37xEzXnUZUVXEeSK9swsdGR_wOk3Kj0n-Rwpf61dl9YGH57uGymL82kchRrY1mS7iJ34", "name": "Västlands Församlingshems Klockstapel", "lat": 60.44780600000000, "lon": 17.61428100000000, "team_id": 3, "available_slots": 3, "bs": 0, "bc": 0, "rs": 0, "rc": 0, "ys": 0, "yc": 0},{"id": "c24f6f59d12c4553a66ddd2551045bb1.16", "url": "http://lh3.googleusercontent.com/v97uUlhqxJsd_Qzm0RAkdkDpt3iuWl9XoBxQElhkeUupSFh0n4VTSYcrE0e3NoeRGqE0UdatgF_-4JgCEpXQtlCkqjLEpY_At78wJcs", "name": "Godsmagasinet Tobo", "lat": 60.25883700000000, "lon": 17.64983600000000, "team_id": 1, "available_slots": 5, "bs": 0, "bc": 0, "rs": 0, "rc": 0, "ys": 0, "yc": 0},{"id": "c264f6f202824731803aabf5356ba6eb.16", "url": "http://lh3.googleusercontent.com/DYM4ZQ3Fhul-8V-M7IOgMzCfXs9zaLOV4sf6tatCK9RGAXseuCUVgFhF_xp8l6o8xbNe3W71vSK5fetyclL_fPhhdtY", "name": "Nathanaelkyrkan", "lat": 60.33827500000000, "lon": 17.51072900000000, "team_id": 2, "available_slots": 5, "bs": 0, "bc": 0, "rs": 0, "rc": 0, "ys": 0, "yc": 0},{"id": "c64025889a7245189cd70206d82532bf.16", "url": "http://lh3.googleusercontent.com/2miKQokl5yxjk3PrQwULJCgfLU4J9eLkh6o56EUkBf5-AvOfO_fsFHKbflrYy6jk5wXeIlIkb7gtVX11dp1g2gbC9-Q", "name": "Church of Husby", "lat": 60.27675500000000, "lon": 17.45306800000000, "team_id": 2, "available_slots": 5, "bs": 0, "bc": 0, "rs": 0, "rc": 0, "ys": 0, "yc": 0},{"id": "c6ef0249a8b449c585e17916c820a524.16", "url": "http://lh3.googleusercontent.com/kldiL3J7j37VeX2-wuAqCdF48Wsimv97pwv9i6S8z99ukOEEPpc30m0ehiGGfI6W1-RpML4FJKauuyJCGP4DqA3ubg", "name": "Wall waves", "lat": 60.34430200000000, "lon": 17.51634100000000, "team_id": 2, "available_slots": 5, "bs": 0, "bc": 0, "rs": 0, "rc": 0, "ys": 0, "yc": 0},{"id": "c7e1f3ad154647639acc6d226f4ae450.16", "url": "http://lh3.googleusercontent.com/bFOsOWJX6YInXkLQJQPFFfcfYWFRdr4ONHtH3l5gCwxHvXiVa36u3Ln_jTtEjHrUEchoIKnaVTwFG0AxYQSLwzcIb1g", "name": "Tegelsmora Bell Tower", "lat": 60.25863800000000, "lon": 17.71687700000000, "team_id": 2, "available_slots": 4, "bs": 0, "bc": 0, "rs": 0, "rc": 0, "ys": 0, "yc": 0},{"id": "c82c8e0e87484857a6d2f3e74a2deefb.16", "url": "http://lh3.googleusercontent.com/NZj4-zCyo_beekNwKkvglffyZAf_Wz5LsDivmCet9NzC6j4vDKl6rrCj8elcznS44hzlb2gG-eUn-kSQwnMvl8mKWkM", "name": "Ladugården", "lat": 60.40749100000000, "lon": 17.88457700000000, "team_id": 3, "available_slots": 0, "bs": 0, "bc": 0, "rs": 0, "rc": 0, "ys": 0, "yc": 0},{"id": "cf68c518033a3393983ae98757ee060a.16", "url": "http://lh3.googleusercontent.com/K6NslpqevKO1ZpSyZisowE03PJzOD6jwmRB4-k85VrwzFHK86G1QSboxm-bHkBeyHjpPkYdTLde-nhbKGpsV6Cl1idTIBCsn6LOGcCYx", "name": "Fontän", "lat": 60.33921600000000, "lon": 17.50767400000000, "team_id": 3, "available_slots": 5, "bs": 0, "bc": 0, "rs": 0, "rc": 0, "ys": 0, "yc": 0},{"id": "d135e2622f0e4922b812a222d21042b1.16", "url": "http://lh3.googleusercontent.com/vR1d2p4-ysP_ZkGvqF09O0ymd2VOn8bzHD8475xNGu8unW1_okGIM6bZNzo3C7UH7vEGvUoVSP6EhUkcPCn1gqXIUMs", "name": "Mumblingshammare", "lat": 60.27495300000000, "lon": 17.43355400000000, "team_id": 1, "available_slots": 4, "bs": 0, "bc": 0, "rs": 0, "rc": 0, "ys": 0, "yc": 0},{"id": "d85124d0cff64a2c8a5a2c6cfb793133.16", "url": "http://lh3.googleusercontent.com/522wDB-7DAQCZppB7BPKFNFfyQpXwPBFRKZF6KFYgzRnHpqC5ka3UqUxYTCBrdZckcarbHBd5PZKwATJIqqG_bCf0jY", "name": "Naturreservat Knaperberget", "lat": 60.25248600000000, "lon": 17.50687800000000, "team_id": 1, "available_slots": 0, "bs": 0, "bc": 0, "rs": 0, "rc": 0, "ys": 0, "yc": 0},{"id": "dabf8431fa3c40aaa0b30e913d945693.16", "url": "http://lh3.googleusercontent.com/SqYN-RGY9cHO3m3oj2DiNNv5LnYittuLqyCe-FzcneDC1HshTr8nlJKTygyJM5NVqcTVputX9jppmxK4BRwu8yGqyA", "name": "Stora Scenen", "lat": 60.34844500000000, "lon": 17.50978300000000, "team_id": 1, "available_slots": 4, "bs": 0, "bc": 0, "rs": 0, "rc": 0, "ys": 0, "yc": 0},{"id": "dc7b793472aa46ac94e18b51d4cb1897.16", "url": "http://lh3.googleusercontent.com/VS_j8375iXhlX7jR0mVUqoZ3HIrUAUWfgyvJ05g4P4arlbHGrJoNplf1Z60q_DQP_dBJZy9z-SSgkhJ-QeUaRhq9iujn", "name": "Klockan På Storgatan I Söderfors", "lat": 60.38385600000000, "lon": 17.23892400000000, "team_id": 3, "available_slots": 4, "bs": 0, "bc": 0, "rs": 0, "rc": 0, "ys": 0, "yc": 0},{"id": "dd33b7b013aa49be9150d68103c2cc16.16", "url": "http://lh3.googleusercontent.com/6YXLT038W71APu8ht2LIRhIdluS6Sh7pb9XrcIPCtq4d0KYUZCF7i-FlHamSugpgSIxNHnAZNSSr8eOZS5U04Hn9wQU", "name": "Fågelsträck vid Rödhäll", "lat": 60.60344900000000, "lon": 17.99017000000000, "team_id": 2, "available_slots": 5, "bs": 0, "bc": 0, "rs": 0, "rc": 0, "ys": 0, "yc": 0},{"id": "dda6b9a4d5863ad9841900cae9bb1117.16", "url": "http://lh3.googleusercontent.com/vjCUADZAE3Gnsmqjd6KEWYZ7ZQrYu3gLMM3UdNELzjIZerO1LJlthnwDIq5te38IAtcRo9U65FwXE_7zr0W6N_Z8NFTKeMZkuvszwaHp", "name": "Esplanadens anslagstavla", "lat": 60.34752500000000, "lon": 17.51998600000000, "team_id": 2, "available_slots": 3, "bs": 0, "bc": 0, "rs": 0, "rc": 0, "ys": 0, "yc": 0},{"id": "e7191b6e55e6407698bc1625b529cfcb.16", "url": "http://lh3.googleusercontent.com/4YAKq12ZYAP35mg8QO3N8moOykP25duiY1KYdWjpNR8eqJPjKBwE-AvVmk_fwJRoZbdXVsS_S8-69NifaN2ElWnIep4", "name": "Lekparken", "lat": 60.35480900000000, "lon": 17.51710200000000, "team_id": 2, "available_slots": 3, "bs": 0, "bc": 0, "rs": 0, "rc": 0, "ys": 0, "yc": 0},{"id": "ebd40cbcb46947eda3cae305ecb9f497.16", "url": "http://lh3.googleusercontent.com/moLhlnIdsDpD-xSFRS9pwgAVzysqdi_lz_6D0kHFNrzKl1zjiWOEBOqgD12TEcdGVbMfivLff1h2wlSDNa1h4Hj2mVE", "name": "Österlövsta Kyrka", "lat": 60.43643700000000, "lon": 17.77804000000000, "team_id": 1, "available_slots": 4, "bs": 0, "bc": 0, "rs": 0, "rc": 0, "ys": 0, "yc": 0},{"id": "f0de3330c1414cd8853a4be2b9d3629b.16", "url": "http://lh3.googleusercontent.com/XfcVkXhmBkHXzIkgKphm5KxgyrU5m-tpJGzf2wJr35tSA9-kbDGM0_Xzi3OW_40y3r5MdpEEhY0VBIyWVixNJWhSIXE", "name": "Naturreservat Björns skärgård", "lat": 60.59883700000000, "lon": 17.93333200000000, "team_id": 1, "available_slots": 3, "bs": 0, "bc": 0, "rs": 0, "rc": 0, "ys": 0, "yc": 0},{"id": "f36ad933fcd2480ea99473df5a655baf.16", "url": "http://lh3.googleusercontent.com/bWj0M_RLzwHYN-fMXLTXA013sFaEpVwkJd5CCVlQ930tzL-z8FIk7AzflE6JG6o-9exBuT5A7eUDiEtHeBT21vvVU-Y", "name": "Lingnåre", "lat": 60.53567300000000, "lon": 17.83468700000000, "team_id": 2, "available_slots": 5, "bs": 0, "bc": 0, "rs": 0, "rc": 0, "ys": 0, "yc": 0},{"id": "f477d02cd73d4f378cb3a7e33ae2e15a.16", "url": "http://lh3.googleusercontent.com/ZLXvZdLbmHan2EyFCFfnyAF4j5Y_-FOE3o9m85yhQgadBNp34WnR1ytzh1akmQ2axo12R67wbnVbOu4IY5c8Fl2wmA", "name": "Solstenen", "lat": 60.40846200000000, "lon": 17.87726400000000, "team_id": 2, "available_slots": 5, "bs": 0, "bc": 0, "rs": 0, "rc": 0, "ys": 0, "yc": 0},{"id": "f512ad3612fa4550ab65d3cddead2d4c.16", "url": "http://lh3.googleusercontent.com/xsm5OPudaEa852LUYDxSvuLABpWiQUNyn8t6xRTbCt7J6CWQGxbQ3kRkexUak8MFEqFiDNwnAlAFNG5zBgngk6wwm4M", "name": "Hinderbana", "lat": 60.35499000000000, "lon": 17.50576600000000, "team_id": 3, "available_slots": 5, "bs": 0, "bc": 0, "rs": 0, "rc": 0, "ys": 0, "yc": 0},{"id": "f83c2ed29e5b4defa6350ece4a97b0a6.16", "url": "http://lh3.googleusercontent.com/G7bNY5jfvytU9y2_NuMuFvI3Wz8QZqK6LcFZ0ACaOLARA5F94gzDo4fTQgszfK7whAAudvHPiAMkbxV4rWM6sjpFx2Ei", "name": "Lekparken: Havet", "lat": 60.35354900000000, "lon": 17.52463100000000, "team_id": 1, "available_slots": 5, "bs": 0, "bc": 0, "rs": 0, "rc": 0, "ys": 0, "yc": 0},{"id": "f8eaa987873944869ebfa799bf52a2df.16", "url": "http://lh3.googleusercontent.com/2W-_pRn-YJqY8XtnfgOxEhR206eZYkMksH78rXPlfQie1bxZWPHM0BKC_NfbC4v5Ml9iUiGqzJKKZqefGoc4oL9KY4Q", "name": "Örbyhus Station", "lat": 60.22887000000000, "lon": 17.70461400000000, "team_id": 2, "available_slots": 3, "bs": 0, "bc": 0, "rs": 0, "rc": 0, "ys": 0, "yc": 0},{"id": "f9be8a5fbaa535d39d9fe04fa8bb0527.16", "url": "http://lh3.googleusercontent.com/TqYeQY4okpI_FatTpq209CJ9rvgdQl0zwCWWeYNBmyLTFwizFcVNReo4Bi4y0ZNcYKlC379xfrSIQedV7eOi84cm8uqzPi025fo1670oHg", "name": "Djupöbadet grillplats", "lat": 60.53937900000000, "lon": 17.62335100000000, "team_id": 3, "available_slots": 2, "bs": 0, "bc": 0, "rs": 0, "rc": 0, "ys": 0, "yc": 0},{"id": "fd3ac3cf7abc491aaedace24f65bbbcc.16", "url": "http://lh3.googleusercontent.com/2bY0WPAlJTwEXDrvknBFVdNsQb_j5_Q4wnbuLWkWWGd0N0V7-mYWXeBhr6exvXt-jsGopH2R8q9czkvxa6IqLf7ZEMk0", "name": "Söderfors Vattentorn", "lat": 60.39210800000000, "lon": 17.23841800000000, "team_id": 3, "available_slots": 3, "bs": 0, "bc": 0, "rs": 0, "rc": 0, "ys": 0, "yc": 0},{"id": "fdf7a218fe264d648426edcf6613cc67.16", "url": "http://lh3.googleusercontent.com/mKsfmzUDnYLcoEum32m0vp65G2Wdg8ZEXJqRvkPsg0o53ubzS80E9pQQ2ZPNEeN0xdJCfs55x77ST4rSgRWnQ9dS_C8", "name": "Tierps Vattentorn", "lat": 60.34804100000000, "lon": 17.51082200000000, "team_id": 1, "available_slots": 5, "bs": 0, "bc": 0, "rs": 0, "rc": 0, "ys": 0, "yc": 0}]
