[{"id": "0032854124ef4e4eb2b39311b268c628.16", "url": "https://lh3.googleusercontent.com/gz_CXObpJu8lD_hCLTomHo1lXzug26tupTTj9qle8iID-CXNpFORETVuvhkiRrgQ7qeskSLdU4uy0--P1H25h9WDBno", "name": "Sustainable playground", "lat": 59.23842100000000, "lon": 18.21704500000000, "team_id": 1, "available_slots": 5, "bs": 97, "bc": 60, "rs": 40, "rc": 53, "ys": 44, "yc": 41},{"id": "0089aac78cd244b0a7e47cebb5fc8e7f.16", "url": "https://lh3.googleusercontent.com/TtiWPmdz20SaBXgoGJrutoPnpxNVm0Cq8MU_IoZ8Mphax5BA50wm7MXa9LflLsbYGnbT6cMV_u3XmeUmqJLEiswpLhQ", "name": "Gul Katt", "lat": 59.24349300000000, "lon": 18.22096400000000, "team_id": 2, "available_slots": 0, "bs": 34, "bc": 85, "rs": 35, "rc": 130, "ys": 22, "yc": 109},{"id": "017b67c4acff4a7d8ef6f5103aa08e78.16", "url": "https://lh3.googleusercontent.com/jW5QEGKklo5myxQLimk1JSY12vRdxM0rQHHuJv4ml9L3H5Dg8Pco3coNs-TGs8fN6-1C8ViUHYAIZpxSpT9Cp6jGslw", "name": "Frogs in Långkärr", "lat": 59.23247900000000, "lon": 18.22065100000000, "team_id": 3, "available_slots": 5, "bs": 36, "bc": 37, "rs": 36, "rc": 26, "ys": 97, "yc": 43},{"id": "07a0fb0c601e33bbb6f5fafc6eb80b0f.16", "url": "https://lh3.googleusercontent.com/rwDDiERr7VGXzWlf23pT3JukPVufPapG7bXEiKejkBuPuCQ7qtr7BN-hr5gyFW5pMDsj13UUr-_lp_x5pz_N4FWeVfw", "name": "Linde Samfällighet", "lat": 59.21240200000000, "lon": 18.20916700000000, "team_id": 1, "available_slots": 0, "bs": 64, "bc": 61, "rs": 57, "rc": 72, "ys": 44, "yc": 39},{"id": "08cc4e1bd1f946cdb65ba256ff4b188e.11", "url": "https://lh3.googleusercontent.com/1dDpL1aibSaczKi2zRMuhVazoq2y25buUz140naYx2tTjOpiGC8fnAmcy0NlgL3cBr6j_DRuaT2EOOrX-uuTSJYlhoCL", "name": "Sea Sign in Tyresö", "lat": 59.24745800000000, "lon": 18.24805200000000, "team_id": 2, "available_slots": 1, "bs": 38, "bc": 65, "rs": 36, "rc": 74, "ys": 47, "yc": 94},{"id": "0b6667a8c11c4433866c7c4bf8096f7b.16", "url": "https://lh3.googleusercontent.com/k88ChxF1LmEyPU9M6mjQQPgP1qpBNZQckfYuWA1nVxEy26NHIJ9tfq5ByIpIV32KA2WW-GNqJDDWKjIBBK3MM0K7dw", "name": "Tyresta nationalpark", "lat": 59.20566600000000, "lon": 18.31718700000000, "team_id": 1, "available_slots": 4, "bs": 0, "bc": 0, "rs": 0, "rc": 0, "ys": 0, "yc": 0},{"id": "1138d94292164dd5a8c814d8220d853b.16", "url": "https://lh3.googleusercontent.com/zYzoG4wS6WjpJoPuXX036BADnFBsvVdISl7z-lAIeVFSTRcRrRhTrIRU-J1vUllVHHD1Ar8iLja3vfm_08lHv_0-5oFM", "name": "Basilikagrändens lekfort", "lat": 59.23140600000000, "lon": 18.22875800000000, "team_id": 1, "available_slots": 1, "bs": 38, "bc": 104, "rs": 41, "rc": 92, "ys": 34, "yc": 62},{"id": "13077f5ac3a64e76b923ab86b3c4acb3.16", "url": "https://lh3.googleusercontent.com/QaUOGZl04G17p0RTxkP5HpNgEycAmAvwO4PvvO1EUmb9Xa17tm_QZfVOhA-z8POtInjLEYBuuPPAB-UUyxJPCTdlQWII", "name": "Climb Station", "lat": 59.23547600000000, "lon": 18.24357900000000, "team_id": 1, "available_slots": 5, "bs": 44, "bc": 81, "rs": 54, "rc": 80, "ys": 38, "yc": 52},{"id": "168bfe6425894a71bfd223a8cf1cd00c.16", "url": "https://lh3.googleusercontent.com/L7fNwaFT-H_Ubndd37Q_mJg0zlIhwmYgZBrUmEWqQpXEAfco8WC-s_H8wUF-rTybUbQ_3wL3gEjjmwCaZ_o_nVFviQ", "name": "Vardagens Poesi", "lat": 59.24191200000000, "lon": 18.28421400000000, "team_id": 2, "available_slots": 0, "bs": 24, "bc": 130, "rs": 31, "rc": 164, "ys": 14, "yc": 117},{"id": "17d21db4a02d4fe382aaa1889f8c8863.16", "url": "https://lh3.googleusercontent.com/WriNAdbM1oTvqIzbkXGwzh4tB166O2egoxb8gnuIzfSnFb8eju4vUvKy7BdyMowWwiZgbSD42kD-BrCOh1NTuOdThWqL", "name": "Saturnus", "lat": 59.24341900000000, "lon": 18.20891900000000, "team_id": 1, "available_slots": 5, "bs": 50, "bc": 66, "rs": 56, "rc": 87, "ys": 31, "yc": 55},{"id": "1a333023c26a493c85d0bbd14770b439.16", "url": "https://lh3.googleusercontent.com/Tv-td_PtL0-orO0-x5MLz5Cg2tMho-0N-yFnC7AcYN9Xlhba0ERGhLYZ75nHvb3LmlIVNGr29dXxq85NE1ETK6UM8zE", "name": "Strandbadet", "lat": 59.25533000000000, "lon": 18.27851500000000, "team_id": 2, "available_slots": 5, "bs": 48, "bc": 50, "rs": 73, "rc": 61, "ys": 63, "yc": 45},{"id": "1b37a9bbc2bf4da190cafcf35908ee41.16", "url": "https://lh3.googleusercontent.com/wUoM-zBszAyXXaYWdWYtdp5k3UeCYrgvKOHkYISuTbKHtGOrHPkdHaOUKz0bDMB_HnKkRSkdf-BX86rI3EIQvfsox1U", "name": "Trinntorps Lekborg", "lat": 59.22798400000000, "lon": 18.35643100000000, "team_id": 1, "available_slots": 5, "bs": 0, "bc": 0, "rs": 0, "rc": 0, "ys": 0, "yc": 0},{"id": "1bc8044dfbe63979ac0a9b472992459e.16", "url": "https://lh3.googleusercontent.com/ymzGqCl7Jczh8hfq6AQUtKVaIHH4WPqy_Ofg2gznlLkILGMdE-Gy2NRC0vIy6IsEc6YZR2sBcV4lW2v_68wdZxoxCOX3R6vuqN8ZLdi5Ng", "name": "Anslagstavla vid Breviksbadet", "lat": 59.20911800000000, "lon": 18.39256300000000, "team_id": 3, "available_slots": 1, "bs": 0, "bc": 0, "rs": 0, "rc": 0, "ys": 0, "yc": 0},{"id": "1bee3959dc724746a28b113dbd0348e1.16", "url": "https://lh3.googleusercontent.com/NdzJwvcHKhQuys9vzXlhpo6RQaUhfil4DbUFKV1uMqrW7vDW0DUEhRLn3wEGAmSkx55u41-UlMyHsAUxzALD78Q2Dq1L0pSZzIVmqf4", "name": "Safirgångens lekplats", "lat": 59.24779400000000, "lon": 18.25687800000000, "team_id": 3, "available_slots": 5, "bs": 88, "bc": 95, "rs": 11, "rc": 48, "ys": 16, "yc": 60},{"id": "2092609ce8d94c20b0c406c2c0640517.16", "url": "https://lh3.googleusercontent.com/Mor_rQ_6EpRtU27h2ZQ9RPsFkVcr_EWz_fu2V5a5GWT7bbyD6Y2Zrs1gDjKhxu8pU1b3iP8uQv-7c8sxo1zwoGIN96XA", "name": "Stenägg", "lat": 59.21923000000000, "lon": 18.19212100000000, "team_id": 2, "available_slots": 4, "bs": 55, "bc": 106, "rs": 25, "rc": 101, "ys": 21, "yc": 69},{"id": "281b301ceddf37e6a2065deac0d5dde3.16", "url": "https://lh3.googleusercontent.com/slEvYmCUR06wf9OYDG_j7QLOOeSKhrSutfF4M5LLadRaGGwpLDevjtdfoosogNRKsoSzp3VTojBk4ah1thz21PcN5DTCTUr218AbbpTx", "name": "Välkommen till Telegrafberget", "lat": 59.21035500000000, "lon": 18.37162700000000, "team_id": 1, "available_slots": 4, "bs": 0, "bc": 0, "rs": 0, "rc": 0, "ys": 0, "yc": 0},{"id": "2a3b1d3da6d04ca38a0f10667a219423.16", "url": "https://lh3.googleusercontent.com/bUJ63QGSXTH_iM1xWuKuBW9DuYS2iVeS9uRRN_N3xTXWikIgDbyQjgptNA5Dz3_y8zcUnvrCj68kuANE8-WBhGTMvZw", "name": "Solvikens lekplats", "lat": 59.23055200000000, "lon": 18.19478900000000, "team_id": 1, "available_slots": 5, "bs": 90, "bc": 67, "rs": 38, "rc": 56, "ys": 37, "yc": 37},{"id": "2b1a778d821e4c9cbc4f563db911b491.16", "url": "https://lh3.googleusercontent.com/36hS_v8r1Oa01jdxIlvNQcC2O--wiuIvfi5FelgzeEZhXg1bJfMq3_4I0J6F139diWYSpPpgLPZwQPpUWuVSwZMRdQ", "name": "Ingång Till Tyresta Nationalpark", "lat": 59.20390800000000, "lon": 18.26494600000000, "team_id": 2, "available_slots": 3, "bs": 0, "bc": 0, "rs": 0, "rc": 0, "ys": 0, "yc": 0},{"id": "2ca95f5d7d64494fa7838e0c65c9162d.16", "url": "https://lh3.googleusercontent.com/VWjcJ7_VF-mP23AI8de19Gw9FkJc1kP4XiWM0Re9rGy2O5Tjpb6gNVMFLmn-n1nwUXSWnXMmrik1KauJu4D7Ze-HMfUKzMjMgfAznPs", "name": "Lekplats på Musserongången", "lat": 59.22695000000000, "lon": 18.25181600000000, "team_id": 3, "available_slots": 3, "bs": 14, "bc": 109, "rs": 13, "rc": 134, "ys": 32, "yc": 202},{"id": "2e025c6396d941f3b0042f6bb0b81f58.16", "url": "https://lh3.googleusercontent.com/jtiIr4L0lm_TOKDFnun3QGeeEiY2finECYmDLaBbz0eApZMArwEcT6vE0-XjoNsrKqpfXxmKUvqvMWVC3tv2tliWG0Y", "name": "Trollbäcken Klockstapel", "lat": 59.22167200000000, "lon": 18.20352800000000, "team_id": 1, "available_slots": 0, "bs": 32, "bc": 115, "rs": 39, "rc": 122, "ys": 19, "yc": 65},{"id": "2f7191ce69b1441a9e083258efd9d263.16", "url": "https://lh3.googleusercontent.com/7IRWLS8ZHysZev1l3f9JOYXMo-4u-kemTSP4KWgEGQu5pXkZO3I4D9tMWA-I30dvCp0xqcK9-CZxY0E8RZx4N5CiefQ", "name": "Maskpar", "lat": 59.23748500000000, "lon": 18.22727100000000, "team_id": 3, "available_slots": 5, "bs": 26, "bc": 144, "rs": 25, "rc": 86, "ys": 37, "yc": 106},{"id": "2fd0ccd3ff873c4da5515bc8c615b288.16", "url": "https://lh3.googleusercontent.com/vDkFlbEr5KThMFjdX9zJg_kE5j1J6885rGjAxVb-NoBnS-u2gbuH1NTKxVC-CyLiVLI4fzAiZHAYx3Ko1njBT4pjCadK-x6o7ovDONE", "name": "Uddbyfallet", "lat": 59.22483900000000, "lon": 18.30308400000000, "team_id": 3, "available_slots": 3, "bs": 84, "bc": 16, "rs": 108, "rc": 14, "ys": 146, "yc": 21},{"id": "3066d99651544a468089625c035472da.16", "url": "https://lh3.googleusercontent.com/kDY-gqKy8qF8dv7MpM4UBBozGu6E1sV1UJM20QZZdhFvVCDTUprXO4QY6jSQbn5eaI0xJVKbw_k9z_MnS25XyIF0ylU", "name": "stor gunga", "lat": 59.24585300000000, "lon": 18.26554400000000, "team_id": 0, "available_slots": 6, "bs": 138, "bc": 37, "rs": 65, "rc": 20, "ys": 105, "yc": 31},{"id": "31871e20c0a5379093c7f823d4b84f5d.16", "url": "https://lh3.googleusercontent.com/_U0M25XSV0sN0PWLqkHy8Wm2yVpYOaDYJhZzbypWEhpDzkp1KwuZGB6B7oQ5Kazt-XB4Bv8-QWAx8xuZrXkkJlsLQ5VqWXU7jECh0m10", "name": null, "lat": 59.22129500000000, "lon": 18.34327500000000, "team_id": 1, "available_slots": 4, "bs": 0, "bc": 0, "rs": 0, "rc": 0, "ys": 0, "yc": 0},{"id": "34c8b7860a384eb3b8943478c2ef26bf.11", "url": "https://lh3.googleusercontent.com/fHb_Vffn1OPa1f-2GRaq36moE5Urk-JVvR0L0s59ruS9LeguQ57dyxuerBwwavumvH-vv6ijh-0MoNpNqUK9sbXCSlw", "name": "Pingstkyrkan Tyresö", "lat": 59.24455000000000, "lon": 18.19719000000000, "team_id": 2, "available_slots": 4, "bs": 143, "bc": 20, "rs": 400, "rc": 16, "ys": 37, "yc": 12},{"id": "364138a215b047b3be5427d1a34a9753.16", "url": "https://lh3.googleusercontent.com/YiK4q7C5A9d-cmic_QhdxB3fZ0spnjzUNhQLoV9buK_WHYVBKijVC_gR2Xl_oKiEPXmKzZd1c8E3Zh-BnbDjvTaGaAxob4TeF6e1669P", "name": "Vattnets Kraft", "lat": 59.22370100000000, "lon": 18.26699100000000, "team_id": 3, "available_slots": 2, "bs": 127, "bc": 33, "rs": 77, "rc": 16, "ys": 139, "yc": 31},{"id": "366557bf6421441ea147a2db5b8e502b.16", "url": "https://lh3.googleusercontent.com/-lbGG_XnbMZTdfbRq9aMt54D6r8h8NjvExHgOfR6C3seehiBJcQHUNCbRBgvfOSZn6U9BzSMjBFg5Lj5tAuLrEaFhbc", "name": "Humlebar", "lat": 59.23036600000000, "lon": 18.26990000000000, "team_id": 1, "available_slots": 5, "bs": 104, "bc": 54, "rs": 35, "rc": 43, "ys": 55, "yc": 50},{"id": "369c9fb3b6193e66a106670770bb1fc6.16", "url": "https://lh3.googleusercontent.com/aNy-xA2XSiJq11ndg0NLbCEBvRRmsuG67aOybBFlzpaBjO5G6oLKasIBFmVFXya6aL1o_Frc-D-rabZQEknX6UYujKk", "name": "Brf Gudöterrassen", "lat": 59.21112400000000, "lon": 18.20752700000000, "team_id": 1, "available_slots": 1, "bs": 52, "bc": 128, "rs": 24, "rc": 100, "ys": 19, "yc": 41},{"id": "401c7c1793bf3ec5a541907a4bfae5db.16", "url": "https://lh3.googleusercontent.com/zDCOqGdzjxTnWASuPTnSbg8Zer4MNDo5IubRj1xbxMNMTHEEkZinzFPR0CQzNWDoX29L3t_-Kv3JbjISujD167QC_9Rcn8U9ESm02__zUA", "name": "Styvnäset", "lat": 59.17404400000000, "lon": 18.39910100000000, "team_id": 3, "available_slots": 5, "bs": 0, "bc": 0, "rs": 0, "rc": 0, "ys": 0, "yc": 0},{"id": "42e414c67255410090000b424ecf626e.16", "url": "https://lh3.googleusercontent.com/7ZUPjG4OlJN3H_fx53DGw5NVPwip76GZrdA6kYFnh_de7K5Njx1jHgaL9B5_8rzCrnDLhL3TgWJ4t0-Ur8RgYrSY4pM", "name": "Blå Stuga", "lat": 59.22876100000000, "lon": 18.25844400000000, "team_id": 1, "available_slots": 3, "bs": 82, "bc": 84, "rs": 32, "rc": 67, "ys": 20, "yc": 40},{"id": "439f3f1e80d94bb58b1919264f21d343.16", "url": "https://lh3.googleusercontent.com/gZBubMGG4Ih9uL8vsnMndlqtwL3Eyvny2uPaFck59UTi1h6Htnng4WOZZJmfFGll88wF_AvRSUnb3feA7zzN4pVxNbo", "name": "Agatgångens lekplats", "lat": 59.24856000000000, "lon": 18.25230900000000, "team_id": 3, "available_slots": 4, "bs": 32, "bc": 109, "rs": 29, "rc": 24, "ys": 49, "yc": 113},{"id": "450a05c4e31d4dec9f8bb187bfff14ee.16", "url": "https://lh3.googleusercontent.com/2Ikar7Qh9HRXB9f0Wz8hiKZ_S1uQ9wlAbbNVScmpks7ywBvr9_K-45SKrq2AXlWcWRkFAf5kQR7vKg7TnOK3Io8t2pE", "name": "Trollbäckens Bibliotek", "lat": 59.22190200000000, "lon": 18.20422300000000, "team_id": 1, "available_slots": 0, "bs": 26, "bc": 124, "rs": 35, "rc": 137, "ys": 27, "yc": 67},{"id": "461cf5843e2b4d1c8741ccd35b976b99.16", "url": "https://lh3.googleusercontent.com/f6Mvdubx2RzJYRXjeg3MHaBJ-S53vQiBv_TGJV1O2bzh-CeGBzsCgncLMF9NpYRCGszJSJuOnhCwoSMWfguFQMhX8A", "name": "Lekplats traktorvägen", "lat": 59.23999500000000, "lon": 18.23947000000000, "team_id": 1, "available_slots": 5, "bs": 43, "bc": 88, "rs": 60, "rc": 91, "ys": 29, "yc": 22},{"id": "46cc2b70832b4e5d9c8e7cb2c49610d9.16", "url": "https://lh3.googleusercontent.com/KM_-rNzyoolRKphOI3NKp-sXpOquVD_h8s-t9Uezz6UiaDGWYLApvkwftOum0kkMJ0lztuSQrjIWX140f289fJm5DZRV", "name": "Tyresö strandbads lekplats", "lat": 59.25523800000000, "lon": 18.27946900000000, "team_id": 2, "available_slots": 4, "bs": 108, "bc": 10, "rs": 85, "rc": 10, "ys": 95, "yc": 11},{"id": "48c0ecb134ef487a9aba22547ce6ffe2.16", "url": "https://lh3.googleusercontent.com/gDRIVST4G0gLDTRhVsS881wUk-qTvFL8e_p7lWxac1cIBGADKmx_hyfNh83Wn2H7SkZwnXDAzGo5yTH0HcXnExpaXA", "name": "Elevated sandbox", "lat": 59.23564500000000, "lon": 18.24782500000000, "team_id": 3, "available_slots": 5, "bs": 57, "bc": 133, "rs": 12, "rc": 62, "ys": 16, "yc": 96},{"id": "497478407091425b985314d13ec6763d.16", "url": "https://lh3.googleusercontent.com/3t3tU17Pw8eJ5PHwQ4fkLY0mXn7jrmeeSHy6MRJmHreWg3Fj0Wl-xFBBEmVlUBgcI7l2JPKxcOH2zQlpt3xBVCfwImw", "name": "Frisbeegolf No 2", "lat": 59.22885100000000, "lon": 18.27472000000000, "team_id": 3, "available_slots": 3, "bs": 147, "bc": 32, "rs": 82, "rc": 18, "ys": 137, "yc": 25},{"id": "515711902ab6424b867560c936c68604.16", "url": "https://lh3.googleusercontent.com/KdOGaT35C6DwUVYDxZ5TnfKMHAMCtzvzKlsfmSgsQvMoWHrbl4ugtyAC9_MhfdePoWJIr0Dug_fN8ZbEQXlEfx6x7g", "name": "Brandljud - Ett tecken från förr", "lat": 59.18534900000000, "lon": 18.31754600000000, "team_id": 1, "available_slots": 5, "bs": 0, "bc": 0, "rs": 0, "rc": 0, "ys": 0, "yc": 0},{"id": "52937dfbfc2a4e609973a83e4e56364e.16", "url": "https://lh3.googleusercontent.com/rZlKBOHtid2jSjOk_C6XnLW4HmoEkOMnw8Qe3ExHLGohkE-8UHclOh2W6N-J7JDdA1yZDnAEZA0FnwiUYNGkVz8eXpE", "name": "Långsjöfortet", "lat": 59.21773900000000, "lon": 18.23814000000000, "team_id": 1, "available_slots": 4, "bs": 173, "bc": 30, "rs": 142, "rc": 29, "ys": 46, "yc": 8},{"id": "54263aebd063402e982c01de2d97b0a8.16", "url": "https://lh3.googleusercontent.com/YUzWcfVwSdtxNW70u97LyFD8VdZBgQur4rrgYi3QJGqT_ctGuM5egvKlnQaqtKivU94OEv0mSlt6t2M_OiMBb6Tbqw", "name": "Våtmarksanläggning Kolardammen", "lat": 59.24293000000000, "lon": 18.25915700000000, "team_id": 2, "available_slots": 5, "bs": 61, "bc": 88, "rs": 30, "rc": 55, "ys": 37, "yc": 74},{"id": "551147dcca544831a31e4f44300b10ce.16", "url": "https://lh3.googleusercontent.com/nwFt21H0edyYG7ynUbzX5arHAYl8ws_RLaZQ9Ke_0RYRZS5-JaoUcq_vyJIFi71MJP2XFrvHG8vZPaJOGaqgzSQtZ0M", "name": "Bergalidsparken", "lat": 59.22448600000000, "lon": 18.22821300000000, "team_id": 3, "available_slots": 2, "bs": 22, "bc": 65, "rs": 14, "rc": 209, "ys": 25, "yc": 217},{"id": "55839f118aec4302b57d2feb9b19acc4.16", "url": "https://lh3.googleusercontent.com/Q65QMTTaMg44rkD8xbIyEkuhDUhgn8r-6f4ecX_vRWYQwsNI6Atyrp9XlETh53phG6jcWdVk1GQxozch0FyWC6_r7KlPaFLCCTDj8GE", "name": "Ökenpärlan", "lat": 59.23504400000000, "lon": 18.30602400000000, "team_id": 2, "available_slots": 5, "bs": 112, "bc": 45, "rs": 74, "rc": 36, "ys": 67, "yc": 31},{"id": "55eb7dce51de4d1baa09c1ffbc4f583f.11", "url": "https://lh3.googleusercontent.com/q5Qk43Vii18pOvOTOVTJBaaLiBkHbuyCW3v-eESVkclK9VjpG_yX0KzOlFJ2BcRsvggonF5xclA-rDGGLUGqqY8O-7EfgpyVHVsGv4F6", "name": "Tyresö Slott", "lat": 59.23536600000000, "lon": 18.30437400000000, "team_id": 1, "available_slots": 5, "bs": 58, "bc": 75, "rs": 62, "rc": 65, "ys": 28, "yc": 49},{"id": "5844ee3e2d00437090e00687246318b4.16", "url": "https://lh3.googleusercontent.com/0zCTZH8YOKPw9lA4meDudf6vcShJFMhLQk-wsw-MhdymQ97pLvy3-vG0PzY-lAcIhjtLu5lq0cTvIWXtoa14jTCVVA5V", "name": "Sausage Line1", "lat": 59.21536200000000, "lon": 18.22105700000000, "team_id": 1, "available_slots": 5, "bs": 88, "bc": 44, "rs": 135, "rc": 44, "ys": 20, "yc": 1},{"id": "586f09e798994247abf0efdb4e8d23c1.16", "url": "https://lh3.googleusercontent.com/Sxp1ndzoRB9PYq5ZMtgNOc1d3W78RN4G9RGS4c_VEpmfvUiurExbKa0zsLm2mFtt3iqlBuQmNu-PK3nCkqc", "name": "Multisport", "lat": 59.23309700000000, "lon": 18.23597800000000, "team_id": 1, "available_slots": 0, "bs": 74, "bc": 74, "rs": 33, "rc": 52, "ys": 49, "yc": 49},{"id": "58ad17e51bb94878b6a0fdbce2b9c5fa.16", "url": "https://lh3.googleusercontent.com/SSc67T4a_HLM32gRuFFt4m-t8llveLUUbkXlXsbf9oEurlNBCzzVX7w2ZA8OBf5AC1ZjUfFKDdJdYF0HXukGAL2hWQ", "name": "Trädgårdsvägens fotbollsplan", "lat": 59.21428900000000, "lon": 18.20034200000000, "team_id": 1, "available_slots": 3, "bs": 33, "bc": 23, "rs": 151, "rc": 49, "ys": 42, "yc": 36},{"id": "59e1b023f005495dad758ad785ddd001.16", "url": "https://lh3.googleusercontent.com/80VfCxamhdorsqpVy3Sgn1ZkrzNRQ9hz8H27Y78OdKGf3iu_OVvORap19SUSJonnX7gr4xNsN11YDx3FNx-1daCJ_OY", "name": "Fontanahallen", "lat": 59.22523700000000, "lon": 18.21983300000000, "team_id": 3, "available_slots": 0, "bs": 45, "bc": 136, "rs": 17, "rc": 123, "ys": 18, "yc": 88},{"id": "5a7d760bd0a44285b5526f0c517569da.16", "url": "https://lh3.googleusercontent.com/_bUzsFbcqGV83t74WJAmdGXJ1OA2FQYxnzGMA5Mfxw8D4Ms3gRU9xzniMoA6UNor-CaeWO0Y-tZUbwo0H1araic_ng", "name": "Skulptur av Harry Modin", "lat": 59.23553700000000, "lon": 18.22819800000000, "team_id": 2, "available_slots": 4, "bs": 44, "bc": 130, "rs": 15, "rc": 48, "ys": 27, "yc": 123},{"id": "5e21a293e5213b298907a7002c154728.16", "url": "https://lh3.googleusercontent.com/ke2NSNoy2SjklNWSRFt-h3ES7nBWei0TwpCbTg7fdfXsQxBqZb2UTAO8BwNmTmZ0SnAJcFaa-6PtyU9KQue2gRKs6WpkoGCcbhQDXM8QlA", "name": "Fårdala samfällighet", "lat": 59.24213900000000, "lon": 18.24136100000000, "team_id": 2, "available_slots": 5, "bs": 31, "bc": 22, "rs": 29, "rc": 6, "ys": 23, "yc": 19},{"id": "5f12fdec277247e089344fec129fdaa8.16", "url": "https://lh3.googleusercontent.com/plqnlILfTxSLxtGFi-E1wumfkZ2PEp0MgsXtZjwm60czGeRRf8nWxeppwgRqp2lf2ZoDmk8WzA58-Xl6BkfCobA7sUM", "name": "Mural", "lat": 59.24357800000000, "lon": 18.23038900000000, "team_id": 1, "available_slots": 0, "bs": 32, "bc": 160, "rs": 26, "rc": 108, "ys": 17, "yc": 108},{"id": "5f20bb11057e4652944f9931a1839de7.16", "url": "https://lh3.googleusercontent.com/tsGOpZAwMVrUglgpdRO3vOZR3OqQLgzo_KKuhgjR7eEyPu0Q3r9BqvcFYyMOfyG83kVh2TMHw6sGmYf75aoAvApxhdwi", "name": "Groddammar", "lat": 59.23326500000000, "lon": 18.26348500000000, "team_id": 1, "available_slots": 2, "bs": 78, "bc": 39, "rs": 32, "rc": 26, "ys": 129, "yc": 46},{"id": "6175dd43a4b335bea2c0f4db1376628e.16", "url": "https://lh3.googleusercontent.com/rML-M3-3b5LdRdtwcu8W3Hx0Ui3ytWZtqtUVEHsY8iEMTaYahOiuN94dcu4iuiQT2JOaGIuo7fT6qtsT7B5YiY1WypOoRUEOVMt0CC5A", "name": "Det stilla vattnet", "lat": 59.23170300000000, "lon": 18.29607000000000, "team_id": 3, "available_slots": 1, "bs": 49, "bc": 38, "rs": 45, "rc": 25, "ys": 94, "yc": 33},{"id": "6282d7cf37803ef68c98a54c0dd837fb.16", "url": "https://lh3.googleusercontent.com/_wmUj46KgR_Pksc4V9_thp8ukmBi9lSHlHdl4qfcnlhBmyGLAePb_KdA48JK3ApZp1m_zjp9aylunXCj0bgfQkaVLuc", "name": "Träbro till Albysjön runt", "lat": 59.21941400000000, "lon": 18.27831900000000, "team_id": 1, "available_slots": 4, "bs": 202, "bc": 7, "rs": 147, "rc": 6, "ys": 601, "yc": 12},{"id": "6324cf2e74374a0ba79c9674c2c48cd4.16", "url": "https://lh3.googleusercontent.com/Lcgmm-IyunAIz11xfjCopcv99qFFeKiMIoQN3mRNOapoxudVZPo2Cv6Mb2vDZyDPGUDWs7JTxiatTptYBnjNQbNp5A", "name": "borg med klättring", "lat": 59.24434600000000, "lon": 18.23927400000000, "team_id": 3, "available_slots": 1, "bs": 48, "bc": 83, "rs": 27, "rc": 42, "ys": 51, "yc": 92},{"id": "6447c2ff60d931ad868a9b0e2465aeb1.16", "url": "https://lh3.googleusercontent.com/YrV1H6GahebBa_m41hvnj0IBq45KowDsk_XRq_xZ0baHeI4dMNm7TJHqopN-oeIIXMgaKAmG8bGKeHbvWhGU98i5vMEb9iC0PftKjh1icg", "name": "Spårmarkör, Kristinavandringen", "lat": 59.21545400000000, "lon": 18.26264200000000, "team_id": 3, "available_slots": 5, "bs": 211, "bc": 27, "rs": 85, "rc": 9, "ys": 119, "yc": 23},{"id": "64ef6c86a03c4e60af2844a88921c8ec.16", "url": "https://lh3.googleusercontent.com/V3wFiyYv5i0x9xF11dTcwtZSPhwBqpgYF8mTpxkZThIz9Xaykgjpyx3yS1WK4voTfeuyI92KW97RDGQOXg2QjZycCN4", "name": "Tyresö Infokarta", "lat": 59.24790000000000, "lon": 18.21696100000000, "team_id": 3, "available_slots": 5, "bs": 28, "bc": 117, "rs": 38, "rc": 109, "ys": 27, "yc": 86},{"id": "68fb04d9ff7246999b2d800f6b2f1e72.16", "url": "https://lh3.googleusercontent.com/DEcJOzT-VnkGNiADXNXe2BtTMTm2cUOg-4Gppl6UR4Pg7gGVmQzsZvtZSmOi7T1gXDiI8XSlJxEAf6u9ar4IQrhziB4", "name": "Kumla Herrgård", "lat": 59.21665600000000, "lon": 18.19253300000000, "team_id": 2, "available_slots": 4, "bs": 52, "bc": 102, "rs": 31, "rc": 110, "ys": 34, "yc": 32},{"id": "69799690955935c28402822b0b3e84f6.16", "url": "https://lh3.googleusercontent.com/4U5FYFKIM_S_PI_ge2AkctFDPQurguhavGlj9WaHjqoPfLMCa0NQ515Wq7fnMbcCdIT9qYf2dCH_Q2cp2E1ntEZ_DZjs", "name": "naturreservat", "lat": 59.23869700000000, "lon": 18.28183700000000, "team_id": 3, "available_slots": 0, "bs": 110, "bc": 39, "rs": 77, "rc": 43, "ys": 67, "yc": 30},{"id": "69aed99443413b2faf9b138981327223.16", "url": "https://lh3.googleusercontent.com/V-af88lQa0286D6OHRV_rhxqAk0UtlWBSDmjjQlY_dUiFtpyVlPCn2PuEwuV_FnT7LZkogqCefU4HWSqOxifEIRGziacDHBfNwKRJ3I5", "name": "Informationsskylt Åva camping", "lat": 59.16787300000000, "lon": 18.36044100000000, "team_id": 3, "available_slots": 5, "bs": 0, "bc": 0, "rs": 0, "rc": 0, "ys": 0, "yc": 0},{"id": "7085bcccad294bf9b01cadcf3ad3a49b.16", "url": "https://lh3.googleusercontent.com/kq2Rbn0DkcuRfloUFMtw8S-A4qpInYdzgsuxvHhYCFx_r9jusNLthOUSH_9ZFZDFkn-U8CS9OtmlXlM0O3NAGZHxLA8", "name": "Krusboda", "lat": 59.23019700000000, "lon": 18.25718900000000, "team_id": 3, "available_slots": 0, "bs": 55, "bc": 100, "rs": 29, "rc": 73, "ys": 29, "yc": 71},{"id": "7210029b95e74aa89306b2599d593766.16", "url": "https://lh3.googleusercontent.com/odWaXxjscS61DqXkI_ODHFo_XjCuNK4OX4ZvCEBbtdWw0bWp_pB7J9kIGLgTksGw_og7XS_fcbcca9dKvmF-FJRA7w", "name": "Gunghästen på lekplatsen", "lat": 59.22580100000000, "lon": 18.25263300000000, "team_id": 3, "available_slots": 2, "bs": 49, "bc": 91, "rs": 27, "rc": 88, "ys": 34, "yc": 84},{"id": "72d0488eb8fe4087a838cb179d9290f3.16", "url": "https://lh3.googleusercontent.com/PpnRDavwQwegYQv_0vrfGIB6OHS73N4I6XJt9wotQZFmxaPdKo4OCTApS-n4Kit-bnR-QSluoPWzxWQZSVYEhqEs_sg", "name": "Katten", "lat": 59.24511100000000, "lon": 18.23002200000000, "team_id": 1, "available_slots": 0, "bs": 27, "bc": 150, "rs": 26, "rc": 115, "ys": 23, "yc": 119},{"id": "73c6b39cbb96404cb73aeef470b7f6b0.16", "url": "https://lh3.googleusercontent.com/XsROLIWHGCiHY1_PuGif5bjllqlIZhZuT4OTePr62vpxZ_gO8blcSvStIe7QxOvIRqA0ygatVYSkUJ6mr8zJvuabM70", "name": "Street Art på Skatepark", "lat": 59.24203200000000, "lon": 18.23076900000000, "team_id": 3, "available_slots": 4, "bs": 29, "bc": 118, "rs": 31, "rc": 89, "ys": 32, "yc": 112},{"id": "78462d79943e4489a0998307ec943d5b.16", "url": "https://lh3.googleusercontent.com/PryuDPENutmxFZ-Ufxb6NRhvDOW4XG5K-gVwFKi3JOBq8XGqFvN9wxk7YQd2SGb0rIf_Zi5t3IahZlRjNlmPFaZSuHUzv1bbhxus6ugXUA", "name": "Brandekologi i tyresta", "lat": 59.17458700000000, "lon": 18.32493200000000, "team_id": 1, "available_slots": 3, "bs": 0, "bc": 0, "rs": 0, "rc": 0, "ys": 0, "yc": 0},{"id": "799f699543ec3725a3f83c27fd7e7255.16", "url": "https://lh3.googleusercontent.com/HaO_T3HPWGWQBgtSiPZ3T9pvZDeB6NJkin4LHohB09RoZQB3RQSZsEnVHjUIMuOUfbUMRikmj3F7cN602YrQ6Mni3i9Sx1wi2qC2A9m0", "name": "Welcome to Klövberget", "lat": 59.21373700000000, "lon": 18.35340700000000, "team_id": 2, "available_slots": 5, "bs": 0, "bc": 0, "rs": 0, "rc": 0, "ys": 0, "yc": 0},{"id": "7c9d7b1f71a94a98b09dccf30d34dd12.16", "url": "https://lh3.googleusercontent.com/Bm8dJT-aKoZNiSGjRNfK1I-kHi4oG8fMd4Q4NQScOapL2n-TbftR23gsDVs0ba3NWLvkr9rK1AJPeHP02efBRCzrDpg", "name": "Barnsjögrillen", "lat": 59.22711500000000, "lon": 18.23495400000000, "team_id": 3, "available_slots": 4, "bs": 63, "bc": 91, "rs": 42, "rc": 54, "ys": 32, "yc": 54},{"id": "7ce0f6f551c14b29a3636b0fad8a9fe5.16", "url": "https://lh3.googleusercontent.com/iF8IM-GhMWFLUqtq0HEUhGqwoPKX4C-yEpaXh0zlWkYeCvaPJ3BFqIlCFQ02NlfdlU6pSCDakyOkMbOB4qYlz7BJqrI", "name": "Yttersta gammelström", "lat": 59.21946000000000, "lon": 18.25135500000000, "team_id": 3, "available_slots": 3, "bs": 47, "bc": 58, "rs": 36, "rc": 27, "ys": 110, "yc": 55},{"id": "7f3e3e38ba674ffbbd99426900a1d7a3.16", "url": "https://lh3.googleusercontent.com/E1osAW8hensLCHvIou2MVnK_zDPHG-IxyXe-2Ji_Ozh6uOQ_fJWmvqu8-0-BZT2cx_RuE9fjamIiEWbR2_B6YcIgHqXt", "name": "Ahlstorp", "lat": 59.23553300000000, "lon": 18.26271500000000, "team_id": 1, "available_slots": 3, "bs": 81, "bc": 53, "rs": 51, "rc": 31, "ys": 73, "yc": 54},{"id": "80546bce35c938788818afb12d5cc839.16", "url": "https://lh3.googleusercontent.com/Y3A4AZVPz0YFdYm-n1uFeXPUtuLT1p6o2c1Su4ka7uAJ76PI70co7iX9S4C33DfjBFi7Ju4-HPmSXTalikqj1kVBa9EZwj8Iq7nL3jQVYQ", "name": "Karta över Tyresta nationalpark och naturreservat", "lat": 59.21106700000000, "lon": 18.30566800000000, "team_id": 3, "available_slots": 5, "bs": 0, "bc": 0, "rs": 0, "rc": 0, "ys": 0, "yc": 0},{"id": "844260886b45489e881fda7594c322a1.16", "url": "https://lh3.googleusercontent.com/D94ee1dDVogHkw58sjMM1DsX4vXdaqUSOk9L_X21CS-S5smGg7EjYJjJ0FnaVh55nc7T_5ps0hmPbQAc7z-7GkrToPz4", "name": "Fyrtorn", "lat": 59.24658400000000, "lon": 18.24660000000000, "team_id": 1, "available_slots": 3, "bs": 35, "bc": 75, "rs": 33, "rc": 73, "ys": 49, "yc": 97},{"id": "851a36f242a931d6a5871df68846ae90.16", "url": "https://lh3.googleusercontent.com/KC1oOzLxSHhmPpjOeaRvQI9GIFFWkCJM9XfCMZmwHQqYffWln6KHmwxovt8uIsZ6gn8nrubdb3YC0wYAw9mcO4DTPA", "name": "Groddammar i Alby Naturreservat", "lat": 59.23873600000000, "lon": 18.26620100000000, "team_id": 1, "available_slots": 5, "bs": 172, "bc": 24, "rs": 97, "rc": 11, "ys": 237, "yc": 19},{"id": "86a449e27efe4adf99c2057c1119948d.16", "url": "https://lh3.googleusercontent.com/KNKLYbcZvP1uoahMtX4jZzLk-i0Vdz8KiqDKgyU_LERzMnBIxCLMmwdb4syE_BAysad0dOJVBYD1zdwAO53QXTN3hLc", "name": "Alby Naturreservat", "lat": 59.22979700000000, "lon": 18.26775400000000, "team_id": 1, "available_slots": 3, "bs": 65, "bc": 69, "rs": 40, "rc": 57, "ys": 42, "yc": 71},{"id": "86edd088a07a3af08a020fe9111fce29.16", "url": "https://lh3.googleusercontent.com/qEiYUMTXU8xLGMkxFM_fLFKsg-bKL2Nl-C-8w18b6fqsJcf65k10P0lNQbnaaat_4JPgParJjgnNdYPiCs3LLTKNICxmBIqR1Wr2Yztk", "name": "Regler i Tyresta nationalpark", "lat": 59.21927600000000, "lon": 18.25932500000000, "team_id": 3, "available_slots": 3, "bs": 125, "bc": 7, "rs": 129, "rc": 4, "ys": 178, "yc": 7},{"id": "8705b465cd4c4131b4b2c5bb74896b8e.16", "url": "https://lh3.googleusercontent.com/Dt_y5cyLlkyxUToEDFCdLlwV0a4dvMValhNpQpAbSWos2agiy6SK0THTERThESVhngCt5aXwHviMvnrRU5y6wR2jvqg", "name": "Klövbergets Naturreservat", "lat": 59.22185500000000, "lon": 18.35108800000000, "team_id": 2, "available_slots": 5, "bs": 0, "bc": 0, "rs": 0, "rc": 0, "ys": 0, "yc": 0},{"id": "899724c33c984de8aac272baba4b807b.16", "url": "https://lh3.googleusercontent.com/Hec7btQZJroerz4FO_fK5YZfbhVU8pzyI10ffGKC1O0-nnHeI4jOBFLlVh69D_XUbeSWdvspl-yeuqWKFh8pQL0Tv-Dn", "name": "Laundry Hut", "lat": 59.24239200000000, "lon": 18.23494500000000, "team_id": 2, "available_slots": 5, "bs": 5, "bc": 54, "rs": 19, "rc": 236, "ys": 20, "yc": 250},{"id": "8a728992be45474987ac35a2878c6ae4.16", "url": "https://lh3.googleusercontent.com/L4QC1sPxGbsX1QZ_Ccz7rqGLdlcXTj93wk6c8tOnAoU1W_e21T1mtG5u2AP3O6mE6KIS0H5qWnvGe8IPq36YLuA8Z3g", "name": "Rutschkanefort", "lat": 59.22888000000000, "lon": 18.25072200000000, "team_id": 1, "available_slots": 5, "bs": 18, "bc": 84, "rs": 24, "rc": 80, "ys": 49, "yc": 128},{"id": "8b363cb2d30e4688bc5d94f04bc7881d.16", "url": "https://lh3.googleusercontent.com/as_S5kehXZ2VnenAB-YtzS7OqNtEVpnVF9SFt4SJRvGcroO9mnXcXbdbhbx-8UGSOH626AQZ6rxveeRRqXf9jPwZNM4", "name": "Trollbäckens tennisklubbs utomhusbanor på Fornudden, Tyresö", "lat": 59.22757100000000, "lon": 18.18154500000000, "team_id": 1, "available_slots": 5, "bs": 64, "bc": 20, "rs": 96, "rc": 32, "ys": 141, "yc": 37},{"id": "8ddf2f4704094b86b313ac4ea8d5c16f.16", "url": "https://lh3.googleusercontent.com/GbsgGGIUmiW9YcukVLx8thO0F6EDUBhZT0msCmNMDtRMk5NN62DcG6IKfn1e51kElkxPpDyRmY2fJZzninb7Lgxjut4p", "name": "Snel Hest", "lat": 59.24331300000000, "lon": 18.28080600000000, "team_id": 3, "available_slots": 4, "bs": 15, "bc": 234, "rs": 20, "rc": 253, "ys": 6, "yc": 95},{"id": "95c3aa8bc20c40188b458dc99365f44a.16", "url": "https://lh3.googleusercontent.com/wbBV7dbYmhEaCI_Wgs3GZjfrROyeYbpWXMgFsyndwZg8BwebiEJRROu-dVpa8kFfU5PHwxq1gkCfYSs5lBYScmOpwdUQ", "name": "Fåglarna", "lat": 59.24584300000000, "lon": 18.23170000000000, "team_id": 3, "available_slots": 5, "bs": 32, "bc": 94, "rs": 28, "rc": 76, "ys": 38, "yc": 124},{"id": "961ef8bbf3fe4bb781371a7deea52e8f.16", "url": "https://lh3.googleusercontent.com/V04X5-EdzbMII5-Ea3iohHobSZgN5JGm4vDnf2S03QdNnpYBGABNC8_llKOByO04x36cGNZgV5JFKRWmgIZc0z37vjjA", "name": "Torpet By Upsatra", "lat": 59.21982200000000, "lon": 18.25651500000000, "team_id": 3, "available_slots": 5, "bs": 111, "bc": 49, "rs": 33, "rc": 16, "ys": 92, "yc": 41},{"id": "99c96e01824e4091ba5c5566a240c9af.16", "url": "https://lh3.googleusercontent.com/YBvOATMgbxjMNjpZLauyvgtMAZmyREF8aJUo3rubSbo5g52IPE87pkOPp6ryaK0_00P_uJnYjKTcRv1_EjX_8_LszOU", "name": "Liljegränd’s Playground", "lat": 59.22196100000000, "lon": 18.22743600000000, "team_id": 1, "available_slots": 3, "bs": 70, "bc": 80, "rs": 17, "rc": 51, "ys": 41, "yc": 79},{"id": "9b6fdb9dc3f94b09a825693a3a7fe6ad.16", "url": "https://lh3.googleusercontent.com/AyU1vRED1683N5YJvZ1KIFN7uyAGVrB44-UBgLpJ07fwo2xZETMQ4VIt4N9dBD3k74PCcjSdPoV3KSAhYzevMEVhebM", "name": "Stadsparken", "lat": 59.24352200000000, "lon": 18.22910700000000, "team_id": 3, "available_slots": 3, "bs": 27, "bc": 190, "rs": 24, "rc": 138, "ys": 12, "yc": 128},{"id": "9bbffae25e3f4e4f899b311571016fce.16", "url": "https://lh3.googleusercontent.com/anxAf-Q9R3_pePsFobYjBtBoOeG9B2ivaT1QE0CLf6wPxnpIunb5mPNPsKi4NYMUuUburgv2vFLjCztULQWQiZVs2Q", "name": "Trinntorp-Tyresö Infotavla", "lat": 59.22929300000000, "lon": 18.36072100000000, "team_id": 3, "available_slots": 5, "bs": 0, "bc": 0, "rs": 0, "rc": 0, "ys": 0, "yc": 0},{"id": "9c962154952e420da2ddb00aa6db49c3.16", "url": "https://lh3.googleusercontent.com/EvhBEhbdqTCoQaRASmkkbjYZVseadRh9FVFeLjR2OGIJyeH3U86XvrHr0vWAZ466bGmcfYh67q8JbN0plbLEAybhn02M", "name": "Vårlöksvägens lekplats", "lat": 59.22118000000000, "lon": 18.21093500000000, "team_id": 2, "available_slots": 5, "bs": 19, "bc": 101, "rs": 48, "rc": 142, "ys": 15, "yc": 80},{"id": "9db5cee8099d3e2bb986756cfc3bc392.16", "url": "https://lh3.googleusercontent.com/Abnahud3nCA-2BEqx6ZKQE45iQXVWw38sdysxlyFpTcMschfax0OnIVpplDoF16AVNgST_2KohCm6KPNP1nhYr_4_YnzXg8y6MSJ8h9x", "name": "Anslagstavlan i Gimmersta", "lat": 59.23630700000000, "lon": 18.27812300000000, "team_id": 3, "available_slots": 4, "bs": 102, "bc": 42, "rs": 83, "rc": 41, "ys": 82, "yc": 26},{"id": "9eac6734ce7c452ebf1f0e5628dfd358.16", "url": "https://lh3.googleusercontent.com/4L25pl0ZmiPDXOmwX27YV7OeI2r7BLrlkxMXFGf5p0K2X0a_ScDycr8XYWVVBeL38NFHbduw1zrvodckPy70-cA4rg8q", "name": "Utegym vid Wättinge gårdsväg", "lat": 59.23084300000000, "lon": 18.24335400000000, "team_id": 3, "available_slots": 4, "bs": 53, "bc": 88, "rs": 38, "rc": 62, "ys": 39, "yc": 71},{"id": "9fee21d7d175369da80786225305a0ec.16", "url": "https://lh3.googleusercontent.com/YUd3_pPDBnnMfkyIXw7IQyi1cFXLCy4bO-vtYyZptLYqE-dL08kXL9oNLxBEpba6ibebezUyxGjxqQL-89o4t1xrkg2gPs7W6UZ_v64", "name": "Dyviksudds Naturresevat", "lat": 59.19230800000000, "lon": 18.40493500000000, "team_id": 2, "available_slots": 3, "bs": 0, "bc": 0, "rs": 0, "rc": 0, "ys": 0, "yc": 0},{"id": "a13c92a2d2b243d0af84e1ed9fe39525.16", "url": "https://lh3.googleusercontent.com/DUd4QoiB4XtGE8VROy3w-Vlvpj131F6Ays42qCUkL9rGwFohknVXNZ3_HyNYvoCB-WIrEiG_9Ujb7245E8qEdeH8bg", "name": "Lekplats Trädgårdshusen 1", "lat": 59.25665700000000, "lon": 18.26928800000000, "team_id": 3, "available_slots": 5, "bs": 49, "bc": 99, "rs": 34, "rc": 71, "ys": 34, "yc": 68},{"id": "a22d2bd39e8243f3b8818d09c3ef7078.16", "url": "https://lh3.googleusercontent.com/WZ_hMuxUPCgO8pYoiKLCi6XuU7lVokzdkuH30VebQ-iBphgNy0KMjxJ0z2rOmL0wPeXzZM0FeGJwPsCghHy0Fx5AZA", "name": "Lekplats Hasselbacken", "lat": 59.24235900000000, "lon": 18.22443000000000, "team_id": 1, "available_slots": 0, "bs": 20, "bc": 193, "rs": 18, "rc": 136, "ys": 22, "yc": 152},{"id": "a26bcc23e35342898dbc0c72e1dbd4c8.16", "url": "https://lh3.googleusercontent.com/74WGMpUKQbgWMxYprxmd6c9rObpeBdZMm5u4U7_AKep_r0rACrUKe5YI3gaQuTPV9xtyiWERZju0QHrTHsPkXGCGXN0", "name": "Kulparken", "lat": 59.23445600000000, "lon": 18.19921700000000, "team_id": 1, "available_slots": 4, "bs": 22, "bc": 161, "rs": 33, "rc": 169, "ys": 12, "yc": 55},{"id": "a76f160000934ce19440855c6507b1c8.16", "url": "https://lh3.googleusercontent.com/eM_jfOhgHiRGV60sHrq824FlitDX6_FA-zslcjUcdG2eP0wRvmre47_pkSc1pQexr2sDqqhaan6QX3Ztw55pKOJQccc", "name": "Öringeborg", "lat": 59.25367700000000, "lon": 18.24484000000000, "team_id": 2, "available_slots": 4, "bs": 111, "bc": 30, "rs": 122, "rc": 42, "ys": 53, "yc": 24},{"id": "a9299596451646e18372fcc8c76053ac.16", "url": "https://lh3.googleusercontent.com/PYVqRp7gxtSG1lmu0hja3pLCK_sIHKRxPXS5zoV1FPbhMQ4-FogVrzUTIDPvr2oiq55hbajjLqjFf-VrTdsi-3SMSRs", "name": "Fågeln", "lat": 59.24873200000000, "lon": 18.23830500000000, "team_id": 1, "available_slots": 0, "bs": 57, "bc": 48, "rs": 123, "rc": 30, "ys": 80, "yc": 40},{"id": "a9348692431f36efb3c3c01643e3273c.16", "url": "https://lh3.googleusercontent.com/KF139avDHtiYo_iFBxoc74eov1TeI3IONU-tmZ68678-aOG8AC7kQNaV6CqB7HIjCtHlOANUWoPdKR4pNQ04WWS0i6zroiNu0ngD6ck", "name": "Inhängnad fotbollsplan", "lat": 59.22463600000000, "lon": 18.18639200000000, "team_id": 3, "available_slots": 0, "bs": 26, "bc": 31, "rs": 28, "rc": 31, "ys": 145, "yc": 55},{"id": "ab906837dfa645cdadf076a9efd86b74.16", "url": "https://lh3.googleusercontent.com/MoMyeeEQs2HGxYRtabggoWK-mZhKLicSoqLZfz9wSf4b2z0HEyJjTrjLl6Zrlllbq_PT7io1b1H94oznoMNvX9TVlGAT", "name": "Forellen Biograf", "lat": 59.24559700000000, "lon": 18.22827200000000, "team_id": 1, "available_slots": 2, "bs": 23, "bc": 235, "rs": 13, "rc": 151, "ys": 18, "yc": 137},{"id": "ae5ffa026a8a4356899371e2d0019ab5.16", "url": "https://lh3.googleusercontent.com/k-vAzaVWjQS_k1a54RCjhJMSoeWMU8V_vbWrlb9a6I1EXY9LW9UT0BRvrAwxaocIzAjGJw-d61AaDKEAItFtftSVlA", "name": "Hästskulptur", "lat": 59.24317100000000, "lon": 18.28497500000000, "team_id": 3, "available_slots": 5, "bs": 16, "bc": 169, "rs": 24, "rc": 196, "ys": 20, "yc": 125},{"id": "afc6f7e659ff40bc936cb4078123bd90.16", "url": "https://lh3.googleusercontent.com/HHJPhD1hIqY5w1LXX1YOBOarRgsk4Zo5zeo9H5OhnRSbb3ADdeNFxfNO_xTd0MhFdX_63FZNav9CbtWi440nxKGb098", "name": "Uranus", "lat": 59.24403700000000, "lon": 18.20805900000000, "team_id": 2, "available_slots": 4, "bs": 46, "bc": 85, "rs": 49, "rc": 81, "ys": 40, "yc": 48},{"id": "b2f316b1a9354998b54ccdc692ed1991.16", "url": "https://lh3.googleusercontent.com/S6RtPF5slyL_7v1ESqv_BJ1tWwPjbg4J9mPTLPWukWB12UI3uonVk3hdt3SbnevMZXdbpti2ymJjOPACSsYfO3ewzyM", "name": "Frisbeegolf No 4", "lat": 59.22772400000000, "lon": 18.27358100000000, "team_id": 1, "available_slots": 5, "bs": 201, "bc": 23, "rs": 78, "rc": 15, "ys": 188, "yc": 21},{"id": "b3358b4117294f30a418350997179f17.16", "url": "https://lh3.googleusercontent.com/T1SP3JpmFS3ajWit8S358Wrca640dWUvoas74stnnLf-Z_rqjsMOOJHTVDzMINx5nQzqbgadLxkmnJmi2LnSxHBMnw", "name": "Bollmora Kapell", "lat": 59.24680100000000, "lon": 18.21538900000000, "team_id": 1, "available_slots": 2, "bs": 46, "bc": 73, "rs": 59, "rc": 73, "ys": 37, "yc": 56},{"id": "bae4019db1e943978b1d159a4f0d3d0f.16", "url": "https://lh3.googleusercontent.com/oVQkmBpg39OAcVKtN2yIx_HtgfDTMhWxLjOft4-3MljA1XqibaQOpkstR3jndd0-7H57ae81etapARGXYKpuuYJakw", "name": "Naturreservat", "lat": 59.23594600000000, "lon": 18.27201600000000, "team_id": 1, "available_slots": 2, "bs": 174, "bc": 27, "rs": 130, "rc": 25, "ys": 64, "yc": 22},{"id": "bc036784c4304f74b20a0d4241f21673.16", "url": "https://lh3.googleusercontent.com/5EOzeHy2VzBp5E2DcmeDlAM_x2nbU17VztIUKiXNbC5aqN6GKvnHxsInr6fflnGpQTPzgfC680eghEU1KCEtclsZpEM", "name": "Vilande Utter", "lat": 59.24902800000000, "lon": 18.23541100000000, "team_id": 3, "available_slots": 5, "bs": 89, "bc": 34, "rs": 103, "rc": 34, "ys": 94, "yc": 35},{"id": "bf33a411f45540f2acf4f835eb60efe7.16", "url": "https://lh3.googleusercontent.com/8biHQiTXS7ybDZnQA7roMfj3Dt9BOWklK7ZTHhK2hgD9ejYy3hRIl-D1xwivxLcbqyCxFftbhE5fyjT50uDNDn4zJy0", "name": "Statue", "lat": 59.22885400000000, "lon": 18.19922700000000, "team_id": 3, "available_slots": 0, "bs": 70, "bc": 65, "rs": 49, "rc": 49, "ys": 51, "yc": 56},{"id": "c29c517f1fb135c0b88ca0d541117503.16", "url": "https://lh3.googleusercontent.com/PTZfbmJjS6tTJxhwown7Zq8tmC5eH28v9HqIi0BQA0u1z9hrqP3GnONTdALUr9VYWj2LVVLLulBFqm054OZ-ogHqIB-IDwR-zfnD-as", "name": "Info tavla", "lat": 59.22547100000000, "lon": 18.37114300000000, "team_id": 3, "available_slots": 5, "bs": 0, "bc": 0, "rs": 0, "rc": 0, "ys": 0, "yc": 0},{"id": "c57eeba1956d3ad7aadb5108f41cfd25.16", "url": "https://lh3.googleusercontent.com/tW8JQKbpFxRB-33z2lo2WV-VHkzpnhrxUfI6ObP8iu-nX_9ybEq1mQXImvfHHeCCUdYGw7KtSB56mzccJWlyCenpcwPC4ac2wwtDnir3WA", "name": "Kallkälla vid Sörmlandsleden", "lat": 59.20195200000000, "lon": 18.26759900000000, "team_id": 1, "available_slots": 1, "bs": 0, "bc": 0, "rs": 0, "rc": 0, "ys": 0, "yc": 0},{"id": "c602079550df420c97f3648a8c2b5ced.16", "url": "https://lh3.googleusercontent.com/Kovk5rSkLL8BXkLzq9s4JdXQxD8CK33_auEXGy21lM5DwA4PFling0A5wHw9oDq5jXa8BAuPckMg7lQHJzst7HTgwg", "name": "Andra Kärlekspärlan", "lat": 59.23455200000000, "lon": 18.30843400000000, "team_id": 2, "available_slots": 5, "bs": 96, "bc": 43, "rs": 111, "rc": 42, "ys": 43, "yc": 24},{"id": "cbc4b8c0cc7e4e2587cb0d2f56d1b29e.16", "url": "https://lh3.googleusercontent.com/s7SkDarwX_DChCBK5VEWncdDri6BfYjobsH2KuF6gO7sRWbZNP-DGhBrAGuLEs9I-0rgT6_5zJ6UGI3EVKjsiI4jalXJ", "name": "Lekplats Veronikagränd", "lat": 59.23508000000000, "lon": 18.22275000000000, "team_id": 1, "available_slots": 0, "bs": 39, "bc": 104, "rs": 19, "rc": 56, "ys": 40, "yc": 115},{"id": "cbd2be07700631e8b613f8603e765c20.16", "url": "https://lh3.googleusercontent.com/TBkfoCPs_ivu_dlUGX1RlMcqJaeBMZPf5qB3pCsve3DWKWyZ2XxPkmp_IHiiKAhA7BhkSbPpIAwovVXvgkeclGB9yDL52PP4qOnnH80y", "name": "Lekplats på övre Bagarsvängen", "lat": 59.24618000000000, "lon": 18.25781800000000, "team_id": 1, "available_slots": 4, "bs": 29, "bc": 80, "rs": 18, "rc": 38, "ys": 71, "yc": 95},{"id": "cd871cf945974b35a08e0ec214eccfac.16", "url": "https://lh3.googleusercontent.com/G5lxM_CBYbg6WryYURQ3c5umJQN-4OmNvbOUEVF3QlRrT92sZdP9WWscz81bRw0TzRL9quzEu7skua-RadKOpfzptQ", "name": "Fiskstimm", "lat": 59.24897800000000, "lon": 18.23621200000000, "team_id": 3, "available_slots": 5, "bs": 57, "bc": 48, "rs": 104, "rc": 35, "ys": 64, "yc": 54},{"id": "ce8dff8d41494ab39a7773fe0e4fb5ba.16", "url": "https://lh3.googleusercontent.com/1pb-WpEf4-5iVpBQ5AyfvO2YxAfQk1rK3eGLn3QXvaCh2zTuMOIDr0YFxaMnp1pkcRg_0dVvlrFDSZ-66FEZ3kVivw", "name": "Duck Family", "lat": 59.23728700000000, "lon": 18.22376000000000, "team_id": 1, "available_slots": 4, "bs": 95, "bc": 86, "rs": 19, "rc": 31, "ys": 16, "yc": 66},{"id": "d01cc424859c4ae2b9da02baa13dc31c.16", "url": "https://lh3.googleusercontent.com/9uJZGApAJ4sg4MXtwCR8gC3rAMlfP0NCe6gLHGn8d-WiYXmcl1ylw_CQWkb2Mpy_dWVMMou0V_oV-McgbRPu6REW5g", "name": "Vårlöksparken", "lat": 59.21997300000000, "lon": 18.21574700000000, "team_id": 2, "available_slots": 1, "bs": 39, "bc": 97, "rs": 43, "rc": 104, "ys": 55, "yc": 27},{"id": "d0a1dc708f583e8eb18b357e5f325f86.16", "url": "https://lh3.googleusercontent.com/PLuoD2gKBRvgV_Qp9TE8cHuCm1hq5pZPD9WMuTaTqotdSBerp0rquS_Kla9IQB7UL5cQ0sfFrtxdlnHwvzDtJLkoWRII2pMEYGNpQ373", "name": "Grillplats och badbrygga i Sandholmarnas naturreservat", "lat": 59.20250200000000, "lon": 18.40913700000000, "team_id": 3, "available_slots": 5, "bs": 0, "bc": 0, "rs": 0, "rc": 0, "ys": 0, "yc": 0},{"id": "d2bacbcafa9a40aeb3019cd825b47c34.16", "url": "https://lh3.googleusercontent.com/Fcrtgh6A5FCJFXeXkcnJxc9PpDynFUK0wIj64FE5-LI8sZUiRqdt9I4yWbzmrCCM-ujMBgQe4akLfKUKnYWyxc3j6w", "name": "Gungor", "lat": 59.23966900000000, "lon": 18.22998600000000, "team_id": 1, "available_slots": 3, "bs": 13, "bc": 210, "rs": 16, "rc": 280, "ys": 13, "yc": 182},{"id": "d3ea12cd4fef4019a94e68c653a8393e.16", "url": "https://lh3.googleusercontent.com/e5n7dIXB9APIqSDkpNlGRw_TbpItjNowEoUxf8c1THYa4-vOb2mQiBtLoABBKdVXGPOcTMD9BjfRiqLZ1hqjblshRyE", "name": "Arkeologi I Brandområdet", "lat": 59.17536300000000, "lon": 18.32010000000000, "team_id": 1, "available_slots": 5, "bs": 0, "bc": 0, "rs": 0, "rc": 0, "ys": 0, "yc": 0},{"id": "d46a6230409d4bd783f1c204d81a1ea3.16", "url": "https://lh3.googleusercontent.com/iYrBDsEuSQJwKfC9PvC9jdwaEiaGFiSqdEF1jFmFx1q4yt4neX2SmFsilFpa8xmWnEBSJy1R5tvV8FaskzP3bkoLfCVmeETsPbi3OjY", "name": "Tyresta Nationalpark Syd", "lat": 59.16855700000000, "lon": 18.32696600000000, "team_id": 1, "available_slots": 2, "bs": 0, "bc": 0, "rs": 0, "rc": 0, "ys": 0, "yc": 0},{"id": "d5632c1c9dbb4e429660d29df6111b39.16", "url": "https://lh3.googleusercontent.com/NNlWHlS8aIK-Ni0xyfZVgNLb7G4J2WD41yncgGSZXB4dnOEQlfPL4yj_7dGZTca2D9AbTBLzO7NsVdqw9qGqESLrpA", "name": "Vilande Fågel", "lat": 59.23505400000000, "lon": 18.22928400000000, "team_id": 2, "available_slots": 4, "bs": 49, "bc": 140, "rs": 16, "rc": 67, "ys": 20, "yc": 94},{"id": "d92032b4b38542718663eb6c8ec1dede.16", "url": "https://lh3.googleusercontent.com/DbdIEcNnAoTr9dy6G4D3WOyHpLG0CuG6Lyl0HkNdP5ViAS9moZErc8vDzNaiznie47-wcis9PJ4GjHXrYFyvOG74Tw", "name": "Dyviks Lillängen", "lat": 59.19546900000000, "lon": 18.40311900000000, "team_id": 3, "available_slots": 5, "bs": 0, "bc": 0, "rs": 0, "rc": 0, "ys": 0, "yc": 0},{"id": "da38fb26e9d64ed089df89cfeb68a3a6.16", "url": "https://lh3.googleusercontent.com/lYuRJ6H9b8vsqwgpd6zwoUQbwsWFoNzZGtJEFlqhFM3beMS5Mya9-WBLVE6XbtiL3KzW0wLPKgdEpA7zmaLu1gFUbwfy", "name": "Hinderkalv", "lat": 59.22330100000000, "lon": 18.20805100000000, "team_id": 1, "available_slots": 0, "bs": 42, "bc": 69, "rs": 75, "rc": 72, "ys": 36, "yc": 17},{"id": "dd47dce028ef49ab893b75cad4602bbf.16", "url": "https://lh3.googleusercontent.com/wFn1S5r6m6LVKn-PsuF8bTMVxAAQWUUBngTWHKdytt7nAfR0dAL7jTdhv24yqJuxhcYLUN1cjPsfKwa6ulNv6yhQND0", "name": "Tyresta nationalpark - Styvnäset", "lat": 59.17593500000000, "lon": 18.39731400000000, "team_id": 3, "available_slots": 4, "bs": 0, "bc": 0, "rs": 0, "rc": 0, "ys": 0, "yc": 0},{"id": "df321fb26b8d4f238bf9d6e80fe0ef4d.16", "url": "https://lh3.googleusercontent.com/D_VWGP77TeUrgLOdJqyGhQFodrSG_PFDVzq_EhNHgvXchUQSGOBt7kLx09k6OYlaIr2PzEr6W6VzTFPm-PLJVfsfcL6R", "name": "Träbro över ån", "lat": 59.21937200000000, "lon": 18.25031000000000, "team_id": 3, "available_slots": 3, "bs": 65, "bc": 58, "rs": 40, "rc": 32, "ys": 102, "yc": 47},{"id": "df98a97b1f184232b6f0937f7bc7a6be.16", "url": "https://lh3.googleusercontent.com/VGSVj-JHZ85IZA831oDSwIKvCTDyilNtlAHpwYtYsPuXayI4DvWc9-qCrkj8T0aTyLFJEa7ZoexZ5W9dX0NzSjWwtpE0", "name": "Bekymmerslöshetspärlan", "lat": 59.23444900000000, "lon": 18.31116300000000, "team_id": 2, "available_slots": 3, "bs": 61, "bc": 40, "rs": 92, "rc": 44, "ys": 114, "yc": 29},{"id": "e61a05073f9741e29de663b9dd37d4e4.16", "url": "http://lh3.googleusercontent.com/0axS0ZxZgovtm2Qdm_FITeihHQF4IHblB6tJmHAU0CTKKQ_Ehnvblf8iZfBQmkXeZdcOwiPTbGIVHJKgOgS77URG_d6H", "name": "Tyresö Brukshundklubb", "lat": 59.22468100000000, "lon": 18.24565100000000, "team_id": 1, "available_slots": 4, "bs": 126, "bc": 52, "rs": 62, "rc": 25, "ys": 39, "yc": 45},{"id": "ec21041829f043d3b8063735619c63e9.16", "url": "https://lh3.googleusercontent.com/4KMdmmkbXybNxudoFj9whAdBdUKQjb0tXNBwR9mB2DqGmNC6QTPvMIA0OMnlt3Ep6xiqcWKsF12H_HEe3xeaQ-fKtpk", "name": "Merkurius", "lat": 59.24335600000000, "lon": 18.21400200000000, "team_id": 1, "available_slots": 0, "bs": 41, "bc": 94, "rs": 40, "rc": 101, "ys": 31, "yc": 61},{"id": "ec2cba0d4fc94945aa69015102d275a7.16", "url": "https://lh3.googleusercontent.com/POweAU6V5fNBiJmV0eZ30XKzdkAcbvGP1Bw_m9Mg7a4QZw5hRUml7zUeQ76cJV2O0cpniXIhAxzdNY9PErGLUKKGtlo", "name": "Glädjegångens lekplats", "lat": 59.21286600000000, "lon": 18.21137100000000, "team_id": 1, "available_slots": 4, "bs": 27, "bc": 162, "rs": 28, "rc": 167, "ys": 17, "yc": 50},{"id": "f028c682459131b881e1b509028e7735.16", "url": "https://lh3.googleusercontent.com/CZNtJYX_80U8phwE_wlj5853d45rYxOl8dWWhmdnhfeO7q7QxWCTeH__naAdO6lMFi3y-0SYtKH33m7bEuaFFiYA5KSEAopvpJ6jiVMg", "name": "Vägvisare Sörmlandsleden", "lat": 59.22013800000000, "lon": 18.27197800000000, "team_id": 3, "available_slots": 5, "bs": 343, "bc": 11, "rs": 259, "rc": 7, "ys": 394, "yc": 10},{"id": "f1836be1226046388ba286b72bc26271.16", "url": "https://lh3.googleusercontent.com/XmDs_YNsqRnvqUMMAYRo9cTXmmWghkLUrS1QwOY5tM9nbzd0OQmHvWmwHESRMlOI8gR60ISc18BdfKvJmfj3HwWAlA", "name": "Alby Naturreservat", "lat": 59.24468100000000, "lon": 18.25531500000000, "team_id": 1, "available_slots": 1, "bs": 51, "bc": 59, "rs": 43, "rc": 47, "ys": 87, "yc": 54},{"id": "f21e799511be4ed2bbc4464830fd122e.16", "url": "https://lh3.googleusercontent.com/-BGbS38CLOzDf5ZTfRK-VQF-M7cymyQgltftgEABWyugT0jVpquPmqyf7PnRAQnW4ZsbiwHF4sSlISZgqLRHqJFmwlE", "name": "Skeppet", "lat": 59.24485100000000, "lon": 18.28256700000000, "team_id": 2, "available_slots": 2, "bs": 26, "bc": 85, "rs": 45, "rc": 115, "ys": 30, "yc": 78},{"id": "f2a5bfdba61934ad8cf897263e1a44ea.16", "url": "https://lh3.googleusercontent.com/NUKBQ7_p6bT7wkK-IyvEG5A9eZ2r82ix0cn8ZCzsCiCoPgpDd9BdvtfxiCuCCMrKO9F4rbgnrL6ZTs_UjucLpR5z2FOW5w4_RAMJFyr1", "name": "Kristinavandringen vid Grändalstorpen", "lat": 59.21274000000000, "lon": 18.28757900000000, "team_id": 3, "available_slots": 2, "bs": 798, "bc": 3, "rs": 712, "rc": 3, "ys": 1082, "yc": 2},{"id": "f6c1718e58dc4523b9a1f88fca1f0cfb.16", "url": "https://lh3.googleusercontent.com/bApmD45Pi2hwnA47sIPlXJd4DrcpDCfDehq885cMsYooFi79x15vXb0M5xId4ymytQdKCnY84XkCClyoOtODmoh7LGo", "name": "Tyresta nationalpark och naturreservat", "lat": 59.16941600000000, "lon": 18.35650400000000, "team_id": 3, "available_slots": 4, "bs": 0, "bc": 0, "rs": 0, "rc": 0, "ys": 0, "yc": 0},{"id": "f81a3707faea3a35b1be0a625e20ed31.16", "url": "https://lh3.googleusercontent.com/fost7QjLwzegRaxnaqInp4RZo7oez3JztQaUM2RcfXSY__4dE8K9cy4pxa2Su7YXOfWlibyTY9rBOgbjaFVCsFHqTDwmPrMR1C1IHY9S3g", "name": "Välkommen Till Telegrafberget!", "lat": 59.21039700000000, "lon": 18.38249200000000, "team_id": 1, "available_slots": 5, "bs": 0, "bc": 0, "rs": 0, "rc": 0, "ys": 0, "yc": 0},{"id": "f9f1ae27cefa386eac2fd4a2b8bc86f8.16", "url": "https://lh3.googleusercontent.com/e3odV-1BbaTQeKNJch1KzYG-v2Rkmho7Fdx0tjmXws0VzobTRxLFDNzwX8ffPvxBs-2FN47lBtAQ8WfsgAqLqTqf8CRakQNhTELSVJDY", "name": "Torpet Skansen", "lat": 59.21098600000000, "lon": 18.29699100000000, "team_id": 3, "available_slots": 5, "bs": 865, "bc": 1, "rs": 6291, "rc": 1, "ys": 0, "yc": 0},{"id": "fb02ac95ba074391930f089fc00855b0.16", "url": "https://lh3.googleusercontent.com/wl_vDleV251LBXZkc3108kW3wiP-uUWn4D6vD8l0FPT6X1bJLBUFw2d6fwf4MruNKTRdnPqNxKT6tG17MuzgtIAnpjR_", "name": "Glasfloden", "lat": 59.24374200000000, "lon": 18.23286300000000, "team_id": 3, "available_slots": 0, "bs": 24, "bc": 80, "rs": 31, "rc": 109, "ys": 38, "yc": 118},{"id": "fc402db23991343297a18dc04be06a38.16", "url": "https://lh3.googleusercontent.com/iy7GiMjjMwBGW12WkwG-509eXU9BqKrSvmCaDR78B8GrSu8W2YUbFy1ohwdH4AWiy17ORZxwz0O64ny_Ozne_lhuNfc", "name": "Här skapar vi äng", "lat": 59.22543700000000, "lon": 18.24597400000000, "team_id": 3, "available_slots": 3, "bs": 100, "bc": 18, "rs": 43, "rc": 12, "ys": 73, "yc": 12},{"id": "fcd5dee7ac9339ada2ae486c524e0985.16", "url": "https://lh3.googleusercontent.com/hvuhfGn14S57VylxQTak9gXoTOp-WNHJmDrg7VvoOkcGUfSoyEfor2QjCn4J7CEreta5ZB1HPvpEQzEVtQ7RypOC54bhb6AEVLKcz9lW", "name": "Grusfotbollsplan", "lat": 59.23038900000000, "lon": 18.33635000000000, "team_id": 2, "available_slots": 0, "bs": 0, "bc": 0, "rs": 0, "rc": 0, "ys": 0, "yc": 0},{"id": "fda663d56e4d40d69959214bbdfa4c1f.16", "url": "https://lh3.googleusercontent.com/w8u6d5nM1GnvgmyHXJxMzJKMi-jRguIBokZ3nq09LzP29AsFFjYf17FaAVj21IHKa2ZUoJB40pPgZ0BDOMt5wwFmXg", "name": "Klintvägens lekplats", "lat": 59.21151600000000, "lon": 18.20528100000000, "team_id": 2, "available_slots": 5, "bs": 30, "bc": 47, "rs": 56, "rc": 96, "ys": 40, "yc": 74},{"id": "ff5da736f74442dba5c89e297052643b.16", "url": "https://lh3.googleusercontent.com/3JghIjZlUG2KDo-QbFXNE7ENn28jxvqxUU0dIeP6VZvvvp3JGdvfzwi4qTmPG8HsJaGLRRqx5OsYmY8QlX2yk7bmH2Xn", "name": "Angelikagränds basketbollplan", "lat": 59.23110100000000, "lon": 18.22820200000000, "team_id": 2, "available_slots": 1, "bs": 11, "bc": 57, "rs": 95, "rc": 90, "ys": 12, "yc": 42}]
