[{"id": "001a9817c3b24107ada0c0e7ca5ee8dd.16", "url": "https://lh3.googleusercontent.com/hAGsgw7zMW-qQg2MC6sRmPVVd54hJf0JxLT4EMbrKWlKk4pvb5bAr-yzaLVkVTNvKE7RIa2m9gXkfgn907Tps7o6w5Ft", "name": "Smeden", "lat": 59.47622200000000, "lon": 18.02837900000000, "team_id": 1, "available_slots": 2, "bs": 400, "bc": 13, "rs": 102, "rc": 5, "ys": 311, "yc": 13},{"id": "0027516463c2410399ce7ffb354d2e71.16", "url": "https://lh3.googleusercontent.com/Fg9qWEMtnX5f3WXVkMAfbD7dK0RYqPCYaQrtaeqY454NvubOVum7103qz02oVm2KEzG-qd6u_jpkEPuA4zVCOiTaRB4", "name": "Täby Festplats", "lat": 59.49090000000000, "lon": 18.06909700000000, "team_id": 3, "available_slots": 2, "bs": 85, "bc": 35, "rs": 52, "rc": 29, "ys": 115, "yc": 43},{"id": "007217889d0a449496256816f891afcb.16", "url": "https://lh3.googleusercontent.com/Op46Le4avt3qumb2CCE0E2copFgvAymPbiZ3Kh8n_pSDukymWSGwaGfO0f10pcr3_OJtH4x-CzjvgavjL7nSckJ7L39m", "name": "Vision", "lat": 59.43236400000000, "lon": 18.08573900000000, "team_id": 1, "available_slots": 3, "bs": 44, "bc": 124, "rs": 25, "rc": 73, "ys": 27, "yc": 96},{"id": "008225ed8436440ab6327c413c1c6bc2.16", "url": "https://lh3.googleusercontent.com/YGhtchE96KYWJcg-6nX6Y65v_9YpTBi1WbxEHgA2QRSUwlSZCMmx3rEp0cav5nsoyjyTeVVtmI9gA4U3W-EbkU9nVaE", "name": "Birds of Visinge", "lat": 59.46555600000000, "lon": 18.06353400000000, "team_id": 2, "available_slots": 1, "bs": 18, "bc": 36, "rs": 152, "rc": 58, "ys": 17, "yc": 24},{"id": "00da818014c14681bad956b7b4dbb692.16", "url": "https://lh3.googleusercontent.com/IT1NBG6_r-gn-bcxX4HJTaf0kQH9fk2VDNP5AXFK3KUQx1FahfzT374jIBylZmvPIRPTSXKPcb_2hxD9pAdX0mASn98", "name": "efter Ulv i Skålhamra", "lat": 59.50747100000000, "lon": 18.01054300000000, "team_id": 3, "available_slots": 5, "bs": 303, "bc": 5, "rs": 822, "rc": 5, "ys": 1343, "yc": 3},{"id": "01376595d3034b08a84e699f71ebd5c0.16", "url": "https://lh3.googleusercontent.com/IcY46842uRc6gp_YHhec2ICkhquepMoXjYud6PExlqIMRoro2gxiyYWPrx2u6hP5R52mFBymPafVnSYe_AV6hcTY0sU", "name": "Fällbro Runhäll", "lat": 59.48356200000000, "lon": 18.01443800000000, "team_id": 3, "available_slots": 5, "bs": 96, "bc": 26, "rs": 158, "rc": 34, "ys": 73, "yc": 26},{"id": "01443cab982b43beb326881c8349e659.16", "url": "https://lh3.googleusercontent.com/S9e2ARqCf8-kVtZA8GDJvMShB_Vwbto6TY4EeApwqWCcbg9J3oEiCqMeRGEqibbwLEVHg6qF_l56_VW9M2qCzuj1BcNb", "name": "Utegym Hägernäs Strand", "lat": 59.44266400000000, "lon": 18.12920500000000, "team_id": 2, "available_slots": 1, "bs": 59, "bc": 68, "rs": 35, "rc": 46, "ys": 63, "yc": 67},{"id": "04c9af9fb54045adb99dc0a3eae86821.16", "url": "https://lh3.googleusercontent.com/TaRKjqWBvu7wdjXnziCMRt7oK4NuDqn4EgwYtgDu-T0ddGv2OoEy10cTZdEsqEkSFNVJa_Bw2rlbs1R_DTJjED-TNWY", "name": "Blue Bench", "lat": 59.45009600000000, "lon": 18.12911400000000, "team_id": 2, "available_slots": 0, "bs": 231, "bc": 8, "rs": 291, "rc": 7, "ys": 518, "yc": 11},{"id": "05aec0b22e2e47a192be3fa159c3fcfa.16", "url": "https://lh3.googleusercontent.com/lIqmqT27H3SdOsi4VO4q9Ll2Ghb_9dUai6h7sUrg3o2TDUj6dyeL6KCDIG_1NkFs-_yko_vNSVFxE5mQ9_BU4m1zsn3jCCdpq4Qe--4", "name": "Fontän", "lat": 59.44453300000000, "lon": 18.08411500000000, "team_id": 1, "available_slots": 1, "bs": 28, "bc": 158, "rs": 23, "rc": 144, "ys": 22, "yc": 94},{"id": "065537146ec24a1888caf38486414bc4.16", "url": "https://lh3.googleusercontent.com/dKwUYqizEJklPaqIgimtltXtG_vSh8YVetBKvKOuw0-pIqY39Fdh-G4WawaufxI56YypvlIBATLCABJrjZe2rw7wixzR", "name": "Näsbyparks Bibliotek", "lat": 59.43078400000000, "lon": 18.09542500000000, "team_id": 1, "available_slots": 0, "bs": 22, "bc": 265, "rs": 10, "rc": 202, "ys": 11, "yc": 180},{"id": "08944da0c1124842a16c55acaee735ab.16", "url": "https://lh3.googleusercontent.com/UjDVJFVOzlY2twQyQyQo0N1O8Vo9VQ4Uk1Zgxfq5i_CZMy7leCCiDDuzX3GIXZdfml74t01b7iyeFOeJrJyTEY0b6kI", "name": "Gullsjöfortet", "lat": 59.47484800000000, "lon": 18.08085300000000, "team_id": 2, "available_slots": 5, "bs": 908, "bc": 1, "rs": 1035, "rc": 6, "ys": 339, "yc": 5},{"id": "08945a7ac90e4ecb81a9945037bfd0ed.16", "url": "https://lh3.googleusercontent.com/SlqCjzE4T4zZUy7SzovhMqivfLzIXHmch44dZSUTsNY7vKvgxEqaoFvH0IwkzSU9MuMYvw3PDvFU8QsiaHIvCe8d93I", "name": "Täby Centrum", "lat": 59.44430300000000, "lon": 18.07297100000000, "team_id": 1, "available_slots": 0, "bs": 15, "bc": 313, "rs": 9, "rc": 248, "ys": 12, "yc": 229},{"id": "09251b7f3a5d44aa974a16cbcad4b4ca.16", "url": "https://lh3.googleusercontent.com/ps5iMgJxY3HTOBhVqcQ6iHpOuj_gOPB9HA3A0qilmgZbohEAAJv108YAnQBGQ2kAQvBJkcSegHDo95jP89sOsmBwUO-l3mYoJoBbXwE", "name": "Fauna och Flora", "lat": 59.47364300000000, "lon": 18.13327800000000, "team_id": 3, "available_slots": 5, "bs": 48, "bc": 39, "rs": 33, "rc": 29, "ys": 126, "yc": 55},{"id": "09fea94adcf4473988faa55a7111f101.16", "url": "https://lh3.googleusercontent.com/7F1JOZAtwIuWXdBqh6YqMB7rSjxPeuUBTeJrWoNXUdJR8uwyDxBth8PIUPAMSIJAUUesGVl2SJ4VXtk8f9LCrzKRAVc", "name": "Hägerneholmshallen", "lat": 59.47093500000000, "lon": 18.11923000000000, "team_id": 2, "available_slots": 1, "bs": 19, "bc": 180, "rs": 17, "rc": 146, "ys": 21, "yc": 191},{"id": "0c036d9069a142fbb527ec1f656d6f75.16", "url": "https://lh3.googleusercontent.com/4Zjg6q17hq9E3ixXpz7BsWDEFf0JEG581NWwgvbTXpTTHR8m53N11CgH4yuGDuxRWUkLRW7Mwcy2rleXDAvGoluR4Vr7", "name": "Runsten I Kyrkbyn", "lat": 59.49910500000000, "lon": 18.06330400000000, "team_id": 3, "available_slots": 0, "bs": 29, "bc": 82, "rs": 26, "rc": 63, "ys": 57, "yc": 102},{"id": "0c702bdc2017471daca7303d742f1e0f.16", "url": "https://lh3.googleusercontent.com/wxc1xC93PB6b2AelFJLQY2JrqWLIponayt8KVVXhhRxx3h2eq_I2I_iyadPz8FjPXjPw-ncyYxBhtlKEwKr-S_wv4HRP", "name": "Täby ryttarcenter", "lat": 59.47392700000000, "lon": 18.06154100000000, "team_id": 2, "available_slots": 4, "bs": 80, "bc": 41, "rs": 81, "rc": 52, "ys": 43, "yc": 52},{"id": "0d07d5d5734e4e119fb4cd70c24a5782.16", "url": "https://lh3.googleusercontent.com/20vpbByu7dofPWh_R9jgFWDXXNxg_1CmhXpe2R3GWCXaPvFsoMZcoByVAnuUk_SIZa_772H3wVbLdye3rU1riNlcjzs", "name": "Vallentunasjön", "lat": 59.49665000000000, "lon": 18.04706400000000, "team_id": 1, "available_slots": 5, "bs": 142, "bc": 32, "rs": 68, "rc": 17, "ys": 135, "yc": 27},{"id": "0d6f3eedb4cc4adf980f3fafcb1fe293.16", "url": "https://lh3.googleusercontent.com/H0P2aow60-0OIqDCXpVDAdFO8pJhcd0U3JlnJ97c5fhI38V4-dhMEERYg3vr8dxEWPtylrruBWY7di1mlJQolfN8mV0", "name": "Cosmic Tunnel", "lat": 59.43695600000000, "lon": 18.07309300000000, "team_id": 3, "available_slots": 3, "bs": 19, "bc": 214, "rs": 16, "rc": 185, "ys": 16, "yc": 187},{"id": "0ec6d96b684f4834943890f2124a0942.16", "url": "https://lh3.googleusercontent.com/cdWtROMXAkHGDVhsAnMIJt01fro7n1vZSa17-wn5I5V-pvrTvHhwVmoU0CtgVSnD2fAgH-OTx-zVcyte9RGCk37cLD0", "name": "Enhagsparkens fotbollsplaner", "lat": 59.44040900000000, "lon": 18.04777900000000, "team_id": 3, "available_slots": 1, "bs": 50, "bc": 91, "rs": 27, "rc": 78, "ys": 44, "yc": 71},{"id": "0ed2671d98ac4e79ab23f7f77862280b.16", "url": "https://lh3.googleusercontent.com/aUC_hGcGO9CvFElgLYE8-BPAEknpVFaSo3D00FghMxjaXjVYgWbSA2-ZVCuGIuw1Sr5dssGif1zC3qjE5RlYyj5Q1DM", "name": "Täby Motorcrossbana", "lat": 59.46378200000000, "lon": 18.13864400000000, "team_id": 3, "available_slots": 1, "bs": 760, "bc": 6, "rs": 163, "rc": 9, "ys": 292, "yc": 12},{"id": "0f131bcc840d4272856f6713ff2d2fe0.16", "url": "https://lh3.googleusercontent.com/J5yxwwcxb84SuWr_dPChwWh5_9X5ObYfWNNgbZWsvVZ8IHpom30Nri9xr4uwvwirKyGgm2fpThJVUTJCoDx-a4cfiDM", "name": "Jättegranen", "lat": 59.46368700000000, "lon": 18.06714500000000, "team_id": 2, "available_slots": 5, "bs": 84, "bc": 61, "rs": 50, "rc": 69, "ys": 36, "yc": 34},{"id": "0fb9b1ed8ef7405fbb5f1811941b5ce0.16", "url": "https://lh3.googleusercontent.com/mW9Ng6c2wT8WMWoy8zowz44BlzNfct2mMDyciInCDITKVntPmiEzpn-ya2DShE_VlTus3nHXMeoECnLimaouBgISdg", "name": "Östra Arningefortet", "lat": 59.46039800000000, "lon": 18.13313500000000, "team_id": 3, "available_slots": 2, "bs": 49, "bc": 91, "rs": 39, "rc": 61, "ys": 39, "yc": 72},{"id": "0fe9341fa03e30c9b30012e23eeee323.16", "url": "https://lh3.googleusercontent.com/FkDTHkm4MzCGfQXytJEHHK9M34i-iXcy7BCAjhznoU7Y01gQxO2t6IVRuleb4Ijm9JC8tPYhK6e27noW6ctIMXT4Wg", "name": "Lövbrunna hinderbana", "lat": 59.46903400000000, "lon": 18.04487100000000, "team_id": 1, "available_slots": 1, "bs": 34, "bc": 79, "rs": 35, "rc": 98, "ys": 36, "yc": 102},{"id": "108b1f7d1f9c4b7292d8c74b6a877ea8.16", "url": "https://lh3.googleusercontent.com/zav3-bXHlQP_YvrgDioodm6OwCqPgi8oRmsDLW3f9T5ckelKatOFONclXWg25bynNo0egC207EbNUGT5oI6ocM079g", "name": "Kopparvägens lekpark", "lat": 59.44805500000000, "lon": 18.02849500000000, "team_id": 3, "available_slots": 4, "bs": 32, "bc": 159, "rs": 20, "rc": 38, "ys": 27, "yc": 151},{"id": "130d683cfcaa49ea9442e4b29f965e00.16", "url": "https://lh3.googleusercontent.com/T2UcdRMl4d2UYgB6aFQy2yDiNqJiq7rcTq3wjgiyVDHGPPYJwhm_bAMcxaaeR8ixr9Ub8Ihu03ovk-nr8WQB9Bn2Sw", "name": "Hägerneholmsparken", "lat": 59.46816500000000, "lon": 18.12126900000000, "team_id": 1, "available_slots": 3, "bs": 28, "bc": 184, "rs": 16, "rc": 135, "ys": 15, "yc": 165},{"id": "136f1edc20fb357083ac7822a574f8b3.16", "url": "https://lh3.googleusercontent.com/wgjBj8JNz9_VxGLMoKp47cT8jF54VHRThhpsVthctqzx-E6N5PwDLu8zbfer5EJ2ZSAenHq_ggMIGrCyGt774rn2haNLGHT98IwoCFL7", "name": "Cykelspåret - Värtans strandpromenad", "lat": 59.43290700000000, "lon": 18.10656500000000, "team_id": 1, "available_slots": 1, "bs": 39, "bc": 45, "rs": 19, "rc": 39, "ys": 106, "yc": 13},{"id": "1370b7904935457d94f141074a3944e3.16", "url": "https://lh3.googleusercontent.com/KTNqlUm4ROYZ8djthis0AmkchhHU7AAUI0004BeaniHqoWyY8Kw8o3sc7A4ljC8uwdo4RXBl26zLUa3wobvfl3Pn2yo", "name": "Hägernäs Strandäng", "lat": 59.44297900000000, "lon": 18.13235800000000, "team_id": 3, "available_slots": 1, "bs": 79, "bc": 49, "rs": 41, "rc": 38, "ys": 91, "yc": 48},{"id": "14fb24d053ca4dbfb69418833af3d4d3.16", "url": "https://lh3.googleusercontent.com/ekOFFzZpOD7R0gwyHPFT_XSAZguzjkd7r8Pe5QfU1h6OCn_7PdgS_z0ag0xAGiFrklZMrw3-HEsS4nrY2KrVShJmFA", "name": "Röd Skulptur", "lat": 59.44497800000000, "lon": 18.12078000000000, "team_id": 1, "available_slots": 0, "bs": 26, "bc": 186, "rs": 19, "rc": 131, "ys": 17, "yc": 143},{"id": "14ff20d6e4b8439fbd2666f0cfe312dd.16", "url": "https://lh3.googleusercontent.com/yvLE_QfjKiZjogDlsGb4Sxr8BfV-kwmRtjVofFQ4ltQQ9uqrZT4Fo0zccG2EQWtjyi1tWtUdwCuxCuwHxD7WnHDdG5A", "name": "Sjöslingan", "lat": 59.45447900000000, "lon": 18.01441100000000, "team_id": 3, "available_slots": 5, "bs": 110, "bc": 42, "rs": 63, "rc": 20, "ys": 111, "yc": 36},{"id": "195fad3513944a3eb4b61655acc1558c.16", "url": "https://lh3.googleusercontent.com/8GxYBHrHsK8FkmwiPLexBTbUzFeQQPN9lKpCfknf_UC0PR4lznf1aAVdx_tSTk-E3UNeHunpldRygQpCwZHTCetwEz8", "name": "Djurskulpturer", "lat": 59.45660700000000, "lon": 18.11216900000000, "team_id": 1, "available_slots": 5, "bs": 184, "bc": 33, "rs": 68, "rc": 19, "ys": 100, "yc": 25},{"id": "195fae65d5b44273b40a02f78dd888e1.16", "url": "https://lh3.googleusercontent.com/XjGtCKiRClRVQDSQ__J5faeVDb1kW_VY-d7JNJr5TZ8C4TCfgZGSnRRTQE-1ntPZqR1z7Awg6qLh0AETn6QOVO5-CQ", "name": "Havsleken", "lat": 59.44750000000000, "lon": 18.05474500000000, "team_id": 3, "available_slots": 3, "bs": 20, "bc": 71, "rs": 55, "rc": 128, "ys": 17, "yc": 77},{"id": "1987a489e9014e858f53ec6ae12a41da.16", "url": "http://lh3.googleusercontent.com/EV3KDrnKYbYcZuaTHFffh2GWnaOKGEjGxQgWgtkzgIfCrTI-Iu0sEnIVj2xjC3SBECe9JI-EfmKhx5_fYq3aj9iaG_I", "name": "Karby Gravfält", "lat": 59.47939100000000, "lon": 18.05238800000000, "team_id": 1, "available_slots": 2, "bs": 89, "bc": 54, "rs": 39, "rc": 36, "ys": 69, "yc": 49},{"id": "1a607fa0f1a84dac93723949fc87677e.16", "url": "https://lh3.googleusercontent.com/gkmjUVcj_O235ccci5B7AAJkafp1Pu4soGQAnhAom2fKPi0tohB0oJcyh7kfYORnwyf0U19F7Pfhq9TSjgjqiEFL66I", "name": "Hagbytoppen", "lat": 59.48135200000000, "lon": 18.00636300000000, "team_id": 3, "available_slots": 4, "bs": 1210, "bc": 4, "rs": 0, "rc": 0, "ys": 579, "yc": 3},{"id": "1ba1d25a47c14cd5bb98747f43d8958a.16", "url": "https://lh3.googleusercontent.com/zJXaNpm-PGhBuVK5TxT2KMVJRudZD8PrRvgyLUe6Ze9uAEn14-8Vnhy0-1DCNnAAiR0kofF7ZAtgOVqr5IIV2n9hkQ", "name": "Vallabrinksleken", "lat": 59.45853800000000, "lon": 18.04734100000000, "team_id": 1, "available_slots": 1, "bs": 20, "bc": 186, "rs": 20, "rc": 176, "ys": 16, "yc": 152},{"id": "1f570cfa084b45c09e3990985aae02ad.16", "url": "https://lh3.googleusercontent.com/MFPzuRLNs-GMxPyd-H7QcD_gaI40XT7v4f72zrJ6xJBxDPIni5t4wD6VwQDbqjSr2ADc9JhYcPdCdzCvUG439IijzNw", "name": "Eriksleken", "lat": 59.46590800000000, "lon": 18.03607500000000, "team_id": 1, "available_slots": 5, "bs": 15, "bc": 273, "rs": 13, "rc": 244, "ys": 13, "yc": 181},{"id": "221fac227b2038f78d8d4ed8e3ed7293.16", "url": "https://lh3.googleusercontent.com/-PuXHw8SPBTmyHI7pmLwgyvIWuci1KwckwFfpueAGDk40pjgGiCLQVwIjoPQ7qOvz4JCxhat6wwx-8nURjTAm3VPys0WjOFGQGONU_Y", "name": "Roslagsleden", "lat": 59.46628400000000, "lon": 18.00829500000000, "team_id": 1, "available_slots": 4, "bs": 177, "bc": 29, "rs": 98, "rc": 18, "ys": 118, "yc": 24},{"id": "22a5a10eb7714b7b99d8cde586a42fec.16", "url": "https://lh3.googleusercontent.com/qpGYWMA6WBe5VekM8X4NgE6TgnoqrkF4v_Cgq0bSuB-ugICVcvT_44vdfKI3maXlgk9M4pcxctpRgmHShB7HnPuWAw", "name": "Ella Parks Fotbollsplan", "lat": 59.45198300000000, "lon": 18.05279200000000, "team_id": 1, "available_slots": 2, "bs": 21, "bc": 107, "rs": 42, "rc": 133, "ys": 23, "yc": 85},{"id": "238572a453444ff6a4d116e4aa48b894.16", "url": "https://lh3.googleusercontent.com/aCCDvJqlWcYP41bI0YrnxvL56cBdTfFUQsCLEpzdAL3SsSqlucUDhQW7n7pBWtKZKOB1RHZyIDO0IIYpToXo9AeqTw", "name": "Malfunctioning Traffic Light", "lat": 59.48830400000000, "lon": 18.07999400000000, "team_id": 2, "available_slots": 4, "bs": 144, "bc": 18, "rs": 97, "rc": 16, "ys": 183, "yc": 30},{"id": "25237af5d18d492388d4fb15211ae035.16", "url": "https://lh3.googleusercontent.com/_-iNXJ_pw9OU2QwiHMlbSTPRHE6fYmvkjlMl9LwsuSNpc4RHhp_LXOuDfKg48icqEF-qrKAKaH_vrJvjNoeycRg4dfY", "name": "Infokarta Arninge C", "lat": 59.46168000000000, "lon": 18.13142300000000, "team_id": 1, "available_slots": 0, "bs": 26, "bc": 151, "rs": 15, "rc": 130, "ys": 27, "yc": 143},{"id": "2639c8df26394e91a89ab282691043f0.16", "url": "https://lh3.googleusercontent.com/Mw5daHupHo-c_0_9DJ4pIVawUPK2MrCHDAxxUlS_zI3LU1G-hJdZ3ctxjgdGVGEB5_NH4TywZ5sveh0VezH1CvwYUww", "name": "Träugglan", "lat": 59.45241100000000, "lon": 18.08254900000000, "team_id": 2, "available_slots": 5, "bs": 40, "bc": 62, "rs": 57, "rc": 77, "ys": 48, "yc": 62},{"id": "28cd491fa91635a49b96f00b55dc76aa.16", "url": "https://lh3.googleusercontent.com/0maghDCZjaYaAsigO2s1AYJ0VQcu7BQFGOGiBcq62wHf9_zgQr1aHPSMhZRq5mBGWGgD_-LYfI8GIaElpPpU75MrP-A0XvY8Ji_d_SQ", "name": "Skogsslingan & Fornslingan", "lat": 59.46070800000000, "lon": 18.01050200000000, "team_id": 3, "available_slots": 4, "bs": 136, "bc": 32, "rs": 105, "rc": 26, "ys": 86, "yc": 28},{"id": "297831c55a5e46cb8cc50b9a186385de.16", "url": "https://lh3.googleusercontent.com/psdTmlBzkP8O1Mm8tRkIvIQlt0pgMjOd5XkqmwLGZ5skyzxNIZUa77Y2wqIIXmbFPzg8ERx_MSdhKb35GrQMwZlUaA", "name": "Gammel-Eken", "lat": 59.43945400000000, "lon": 18.10450600000000, "team_id": 3, "available_slots": 5, "bs": 75, "bc": 45, "rs": 63, "rc": 65, "ys": 46, "yc": 52},{"id": "2a2868f5adcb43f184a1f40b033f7df8.16", "url": "https://lh3.googleusercontent.com/zQe9_RTmwMT6v19uJ6Zlxpok0yNVJnCgLYawlCZzvIrIkZD_WRhRArlM72AsObeKq7_lZxgfnTurvxheoLzYtu64Nv0", "name": "Gribbylund Lekplats", "lat": 59.46155500000000, "lon": 18.09562200000000, "team_id": 2, "available_slots": 3, "bs": 52, "bc": 86, "rs": 24, "rc": 53, "ys": 52, "yc": 79},{"id": "2a6315966ec34b11833c84d5ef51a939.16", "url": "https://lh3.googleusercontent.com/At18nvCXx3uBCf-njhZvlr08WBc7hxL56mUISCRpHbj4E3lY2IitNCjM5XZCGCPaWYc2eM_Yn_FUxYfFnwgM8a5uyds", "name": "Täby Racketcenter", "lat": 59.44552000000000, "lon": 18.10221800000000, "team_id": 3, "available_slots": 3, "bs": 42, "bc": 90, "rs": 38, "rc": 79, "ys": 33, "yc": 85},{"id": "2bbcba4510af4c728fa22ce5f19cdd25.16", "url": "https://lh3.googleusercontent.com/tEj-jd29GgYQD_GlkHuqNUOBcr-yi5c9seLJsli6DMEvhbEzrQ_45YktJ3kGWjBwk9zv1rv3VQCrlxgn-1dhJfEavdD6", "name": "Skogsleken", "lat": 59.50138600000000, "lon": 18.09068500000000, "team_id": 3, "available_slots": 2, "bs": 48, "bc": 70, "rs": 23, "rc": 52, "ys": 55, "yc": 94},{"id": "2bd49a80fbe54aa2b0592eb165d841a3.16", "url": "https://lh3.googleusercontent.com/Cvl4c7AA53b5Iidq18d-KYVfWDtcAsHvz_APtNkS-eXEVwjoKWYU1YtX9MrXJd_m-mhLiQD6WnUFebwNdkFx1kWu5SKtFXn7qKLC5TU", "name": "Fågelsången Spårkarta", "lat": 59.48884900000000, "lon": 18.09851000000000, "team_id": 3, "available_slots": 0, "bs": 333, "bc": 7, "rs": 277, "rc": 3, "ys": 568, "yc": 8},{"id": "2be9483e8b52408293e20392cdf182d1.16", "url": "https://lh3.googleusercontent.com/WawtHluv8m21yNipvx5Dz3owgaDRbhfrnNp9ZJMfvCcJzrF4fdjMGhxTkDvclBMCTRDdfYSUCMJEljfTrSFO0iQG0Q", "name": "Drakskeppshallen", "lat": 59.43862300000000, "lon": 18.10718000000000, "team_id": 2, "available_slots": 5, "bs": 38, "bc": 64, "rs": 45, "rc": 92, "ys": 41, "yc": 80},{"id": "2c5ce099438b332ba0299e4260d53b4b.16", "url": "https://lh3.googleusercontent.com/tdaDCkIv5tp_GUZxKO4bKL1TaDPk-tKDJd1iUrEOpwRoqDtZ0HnV-0Zc1Dx123wtTBYe-q4tWgQO-DZnwYclnsSXvWttaPFTHnut71D1aw", "name": "Arninge gravfält", "lat": 59.46850600000000, "lon": 18.12080800000000, "team_id": 1, "available_slots": 3, "bs": 39, "bc": 60, "rs": 37, "rc": 58, "ys": 64, "yc": 84},{"id": "2d2a15b772024dcd8ce002188cafd53c.16", "url": "https://lh3.googleusercontent.com/Q-GgXkZykD1vgf09pGYWmtbx4DA2qMx7SHIYB2THUq35JzKFCoFGu64n1tJGbEuNO7jsBLECnJZ6-TlEzRXspl8mT54", "name": "Karby Gård", "lat": 59.47932000000000, "lon": 18.05317000000000, "team_id": 1, "available_slots": 2, "bs": 91, "bc": 50, "rs": 47, "rc": 32, "ys": 84, "yc": 45},{"id": "2e53972e73784fe896bba4ce3246fd68.16", "url": "https://lh3.googleusercontent.com/YOUzVl9WNY-9E-Z6ZhP-45F33QvJOAjZ09l3y7drUJSX-TYxhy2rpvhyoy4tQT_7akIcRApm6bS0wnuaCeM1hqdBmJI", "name": "Ingefasts Runsten", "lat": 59.45538200000000, "lon": 18.00375000000000, "team_id": 1, "available_slots": 2, "bs": 195, "bc": 22, "rs": 151, "rc": 21, "ys": 102, "yc": 23},{"id": "2e9aaeb2fabf45508b3c7e853338d737.16", "url": "https://lh3.googleusercontent.com/x7xtGdGJV37Oe1Guhy0b8D8LfxdnNQuFkyJ-V76oaUlIYI6pNcLawb0Tq8xujUxu7gt5xrj94SgM3QPSYQgihrW6QK0", "name": "Det Stora Ankaret Näsby Slott", "lat": 59.42536000000000, "lon": 18.08630500000000, "team_id": 3, "available_slots": 5, "bs": 43, "bc": 148, "rs": 16, "rc": 104, "ys": 21, "yc": 89},{"id": "337176216cd94a2caa160628aca9d7aa.16", "url": "https://lh3.googleusercontent.com/4uaXuh5ljKNT8X5cHM602O1ncOOypEW89tQ_WZUU_-sls-JDCnHBqHuIQd7Ekzkfm7qzopOBesJrnLMAEeSsctDg30w", "name": "Domarringen", "lat": 59.47517300000000, "lon": 18.09555400000000, "team_id": 1, "available_slots": 2, "bs": 130, "bc": 26, "rs": 156, "rc": 26, "ys": 129, "yc": 17},{"id": "33f3c6984853493e8b80c3ea5ae73142.16", "url": "https://lh3.googleusercontent.com/GrP3oYw9WzyrqYSpN5J3dqoNzYG0UfVpqJUaH3IXyWrmEwAWQYa9SOAlg9HO4xIazVx8uLx67RKSa7z26_HBB7Tpe2o", "name": "Vårfrukyrkan", "lat": 59.43348200000000, "lon": 18.05881600000000, "team_id": 1, "available_slots": 1, "bs": 40, "bc": 147, "rs": 16, "rc": 83, "ys": 22, "yc": 118},{"id": "34eff23092dd43ec825b588eef4615af.16", "url": "https://lh3.googleusercontent.com/sA_C57cPCku-Mfqg3tEuG_lzD5BgMzfFtEPRqToghGFSPQS2GeRMjZo9wIIRUGoFvWhGpQFyk49dM1niX6SlRscLDQ", "name": "Cirkusparken", "lat": 59.44049800000000, "lon": 18.04972600000000, "team_id": 3, "available_slots": 5, "bs": 46, "bc": 102, "rs": 38, "rc": 78, "ys": 35, "yc": 60},{"id": "37ebd70c534e3dcd97f911a71870b024.16", "url": "https://lh3.googleusercontent.com/vt_uLsyr3Re1hSpjPTfUrUSgTGm-u2tmVWzlI1-W-RZaJ1GsIrtL9YZK0w0fgof-2_HhW-6TIO4XZyZ4XTrL4ZvP-MW4PI2tNtRsQ7g", "name": "Gribbyvägens Lekplats", "lat": 59.46891200000000, "lon": 18.09503800000000, "team_id": 3, "available_slots": 3, "bs": 102, "bc": 56, "rs": 29, "rc": 25, "ys": 70, "yc": 49},{"id": "388e766aa69a495f8a46632ac565ac03.16", "url": "https://lh3.googleusercontent.com/NLd2VAO67PrEb6nAyioQKY2lT4Rt7dMnEd_6udW0SIm3NpxXLMNyMX32mUs8O_Xtl22PzqHRxR8vYjwniNB3ek3m4J8", "name": "Ishallen", "lat": 59.44021200000000, "lon": 18.06400200000000, "team_id": 1, "available_slots": 0, "bs": 29, "bc": 243, "rs": 8, "rc": 146, "ys": 11, "yc": 148},{"id": "38971db904a04607868c7c59325d538f.16", "url": "https://lh3.googleusercontent.com/xzgCb7AWeU8Fr-Q79PT2gkbWfPe-pzOmd6ecwxoZv4G1J8eSuykcqkHujNhLpFtdPEdHF5h-S7PS0kN2rHLdD6cZKFk", "name": "Löttingekullen", "lat": 59.48165500000000, "lon": 18.09106300000000, "team_id": 1, "available_slots": 0, "bs": 492, "bc": 13, "rs": 256, "rc": 5, "ys": 138, "yc": 7},{"id": "3aacaeaadfca4c41bf52bf47f626c2a6.16", "url": "https://lh3.googleusercontent.com/FhlIS1z3ZWvt_HfZkurHNslLPPjS7rfiLORF67Ct2Nn5gimBdYDIdi5DPofjrRevVzU5g9Ff_hFT9ImnE2x7BQl5HMo", "name": "Lekplats Ettaskogen", "lat": 59.49837700000000, "lon": 18.07928700000000, "team_id": 2, "available_slots": 2, "bs": 30, "bc": 143, "rs": 23, "rc": 110, "ys": 26, "yc": 114},{"id": "3accf9f036cd40deb46eedf708521e82.16", "url": "https://lh3.googleusercontent.com/d8bF0O7Aj3RXVAYS-g4n56GJPlwwFYNxwx855U8-s7AAOzDBUObRUilN9Wqvucm7Z8NwRbzeq1mYWTYwL3WOIyLgTg", "name": "Täby Tennisklubb", "lat": 59.46195900000000, "lon": 18.04784200000000, "team_id": 2, "available_slots": 5, "bs": 22, "bc": 133, "rs": 31, "rc": 141, "ys": 24, "yc": 112},{"id": "3df5e6f03b60422e9fa01893a0fe99ce.16", "url": "https://lh3.googleusercontent.com/Mgt31WlffBWWDZ64bNOAr8weA3l7S22EOnld3BpNAw6koE8aAi5RKLI-xH6ohcoUQn97BCOGkdYAue5OgPCqQeumkw", "name": "Pallgränds Lekplats", "lat": 59.45823900000000, "lon": 18.08873600000000, "team_id": 2, "available_slots": 3, "bs": 10, "bc": 115, "rs": 45, "rc": 175, "ys": 7, "yc": 104},{"id": "3e6b9a063fa44b6e8e65af637448e828.16", "url": "https://lh3.googleusercontent.com/1IAm1Fa5bH11pnrZ-5Y9qwsjsHHhnVR76ghzQ8wimzdyidSud_4uvU84IgRNBodrnPr2NpK8Tw55Zlepe1KhUs__pSdy", "name": "Hattifnattarna", "lat": 59.46899500000000, "lon": 18.12187600000000, "team_id": 3, "available_slots": 5, "bs": 19, "bc": 139, "rs": 20, "rc": 103, "ys": 32, "yc": 162},{"id": "3f79f46c03544f7ba2bae310ffc88c34.16", "url": "https://lh3.googleusercontent.com/5NIBjvyQOeCQPy8Oa5zoCz78Sh1PmtzWXQbwpRqNVFmBZnkRsTGb_LLMugAqrTGFp9NuyIg-NrDXVx2OPisbLvwfn40", "name": "Estrids stenar", "lat": 59.48184600000000, "lon": 18.04323600000000, "team_id": 1, "available_slots": 2, "bs": 663, "bc": 3, "rs": 868, "rc": 3, "ys": 766, "yc": 6},{"id": "3f9ade64b3cd41e094d4cb009855214e.16", "url": "https://lh3.googleusercontent.com/0uT-jA5TUFt91AjfTN7_RuTVS5TCfnwjXrxEzWavh69GjjTfappfYiY5UKaD-_dBTTHm61eXkdg0EwoP8szO13sph6I", "name": "Upp I Vind", "lat": 59.44361900000000, "lon": 18.13635100000000, "team_id": 1, "available_slots": 5, "bs": 72, "bc": 47, "rs": 51, "rc": 27, "ys": 103, "yc": 49},{"id": "40e7e7c862e2342eb25ed4654b81275e.16", "url": "https://lh3.googleusercontent.com/svVS2O0Vq6WyT8rUozVldoyggMbpYqQjDVdUYg8goAQEMAqcF2yBgtnT-WfP_dqxaCDcqi5IgOaoR5iwoCa6UyKuoDJTMuLPEBksLo4", "name": "Löttingelund Spårkarta och Ullnabacken", "lat": 59.47793600000000, "lon": 18.11214400000000, "team_id": 1, "available_slots": 4, "bs": 563, "bc": 5, "rs": 686, "rc": 3, "ys": 946, "yc": 5},{"id": "427160c1561c3764ba9df977dd7bd53e.16", "url": "https://lh3.googleusercontent.com/s4YLGKTjUaW2q38vtXsRRZo5UVF7u3EIhQp0Nsh3aK8Twt0vNyBMsVDVc_QSzaxllgUplWYACG49kJ_SFQKlmU-cFKJk2qRUgPouDfWq", "name": "Cykelvägvisare Regionalt cykelnät", "lat": 59.45967300000000, "lon": 18.12959500000000, "team_id": 3, "available_slots": 5, "bs": 62, "bc": 18, "rs": 72, "rc": 18, "ys": 123, "yc": 8},{"id": "42cc29e239804e9b96998fcc40bd9fef.16", "url": "https://lh3.googleusercontent.com/ZH7l692FU3KCd6A1D9UzOFvjysYII1N9rPXVvK-7cxpfEAhoJcQROesgkJ8QPULfIUO_xdNWL6SO4Mo3rcLLN3pFK-M", "name": "Daphnes Förvandling", "lat": 59.45033300000000, "lon": 18.12112300000000, "team_id": 1, "available_slots": 0, "bs": 21, "bc": 176, "rs": 14, "rc": 159, "ys": 21, "yc": 194},{"id": "437777177acc4550af1dcb0fb22ada2f.16", "url": "https://lh3.googleusercontent.com/OAmPtMis_rUsLuxKWP7QoPOSyRy4eludGvnV6IrSZ0J0g0k-ETMLnAfdiUfPd8UWsSl4w5v1PXyYctUJg-48IAW17aI", "name": "Tunneltavlor", "lat": 59.43879600000000, "lon": 18.06244200000000, "team_id": 3, "available_slots": 0, "bs": 61, "bc": 104, "rs": 25, "rc": 77, "ys": 28, "yc": 59},{"id": "438d801b2cf54232b60ae50974b7f6e8.16", "url": "https://lh3.googleusercontent.com/yV1unwyLHeZeCWbj8cBvXBv6CZIsHqAH5ImMC8qBbl_UNip-jnOXfsFIK8djlMCrpfuDFyM-bavePrbspK9efm2Be5TB", "name": "Enhagens Lekplats", "lat": 59.44131800000000, "lon": 18.03825500000000, "team_id": 1, "available_slots": 3, "bs": 63, "bc": 70, "rs": 57, "rc": 59, "ys": 44, "yc": 46},{"id": "445f51469e203ef78a554c56074e1a67.16", "url": "https://lh3.googleusercontent.com/rYwOt1ZWtRyqFTkBCMygUeHV63Lw5gtXj-j8S_Pn8EDmrWRepjDJvI-r09v_19SGNEnExZhATwtx6bztoF4IgqU4g3HGf4i8-hpJVftc", "name": "Service info Linjalvägen", "lat": 59.46746200000000, "lon": 18.13284500000000, "team_id": 1, "available_slots": 3, "bs": 58, "bc": 45, "rs": 29, "rc": 44, "ys": 49, "yc": 50},{"id": "44d2d8aada63420ab14a0b21b5d92d60.16", "url": "https://lh3.googleusercontent.com/l67FTKIOALGjGMUYjzDugCrCEh_ejWWEAY2LuXUh6GOjMw7wVG0d_FkSsw8d3ZVYUgmGQl1R-rPyyytxh-ZoKVNOiN73", "name": "Utsikt", "lat": 59.43077200000000, "lon": 18.08690000000000, "team_id": 2, "available_slots": 3, "bs": 46, "bc": 108, "rs": 30, "rc": 82, "ys": 29, "yc": 83},{"id": "460fce5fcbe0413cab8eeb26f55f07a1.16", "url": "https://lh3.googleusercontent.com/uP20KOg-ox5vA_TQNfcnvh6s-XgNM-Y-qnzU8xt-0HqVOaVAo8pW0R7l8gBOP2FNRVhwzpWWu_U978zZkzeKnYFm2w", "name": "Södervägens fotbollsplan", "lat": 59.44820700000000, "lon": 18.10421400000000, "team_id": 3, "available_slots": 5, "bs": 47, "bc": 26, "rs": 17, "rc": 13, "ys": 9, "yc": 15},{"id": "4770831ddd164a41b2b87d89a967695c.16", "url": "https://lh3.googleusercontent.com/ZDny194hXo9m0tBei7eZ3Dt-eAzIAJha-7C3gVqh53Wl4x_RJjMwhZptPqDkPRoz6jV6rhg_iwevaPtJwrvwgr64wtI", "name": "Fotbollsplan", "lat": 59.50116000000000, "lon": 18.07053700000000, "team_id": 1, "available_slots": 3, "bs": 21, "bc": 115, "rs": 22, "rc": 75, "ys": 43, "yc": 133},{"id": "4c0e51c749134236940a7bc9e07784e5.16", "url": "https://lh3.googleusercontent.com/uq9BVQvgSq07Qls-vyEfDaFiC8UoCwqR_wicd8EEnGB01dgxuT0GGqaeLu5jtF-Z_VI63-w4pApO6YlicSiwCRiOiD8", "name": "Riksarkivet", "lat": 59.46682300000000, "lon": 18.12310800000000, "team_id": 1, "available_slots": 1, "bs": 104, "bc": 27, "rs": 76, "rc": 32, "ys": 104, "yc": 40},{"id": "4c94af9291044ddcacbc3cac3969076d.16", "url": "https://lh3.googleusercontent.com/M_wd2VWKIpBwsbutoh7PKNtQNz-GLMzScpT-UNXkVUJXRpob67kYTeKIlCOZ_xLCpWXikj1UPE3ihcqAOeAgYbpIeg", "name": "F2 Memorial", "lat": 59.44557600000000, "lon": 18.13643200000000, "team_id": 1, "available_slots": 0, "bs": 75, "bc": 69, "rs": 43, "rc": 36, "ys": 59, "yc": 52},{"id": "4ca9c00f55804d24bd3369315e458466.16", "url": "https://lh3.googleusercontent.com/nr0ERoubmlxvExyECjRE4bz1TzwbI3cKXcOO-umXs26ldMmpRQN9DHbVxeBAPm1uDadL6QOUCIEFuj9Cgg8bMejkPMg", "name": "Sandlåda utan sand", "lat": 59.46302200000000, "lon": 18.07960800000000, "team_id": 3, "available_slots": 2, "bs": 26, "bc": 121, "rs": 34, "rc": 138, "ys": 24, "yc": 82},{"id": "4d9ac4107f4a47cda411f8b99bb725e9.16", "url": "https://lh3.googleusercontent.com/XSjEGPxJZAiFjii54rFLAXRREuutM6zZkORTIMC5pY4_OuxYPjXx0ROhFmlrQk3daRFaBIfu6XcChbauIcpbImtXraaB", "name": "Ropgränds Lekplats", "lat": 59.43832300000000, "lon": 18.02226700000000, "team_id": 2, "available_slots": 5, "bs": 134, "bc": 20, "rs": 132, "rc": 39, "ys": 63, "yc": 27},{"id": "4e822ccaacbb48358fe0531f13dbb296.16", "url": "https://lh3.googleusercontent.com/MbrUhPfYmxA7xj1eq1hnHazrSmjBAZzVEXHmRAszUVL2Tsp1deya_N-PocuGwIkvzNCs7NBE0vtd_gau7qoHxTMIQ-Iq", "name": "Skogbergafortet", "lat": 59.47924300000000, "lon": 18.07780000000000, "team_id": 1, "available_slots": 2, "bs": 602, "bc": 4, "rs": 797, "rc": 4, "ys": 754, "yc": 1},{"id": "4ec79294be6b4e29821221ff33c997d4.16", "url": "https://lh3.googleusercontent.com/1DMbIcb3Xpa6kjzNVzuvu_94mfl5MwHx2Frgp6SyzRYa8YUqwQ-aO_uVYv05oKrK2AXhdOGqFNygwJc38igRMyFHIA", "name": "Myrlejonets lekplats", "lat": 59.44197300000000, "lon": 18.01410000000000, "team_id": 3, "available_slots": 5, "bs": 30, "bc": 105, "rs": 22, "rc": 46, "ys": 42, "yc": 134},{"id": "51350584886246ea8326f724a10f3e5d.16", "url": "https://lh3.googleusercontent.com/i0y1FLZCXB8cbheplYXBilWYbOENjbmi6qzMtNt6qxd9TyqAe1gljdl--RR5Qhzkxj5LdiUqVZ6E64bx8aVBA0RiwlgN", "name": "Gubbe", "lat": 59.44551400000000, "lon": 18.07221000000000, "team_id": 3, "available_slots": 0, "bs": 15, "bc": 297, "rs": 11, "rc": 246, "ys": 11, "yc": 256},{"id": "5136f1578b0c403b800e95f29cb53572.16", "url": "https://lh3.googleusercontent.com/S8GbxuRGfwQdJRq0099mhmesW_Wb-bFZ3agPZFVJiEVrvYx5VIgg2NjUq6kGyTsGA6qhMOqwxzInwNmFvhN3EDG3EB8", "name": "Rastplats vid Käringsjön", "lat": 59.46099500000000, "lon": 18.00349700000000, "team_id": 1, "available_slots": 4, "bs": 464, "bc": 13, "rs": 119, "rc": 11, "ys": 239, "yc": 7},{"id": "537c8923198c4a03bc206e8e6d36740b.16", "url": "https://lh3.googleusercontent.com/yHrrDQm7pSVKJgH3FNsp5ULnoh0_dP24St071sPItVS4dGH8QLzyhXZmza5cbt8EU8uxshooqgU6S70ZinQL7cWKTmc", "name": "Hoppa Hage", "lat": 59.44591900000000, "lon": 18.10014700000000, "team_id": 1, "available_slots": 3, "bs": 27, "bc": 155, "rs": 31, "rc": 164, "ys": 11, "yc": 61},{"id": "5399c45330ee49f9a5e0091a4664949c.16", "url": "https://lh3.googleusercontent.com/qewrA2UiPwxJ49e_PlIv15T62ifG_tXJexbTBQF6nmJRA3gAisWCTMq_xq5QuUklCqLOzBcu09UOL2zhWfHCr6D-6Os", "name": "Brunnen Näsby Slott", "lat": 59.42395300000000, "lon": 18.08591000000000, "team_id": 3, "available_slots": 5, "bs": 48, "bc": 138, "rs": 19, "rc": 95, "ys": 20, "yc": 73},{"id": "546552fcf1bf43c594b05cfbd531ba3e.16", "url": "https://lh3.googleusercontent.com/py5XEF1_K8mVWIBJwHF9s2mDfVhk2zibubFEa8z4DDBqsW2hJuDINqwva1g3ztdHMhCdG5NJI72y4-fOZkfQLg7b-QA", "name": "Vittrad Runristning", "lat": 59.43333600000000, "lon": 18.06556000000000, "team_id": 2, "available_slots": 4, "bs": 41, "bc": 100, "rs": 38, "rc": 86, "ys": 41, "yc": 62},{"id": "54c6450b98b34e0ea007f485d98f271b.16", "url": "https://lh3.googleusercontent.com/xcsU53CWrl_3tIJNzZ2iE6XA75pSJFSM0DXL9FGm6BjQbK07MgH9T7OtzHEKniCyunWvvpNROxQDGTt7extJo0eQS2Q", "name": "Järvens Lekplats", "lat": 59.45120000000000, "lon": 18.07378300000000, "team_id": 2, "available_slots": 4, "bs": 34, "bc": 142, "rs": 32, "rc": 138, "ys": 25, "yc": 26},{"id": "57fb42384830424bac009f51da50fdfb.16", "url": "https://lh3.googleusercontent.com/xJA3X7hi4vqeKU2kMv4bR7QKYZLDHdCC6pFeiM71i6Sv_i9QCMaj5ymo3EQfmDuYbfuS8CJYdgdMjVIcFfffFN4t7g", "name": "Fontän", "lat": 59.47011400000000, "lon": 18.05264400000000, "team_id": 1, "available_slots": 0, "bs": 186, "bc": 45, "rs": 27, "rc": 35, "ys": 37, "yc": 14},{"id": "59469c44db2541d8a4db0e02e2baaeaa.16", "url": "https://lh3.googleusercontent.com/OwdA_jbYcA6dIDmOc0pq82EFyCL0__Sr-45STH3QNjUttR7S6cgxIxGl7uQ42zDmaOvvZw_yy7S6rdJFZ71SBWgXyq-h", "name": "Karta över Mörtsjöområdet", "lat": 59.45072800000000, "lon": 18.02266600000000, "team_id": 3, "available_slots": 5, "bs": 23, "bc": 138, "rs": 19, "rc": 157, "ys": 25, "yc": 151},{"id": "59f86a714b363fe88576614b50b75612.16", "url": "https://lh3.googleusercontent.com/cGzhQZUXdFbtdEl8sCkCmxceKbplQq5NOaf-_e1rRf6luJmND3glXwIAC56FWpNszDauguLVCaMWXMOG5ITV_MWpQOySMcX7pff7AAFx", "name": "Roslagsleden", "lat": 59.47833600000000, "lon": 18.05683100000000, "team_id": 2, "available_slots": 1, "bs": 173, "bc": 12, "rs": 141, "rc": 17, "ys": 102, "yc": 7},{"id": "5aae36494974425eb290cac3a97ea688.16", "url": "https://lh3.googleusercontent.com/Xm_YRbYm-uGz1kq1eVH6lQJLqGZ0RtjyUeJz5Yu7AocAf9n-zzvKrO55Q9DrkKICQsqYcg02MjbZDtYcGpQCfFqqlg", "name": "Västra Arningefortet", "lat": 59.46334000000000, "lon": 18.12465000000000, "team_id": 1, "available_slots": 1, "bs": 62, "bc": 33, "rs": 75, "rc": 53, "ys": 73, "yc": 53},{"id": "5d505e62ff5043f2b3b8d71e2e76cbef.16", "url": "https://lh3.googleusercontent.com/Pf2HmfnmSJ7u92zCYfYOviVoNWKzjUpLWKQSJ_ei-jyNMMASTHZZX6VM-k2fN89ncP2o4eG3TkMZIHhJVBs", "name": "Åkerby Grusplan", "lat": 59.45378100000000, "lon": 18.07340400000000, "team_id": 2, "available_slots": 2, "bs": 54, "bc": 30, "rs": 253, "rc": 31, "ys": 35, "yc": 12},{"id": "60dc297ebe7c444abcd86865f91376c7.16", "url": "https://lh3.googleusercontent.com/RuqHTXR4xSWiIp8zMmZP6DqPds1AnpuGPrO3E6QYLnN1-Utjsz0bym4SXeIDM7uAJOvJyq0FagforMKOgjksTuKxvA", "name": "Hälsans Stig", "lat": 59.45547200000000, "lon": 18.09150100000000, "team_id": 1, "available_slots": 5, "bs": 36, "bc": 146, "rs": 21, "rc": 81, "ys": 23, "yc": 123},{"id": "60dda02d5ef44619a01846d136d60424.16", "url": "https://lh3.googleusercontent.com/Xyj2SZEnGo3Xpdrx28_K0w0BgPpZyTrKb_IdMPe3A9kX_jiX4gB_9L8C6_KT-X03ONlTD4Lx5c7WWQ0qNSt2IUx2VZHp", "name": "Bunker i Rönninge", "lat": 59.46440600000000, "lon": 18.11521200000000, "team_id": 3, "available_slots": 5, "bs": 94, "bc": 33, "rs": 33, "rc": 13, "ys": 168, "yc": 37},{"id": "620f9b694b5b406b859675296bb42493.16", "url": "https://lh3.googleusercontent.com/mHNaFwlfExQ4YAaI17rgIlVM3wLdZy2BeJiyVM7GlnDDcjpBqDrR8VjFd196U2uEUSU6attclyq4dN6oQaYNK-Wb2g", "name": "Ensam", "lat": 59.43679500000000, "lon": 18.08315200000000, "team_id": 1, "available_slots": 3, "bs": 28, "bc": 153, "rs": 20, "rc": 117, "ys": 23, "yc": 137},{"id": "62d90aa4131d4e18a36e85ffe9e01f85.16", "url": "https://lh3.googleusercontent.com/g6M8AoJUuhnvTw-RpkuwHc8UDWw8_QA4wX1jbpdl_EAw3FlDuf3ZeHrmHaAI64ZSk23dYSR3_mfX4swnK3A3zzUZQnw", "name": "Möbler På Väggen", "lat": 59.44516400000000, "lon": 18.07291400000000, "team_id": 3, "available_slots": 0, "bs": 14, "bc": 324, "rs": 10, "rc": 239, "ys": 11, "yc": 258},{"id": "64646ad0b9304d9db595ac59f9c0d7ab.16", "url": "https://lh3.googleusercontent.com/J2WU-4McDelfnbNyxtG61_kLU7wFBSPWZP5eAjALMwQF84RnErh0A3yH9IgDaaulz6sbbvHeUIaqrgELPzwaxL7Y0EMP", "name": "Röda Pallarna", "lat": 59.44236400000000, "lon": 18.07240200000000, "team_id": 2, "available_slots": 5, "bs": 25, "bc": 158, "rs": 30, "rc": 140, "ys": 18, "yc": 99},{"id": "65257bf700a84aed9efcfb916f9c4988.16", "url": "https://lh3.googleusercontent.com/p-UMbwsHklAsfrKgiZ4LJAfVYaSo7ILIP5FbHzK7wbf9f6UWtbDDHE3J06bWit1Pt9JK2EhPph01oZSj1uWb0D-DGQ", "name": "Gröna Entréer Lovisedal", "lat": 59.45857700000000, "lon": 18.03476800000000, "team_id": 3, "available_slots": 1, "bs": 23, "bc": 144, "rs": 20, "rc": 56, "ys": 37, "yc": 145},{"id": "669cc99f0d49469aad46621feda8e5ef.16", "url": "https://lh3.googleusercontent.com/tEGgklX48CJr2yTlqEU8CjGndopbuvSLpdq7tXLFdICKON3tNfxNF9bPsUb6tp66smcyeBfRq_EQ5Z9rSZuO5WE3QI94", "name": "Flower Power", "lat": 59.45380900000000, "lon": 18.08618100000000, "team_id": 2, "available_slots": 0, "bs": 85, "bc": 31, "rs": 81, "rc": 39, "ys": 99, "yc": 38},{"id": "6721d6bf58e547b28b21373549f33811.16", "url": "https://lh3.googleusercontent.com/R7LuetzV7hQPpq_nvBt7LY55QfHdQj0ok8RVEJjs8xF7YrCF_udzDo2OLnkT4VPek0PhCv2PmbeFnJWfKtAYm4g-Czu6", "name": "Rönninge By - Skavlöten Naturreservat", "lat": 59.45733900000000, "lon": 18.11256200000000, "team_id": 3, "available_slots": 0, "bs": 191, "bc": 34, "rs": 49, "rc": 19, "ys": 98, "yc": 23},{"id": "6784c74a7d274e77b1d8811fa19c931d.16", "url": "https://lh3.googleusercontent.com/QW9n-7A6Bh8pW3tE0d3hq4bmiUOtuRRpbaIQFkBKYlCZQBlx7_6U-rO_Q54hxptk9UFqiLKLwXu3dafhKnKVB7dHnQ", "name": "Ungdomsvägens Lekplats", "lat": 59.45625200000000, "lon": 18.09948400000000, "team_id": 2, "available_slots": 4, "bs": 42, "bc": 63, "rs": 43, "rc": 67, "ys": 51, "yc": 78},{"id": "6817f1d72ebb43dc80173ad6ae0b68ce.16", "url": "http://lh3.googleusercontent.com/PUeDTc98dhN2Zo7vjL5joH3Emm-OFW17hGZTuG8uagcmkGA0VIXWdMnzcMrLWqf2Hr_sOV63NthQDmPa7Hu8tTr1Mw", "name": "Broby Bro", "lat": 59.48082900000000, "lon": 18.04516400000000, "team_id": 2, "available_slots": 5, "bs": 147, "bc": 20, "rs": 58, "rc": 21, "ys": 177, "yc": 32},{"id": "6983c3a2f4d74ba4a9c587451e040104.16", "url": "https://lh3.googleusercontent.com/lY1bKvgWUKkG35OwbxkyeithhDOFnRg7ljZng5kdLYi1xwBNOlSgl3bJZmmO_Bv26doO8LWQYYsW-nCU0fSaCwBoVQ", "name": "Viggbyholms Tennisklubb", "lat": 59.44438900000000, "lon": 18.12289900000000, "team_id": 1, "available_slots": 4, "bs": 49, "bc": 89, "rs": 37, "rc": 79, "ys": 31, "yc": 83},{"id": "69b35865187b4901b0b959772174a29e.16", "url": "https://lh3.googleusercontent.com/xIDsnCq-RRY_ZcOhNik4BsGjbkbMBjid7B74BK8Rr8c0rhZnXSKWrIl81JFGk12Dq9zvQS8rsA6WYBprelhGA4DYyQ", "name": "Torgets Lekplats", "lat": 59.50087500000000, "lon": 18.07060500000000, "team_id": 1, "available_slots": 3, "bs": 20, "bc": 99, "rs": 22, "rc": 73, "ys": 56, "yc": 112},{"id": "6a701fe6356930f3b5ef0788f7783be4.16", "url": "https://lh3.googleusercontent.com/pPKPEJNS5PC5zH0m4Tt913lwpuP0Pci2Ia4uEBTxs_Ia3q_usAKO2kKsEKW5UzfM28i0I11SSxCASjeEzD3CuY7rcfq75DBR2QBXovdO", "name": "Gribbylunds Gårds Ruin", "lat": 59.46161500000000, "lon": 18.09368900000000, "team_id": 2, "available_slots": 4, "bs": 55, "bc": 69, "rs": 37, "rc": 48, "ys": 56, "yc": 76},{"id": "6ac77e1f8d364908a454e675381b9953.16", "url": "https://lh3.googleusercontent.com/3woq-Fu6bl6plqJTmgOr0kVMwW7sX_XI6x1AVeLzs97wh0cpwOT3G-4HT5UvL8TsXRKY_9twCVQ3u39Nkq1Jem3U-oE", "name": "Goose Guardian", "lat": 59.43444500000000, "lon": 18.10886000000000, "team_id": 1, "available_slots": 0, "bs": 89, "bc": 54, "rs": 37, "rc": 35, "ys": 66, "yc": 47},{"id": "6edca09886ea4d3a9175db4b9f1c0135.16", "url": "https://lh3.googleusercontent.com/e5dZnrRfatDVPTfdf8VDwif4P78XDLQEbzmGTzXCO6K47WoVYGQm1V6PWR0kzyv-frMmq2qAumeszKAE5jAoPvU39v0c", "name": "Täby Golfklubb", "lat": 59.50037300000000, "lon": 18.01176300000000, "team_id": 1, "available_slots": 4, "bs": 91, "bc": 18, "rs": 125, "rc": 31, "ys": 159, "yc": 25},{"id": "6ee5108544ab4f41807b7746f36f3519.16", "url": "https://lh3.googleusercontent.com/AmFCcaH2ptp0vJ4z1xuiltztyzlpbHq8Jnx40kIxFJAB5q9OBPxyitGmGRNwIbgyCfUdXZduW4wLJhGNJllW4SC15P4T", "name": "Näsbypark Kyrka", "lat": 59.42991100000000, "lon": 18.09573600000000, "team_id": 1, "available_slots": 4, "bs": 27, "bc": 104, "rs": 14, "rc": 91, "ys": 16, "yc": 41},{"id": "6fffc14000cd3458b157cd1d9c1e32f6.16", "url": "https://lh3.googleusercontent.com/GHcbjtXILgyEP1Td8_DoD8kPrSz3DvZV3btc99y5vfKPrhZdedHCBta4e5Keap0ekkcQfIaAGdEcxhQPjm1kZAU3xA", "name": "Gröna Entréer - Fågelsången", "lat": 59.48684600000000, "lon": 18.09524100000000, "team_id": 1, "available_slots": 3, "bs": 518, "bc": 9, "rs": 103, "rc": 4, "ys": 675, "yc": 7},{"id": "73577aa2cd1446efbcf5d722fc9aa565.16", "url": "https://lh3.googleusercontent.com/fXTkJUZVau5qiaDuRtWMWJrGe_5x-v-bwt2ktuIt0AKheH5djOH33_PF0c5--KH8hJX_FWeYlFxJTMg1untJiBpC1co", "name": "Lövbrunnaleken", "lat": 59.46889500000000, "lon": 18.04466700000000, "team_id": 1, "available_slots": 1, "bs": 38, "bc": 76, "rs": 40, "rc": 92, "ys": 40, "yc": 80},{"id": "7419ef4a5ebc40cdad5beb7f99ec97d3.16", "url": "https://lh3.googleusercontent.com/JvHL4kfsqcj58r0rc5aFl0K-3DtmlZUPb2oQQOnPO104hiM6fxEkVzvL0tHJQDD2o_yfdUNmSuMxxf71opsX5m0sAew", "name": "Gyllenborg Mil Marker", "lat": 59.47227100000000, "lon": 18.11330100000000, "team_id": 2, "available_slots": 0, "bs": 121, "bc": 35, "rs": 128, "rc": 24, "ys": 82, "yc": 29},{"id": "745b11361440416fa343a48e8d810ba7.16", "url": "https://lh3.googleusercontent.com/VOMD8-ofLP7SXghCmFo8b8M3177PuHPxxcJEhVoJLouuGiR9UKop34WZmhRwiRW9o2sp-L8gNV2RBHUU6EzB_gw7MtI", "name": "Lindgården", "lat": 59.49133800000000, "lon": 18.05612100000000, "team_id": 1, "available_slots": 3, "bs": 30, "bc": 169, "rs": 13, "rc": 97, "ys": 25, "yc": 141},{"id": "756306a0ddd44a49903e8c1483f7310e.16", "url": "http://lh3.googleusercontent.com/kaKBaaPsdVzk9YdjCJaT-BC_isRP0tow0bZ86bi9AX8SX1VZidFTU424TDd8m9kd7EWH152XV544UU5DKLoa8N6mSsWE", "name": "Nygårds Lekplats", "lat": 59.50028600000000, "lon": 18.04487700000000, "team_id": 1, "available_slots": 1, "bs": 715, "bc": 6, "rs": 390, "rc": 4, "ys": 388, "yc": 7},{"id": "772d13d4deee46119617e002bf8bd2d4.16", "url": "https://lh3.googleusercontent.com/22jhrdiNksNAyIlBM4l-oHjgyVag1adTWFwHFBZIOCeA4LZa0kshiNa9h2KEKZ8TqiVJ_9TFF01wJcu3RPxxa369oQ", "name": "Rönningesjöns Hundbad", "lat": 59.45638100000000, "lon": 18.10310200000000, "team_id": 2, "available_slots": 1, "bs": 34, "bc": 135, "rs": 28, "rc": 134, "ys": 27, "yc": 53},{"id": "77c83af9730e44c2825c11cd25f601e7.16", "url": "https://lh3.googleusercontent.com/qpkjs74N8bf1z-oPGh-3_nVXjg4DR7B-cWICkL-gjlrYUK4CGcdvD76mpuYx9AYwoRwFEXqgoduU1bS-sMVerwgaGNxt", "name": "Poolparken", "lat": 59.46681800000000, "lon": 18.03640400000000, "team_id": 1, "available_slots": 5, "bs": 17, "bc": 303, "rs": 14, "rc": 259, "ys": 8, "yc": 95},{"id": "7875da605feb48a78d20ae94e3d6d5ac.16", "url": "https://lh3.googleusercontent.com/re1W32tOFxaypm3QfU_McPSLLdLmI9BeLNUYTFb8_Q2X19y5pABu8qHRMUT-Irs_P79ePeGVaURRtCrRKhEeoz28qGyxGUnajIEKgYkF", "name": "Hägernäs Ishall", "lat": 59.44414600000000, "lon": 18.12695100000000, "team_id": 1, "available_slots": 4, "bs": 48, "bc": 116, "rs": 16, "rc": 81, "ys": 30, "yc": 102},{"id": "789c9cb462a640a193b962d5f3c3cbc0.16", "url": "https://lh3.googleusercontent.com/sPLMpHg4S2eYX9AIOXzYV9N7F6DRrfw7YmXnqbQCVageJ0TWEwFa-7D7dzHFfYs9v_t30QMVhXj8nCfr0ts8mOEaUUIu", "name": "Grillplats med vindskydd", "lat": 59.49242600000000, "lon": 18.10377800000000, "team_id": 0, "available_slots": 6, "bs": 200, "bc": 19, "rs": 227, "rc": 3, "ys": 269, "yc": 20},{"id": "79fd2e517acc40a3b41194b9f825fc10.16", "url": "https://lh3.googleusercontent.com/F_m17-7uNI9knUGm9w75ufb_gor3uDp4UiE70ieHJ-fswbDz0-NLBs3MLSKY0VLzIj8zKXcj6uBb7C8RF72Z2guIhAR_", "name": "Näsby Allé Station", "lat": 59.42730600000000, "lon": 18.08522400000000, "team_id": 3, "available_slots": 1, "bs": 26, "bc": 164, "rs": 16, "rc": 106, "ys": 27, "yc": 143},{"id": "7b0f39de95d3456293713b0ce8e30c51.16", "url": "https://lh3.googleusercontent.com/UmPWldjdJwFpIfbHd3S_UXGhR2EcOGYlnTvd4-kWYuta8NLMrGDltOKrApfCW5wiP5wZGJzh50nvVtXJvoB27bK8Npbx", "name": "Gribbylundsfortet", "lat": 59.47105200000000, "lon": 18.08118300000000, "team_id": 3, "available_slots": 5, "bs": 569, "bc": 8, "rs": 355, "rc": 10, "ys": 282, "yc": 6},{"id": "7b74a247756e4c3784b59ddfca2b99c0.16", "url": "https://lh3.googleusercontent.com/UxTCYEF3I5lBdeEDbVSmtQ2B41mjpWsBBBAFjvquR3pRb7oNrxuB2pV8vhqgUMKug15J-grpXtwE2u3RpEtU67yuDVA", "name": "Rosa Tunnel", "lat": 59.44588200000000, "lon": 18.03491800000000, "team_id": 1, "available_slots": 0, "bs": 29, "bc": 114, "rs": 32, "rc": 117, "ys": 26, "yc": 105},{"id": "7dbc5181e42c4fe892c35657fea5a527.16", "url": "https://lh3.googleusercontent.com/bc_ur5LbfKl26DS86c7VS-Eslqgnp8ShFvfrW11ege7Sr1tew0fP99uQFQcGubZrA6A17SrdrPPVYRmf6aiG_yt-YA", "name": "Libbyleken", "lat": 59.45468600000000, "lon": 18.09110700000000, "team_id": 2, "available_slots": 3, "bs": 17, "bc": 48, "rs": 19, "rc": 55, "ys": 32, "yc": 86},{"id": "7e2e754b636e4e3cb3869ec2bae6596b.16", "url": "https://lh3.googleusercontent.com/SiCFO7yWjaS6WaSeuYtxYv3StGXSgCMfgvopNf7H77QvzhFVCDrsQHY5anY57qcDO4ipYabh4rRf-8gCaxNo_S4q", "name": "Här Växte Korn Och Råg", "lat": 59.48805100000000, "lon": 18.06765500000000, "team_id": 3, "available_slots": 5, "bs": 218, "bc": 12, "rs": 171, "rc": 17, "ys": 337, "yc": 12},{"id": "81790a93f4ab4da792d3f60004955939.16", "url": "https://lh3.googleusercontent.com/eL50ZG3b1tEPh3ncxuiRZS908c52A6RXpUfNudJxzP3zLSM2p3xj7O-URvpW-lBB1xToSt8H4ele7_xXUlRNIE8jzK5F", "name": "Kapellklockan", "lat": 59.46257800000000, "lon": 18.08701300000000, "team_id": 2, "available_slots": 0, "bs": 11, "bc": 112, "rs": 30, "rc": 216, "ys": 11, "yc": 174},{"id": "81977ca9226244979a1741b9c6a748db.16", "url": "https://lh3.googleusercontent.com/5Mx75P-2hpgYMrkPAm5fln4-I4bRUE1D8vWouSi5t7oYpGXTEXVNI7Cp9mZjPZMJrKQw2ggBYoaUXZH9XKk6RiD1Tac", "name": "Disaleken", "lat": 59.48524400000000, "lon": 18.05092400000000, "team_id": 3, "available_slots": 5, "bs": 70, "bc": 64, "rs": 29, "rc": 55, "ys": 64, "yc": 57},{"id": "829dc9e905f44b56a6aa643811efe771.16", "url": "https://lh3.googleusercontent.com/C-byO6yR8YYvPMGjkAxgj2fJ4ANItw05ltuFzRkAkI4i--mIKGnS3DU7ZS5lrtkh9DwVMjmhKtdk4wJvPpmXQTKDT5U", "name": "Lekplats", "lat": 59.46280100000000, "lon": 18.08116300000000, "team_id": 3, "available_slots": 5, "bs": 16, "bc": 138, "rs": 13, "rc": 143, "ys": 30, "yc": 196},{"id": "850e0f581fde3ca2b7ee16cd15208fdc.16", "url": "https://lh3.googleusercontent.com/cpasE92ykW_O13i8TC6kHU3xg0Awtl2QgqEJLsnxeZCmg5aLJZX6dahgElwpHY-u62JwH_OO4HYQbY-9e16-9D9eWFqfpe0qoLJC0p8a", "name": "Playground Bastuholmen", "lat": 59.41892600000000, "lon": 18.11049200000000, "team_id": 1, "available_slots": 5, "bs": 148, "bc": 53, "rs": 35, "rc": 15, "ys": 33, "yc": 45},{"id": "8562dc00d4fb48879e0323448bec8f0f.16", "url": "https://lh3.googleusercontent.com/DjTEoKw5hgsSlWB7eYR4QF5hQqnDBO4Jkf-SWa9pGRswvrvqq9g2YOrUhai13Pd8-kADKZTSdua7xNo9GgcCCK1sjQ", "name": "Täby Discgolfbana", "lat": 59.46163400000000, "lon": 18.04883100000000, "team_id": 1, "available_slots": 5, "bs": 20, "bc": 152, "rs": 27, "rc": 152, "ys": 23, "yc": 115},{"id": "85fedeb20b9540f5a044f0140f31f1ea.16", "url": "https://lh3.googleusercontent.com/0_WoFfmVqE35hcws3QkbuJ-cQoeU61_r_0PzSEN6W_m1z5gh6t1fKH3v_gokuOM4hL5NqTKv2Rb7iDn8-n_05TEqIsI", "name": "Täby Park", "lat": 59.44494100000000, "lon": 18.08514100000000, "team_id": 2, "available_slots": 4, "bs": 27, "bc": 145, "rs": 28, "rc": 135, "ys": 24, "yc": 92},{"id": "87c484aa4e38406389890df9928a4ddb.16", "url": "https://lh3.googleusercontent.com/dUZEuQJw_t4apd5y0TS1vviA-UJJFSRQs5YZVsM2TSQk4pJ6Sm-HUEML66kl6GI_db_EcoEfDydBXGZFd0l5ziXBNJ2L", "name": "Tibble Teater", "lat": 59.44281600000000, "lon": 18.06602600000000, "team_id": 1, "available_slots": 3, "bs": 21, "bc": 234, "rs": 13, "rc": 190, "ys": 15, "yc": 177},{"id": "88838789b1f649e9acb04878fa5bb5ce.16", "url": "https://lh3.googleusercontent.com/momBEF1REuW-26Bx-SjGhU57BNHNhzrwsiR9jJpkKYyycDbDWNzZQhVh73ly6OKqG-ZPL__v19rqIfucS0A7liysYA8", "name": "Näsby Slott Stallet", "lat": 59.42284900000000, "lon": 18.08690400000000, "team_id": 3, "available_slots": 5, "bs": 50, "bc": 134, "rs": 17, "rc": 96, "ys": 23, "yc": 63},{"id": "88b6c5f14d794d17a2d0a8f519fb9b73.16", "url": "https://lh3.googleusercontent.com/DpmRhjoUWFOkWr7LXDaxTX_CT6Si9xHLuscf5PuXb_-e5zTaGbvo2Zdwmg0BiJL30eSeiGsATnBzW40pRvO7q-BTOg", "name": "Jarlabanke Golfklubb", "lat": 59.48684600000000, "lon": 18.08329500000000, "team_id": 2, "available_slots": 5, "bs": 132, "bc": 27, "rs": 34, "rc": 10, "ys": 187, "yc": 31},{"id": "899f94c0cdcc484bbef5dd70e3a876bc.16", "url": "https://lh3.googleusercontent.com/3GkwvZCOIdBcO5VabslRzA44btCLUHI0rBVXFK8mXpkE6Hw3FKi0ONfzp3vgcyvpjnsfBoQZT1auKPmPo6jVYKDDnlYa", "name": "Välkommen till Sollentuna", "lat": 59.45565000000000, "lon": 17.99973800000000, "team_id": 1, "available_slots": 5, "bs": 170, "bc": 21, "rs": 302, "rc": 13, "ys": 158, "yc": 14},{"id": "89edc8550cb245a5897a857af9a15783.16", "url": "https://lh3.googleusercontent.com/WgFlss_RgLXKt3MD-EFhfNcgJA8sL-aWI2oimAOHqL3B937lYL9KPSk6IlqqmfbeGLdq297-rSymlcTJ1gzVvlxSrSuefCbAklvR9qH0MA", "name": "Hörnparken", "lat": 59.43538200000000, "lon": 18.06608400000000, "team_id": 1, "available_slots": 5, "bs": 49, "bc": 144, "rs": 16, "rc": 75, "ys": 18, "yc": 89},{"id": "8b9686edaef14d9fb284dbf1a6cdece2.16", "url": "http://lh3.googleusercontent.com/ljvuiOBRqfH6uYan9uAjRcLULCE3f9MPBTRzCA1XoIXTpSaxl_rSEnp2rGnzwbllxzSwXVzIP_Z8JLnGHj-D93KvmH8", "name": "Rastplats Ekoparken", "lat": 59.47715400000000, "lon": 18.00947000000000, "team_id": 3, "available_slots": 3, "bs": 2151, "bc": 3, "rs": 128, "rc": 1, "ys": 672, "yc": 2},{"id": "8c4fb8bec3754b48919a35f0a44b901c.16", "url": "https://lh3.googleusercontent.com/LHN_GuRWdkuVoRE4PTDHvL0vR8SzBbvL50BZjwXkdJJcpJkekmHNaEkitdV8qRyvVv9U4IoWiLjyoaVvzFrDLFyu4Iw", "name": "Rönningebäcken", "lat": 59.44848000000000, "lon": 18.13456700000000, "team_id": 3, "available_slots": 2, "bs": 67, "bc": 64, "rs": 45, "rc": 62, "ys": 45, "yc": 61},{"id": "8c6683273a754aaaa6c516bfbe8a0b19.16", "url": "https://lh3.googleusercontent.com/DFUbPJmHVBJGMEKyX8m6dUP7snccoTtw3GS517zQIo66nJqlw-0x9rxT64Z6MFKbloihGWRL7ftmkf7sth4LEqSBpg", "name": "Gribby Kedja", "lat": 59.46268100000000, "lon": 18.09072200000000, "team_id": 2, "available_slots": 2, "bs": 13, "bc": 147, "rs": 20, "rc": 235, "ys": 15, "yc": 219},{"id": "8ea657457bef4308b66e9fe83b1ea055.16", "url": "https://lh3.googleusercontent.com/NsSd4WtXZFis97KP_6IshDy-T52WYIYoKtlpxlkzqtBHvA89jTzjHmgoxii7gn_WKZgPEgmn33Oq1cvldV1pjQKR_ac", "name": "Lekplatsen På Stenkilsvägen", "lat": 59.49612400000000, "lon": 18.07679400000000, "team_id": 3, "available_slots": 5, "bs": 35, "bc": 105, "rs": 13, "rc": 107, "ys": 34, "yc": 142},{"id": "8efe324786b44317b5d939bb60089a66.16", "url": "https://lh3.googleusercontent.com/UgOtckbSZfHwlC20t0Fi6OCsXADEyoVylhUWkstLhWOY1YOTkP3xxU0z6ChlWGsMYMETpuAveKp05pgp_dqi6-5JxA", "name": "Såstaholm Slott", "lat": 59.48267000000000, "lon": 18.03844600000000, "team_id": 3, "available_slots": 4, "bs": 87, "bc": 43, "rs": 71, "rc": 46, "ys": 112, "yc": 25},{"id": "924fda91e3884b6cbe73341cd7b5a278.16", "url": "https://lh3.googleusercontent.com/4YEfNxeNZExjwqHlku-Rw2QppLH0wg7WwlaIwZs7qfrKgjHYyeuh9BbUU9tH9W1sG05SGujQjuY81HCvpUPmAjmwjA", "name": "Järnåldersgravfält", "lat": 59.48929200000000, "lon": 18.07781400000000, "team_id": 3, "available_slots": 4, "bs": 148, "bc": 29, "rs": 45, "rc": 13, "ys": 123, "yc": 39},{"id": "939c11df9fea4016b848a2f3c2ee5bd6.16", "url": "https://lh3.googleusercontent.com/xOD0I-P0SunEQ7WyKr-Oo4q2nRVZado5z2-8TURs3Jzwk5ozxZ2GLcFG2WRzyn-R8n_383d2wtbPNSyjs1Aq1SJEpWDt", "name": "Sandleken", "lat": 59.46890000000000, "lon": 18.03533300000000, "team_id": 1, "available_slots": 5, "bs": 21, "bc": 239, "rs": 22, "rc": 204, "ys": 7, "yc": 27},{"id": "93f5d38629cc4172a2990cb66cef75d9.16", "url": "https://lh3.googleusercontent.com/tkRFavkTcmbUbfb9DPR5wN1hqUm7uSALFvGAI1YNNlU11pYc3l9pwKWC_8xVVdGx3lmcjJC-5LZb4HDLh4vXmjacsA", "name": "Här Brändes De Döda", "lat": 59.48509400000000, "lon": 18.07370700000000, "team_id": 1, "available_slots": 5, "bs": 302, "bc": 7, "rs": 633, "rc": 6, "ys": 376, "yc": 9},{"id": "9460e785aa304135a9694838b3b01435.16", "url": "https://lh3.googleusercontent.com/V3QI6uYpc403hSceK-qSvqDXYMY2QKqPF89TqCKCZ3UBSMYUsko2o3RkTwLN8IAn_nP-jMSRDlkTacNcnbTogmdTKA", "name": "Tibble kyrka", "lat": 59.44329900000000, "lon": 18.06657000000000, "team_id": 2, "available_slots": 4, "bs": 17, "bc": 244, "rs": 16, "rc": 232, "ys": 13, "yc": 151},{"id": "953e4acbd1bd3b879b55a9e038e069fa.16", "url": "https://lh3.googleusercontent.com/kpcQ_a_6-O7EspBCZbAC2AsHC4XV_Iabx5Gg8rVAh0p9K6OjUTY_JanV5UYxe4lAx9Ow8MF9eUUXqImtNijjMqcUu5t0Wwx7kEaSdkorfw", "name": "Södra Viggbyholms Badbrygga", "lat": 59.43664100000000, "lon": 18.12445800000000, "team_id": 1, "available_slots": 5, "bs": 82, "bc": 25, "rs": 71, "rc": 23, "ys": 108, "yc": 36},{"id": "95e21e03c6ea4554b513a17fcaaabde6.16", "url": "https://lh3.googleusercontent.com/284Jd2MxasrNsV6UZROXzOy3c7iYels4J1heQz9prwtqD5ol-I5jJA_adi6HhvkYE1JiVQNTtqPyS0DmOrPSU9NTaQ", "name": "Karta Vid Mörtsjöbäcken", "lat": 59.45324300000000, "lon": 18.00663100000000, "team_id": 3, "available_slots": 5, "bs": 85, "bc": 51, "rs": 54, "rc": 48, "ys": 69, "yc": 43},{"id": "961061a4b96c41b1a78e154a3221a824.16", "url": "https://lh3.googleusercontent.com/zjLQWw8uNxMAFG-5R3JTiw0WF4tRZbY_4kHsOl1GVGfEKw7zGEADm1ujG2-Mc5MKMeta7qd5q7V1_qROBl1b_G_AfOJW", "name": "Utomhusgymmet", "lat": 59.46349000000000, "lon": 18.04915300000000, "team_id": 1, "available_slots": 4, "bs": 31, "bc": 115, "rs": 35, "rc": 120, "ys": 24, "yc": 87},{"id": "968b989f21a34a95993e4cd635db66be.16", "url": "https://lh3.googleusercontent.com/11R1pAN6184CzgC9MPvK0vSbgMizdjqTEg-fYrXj_7vAwlqWITZjm57rmuSW4ipKKrYJ_p9Ig6lRPHGgzzLBC9TZqg", "name": "Runborgs Lekplats", "lat": 59.50151000000000, "lon": 18.05735900000000, "team_id": 3, "available_slots": 5, "bs": 18, "bc": 259, "rs": 6, "rc": 30, "ys": 19, "yc": 260},{"id": "970327deabe448ef9308e61b2f4de083.16", "url": "https://lh3.googleusercontent.com/6kTAdy-5JPi-ImUSVQ5EMR6Vn8L0GsKh8v0wJAKVuFDup_07ypG5xx8kPvyoJpHHA-pjUTqDbKZx2KmhP1gyZC9jzQ", "name": "Visinge Station", "lat": 59.46211100000000, "lon": 18.06290300000000, "team_id": 3, "available_slots": 0, "bs": 21, "bc": 108, "rs": 19, "rc": 127, "ys": 33, "yc": 158},{"id": "9767486c49484af6920f9414899ce9ad.16", "url": "https://lh3.googleusercontent.com/BGcy5O69_iiBXn16fysEJTieIxYld9jP_abHP-YcvRwieiUXt1ErxTZzc3caAd-AQNuxOIGeIv2wzr6f129FKOAaMQ", "name": "Skylleken", "lat": 59.46566900000000, "lon": 18.05482900000000, "team_id": 2, "available_slots": 3, "bs": 59, "bc": 56, "rs": 84, "rc": 60, "ys": 35, "yc": 36},{"id": "984771ab755d4d82942c8649ad84c8a2.16", "url": "https://lh3.googleusercontent.com/-qHuYisVoQf9Skc4wMa5H7AWVAQAgKCI_qFJrDsjenFrzPWHTOz0pUkRK61sWMXEoVm7WRq_EKrqqqa_gZp-LRZ3Pw", "name": "Klockstapeln", "lat": 59.44340200000000, "lon": 18.11462000000000, "team_id": 3, "available_slots": 4, "bs": 89, "bc": 44, "rs": 75, "rc": 27, "ys": 101, "yc": 38},{"id": "985810537d7f323c8f51344c7ceb2a43.16", "url": "https://lh3.googleusercontent.com/3EwmDpM5-g33otj3C3EtAQuudJXoI1SRjxMWZuYgaTVHQjzQvUikqCquo_YzpBiFp3GyYd-jUb68XY0EA6ai71UNuYmVWCxzpSXhyeA", "name": "Arninge Station", "lat": 59.45826900000000, "lon": 18.14078700000000, "team_id": 2, "available_slots": 1, "bs": 23, "bc": 181, "rs": 14, "rc": 172, "ys": 22, "yc": 153},{"id": "99cc9c9040734ea6966b5b433bc04a47.16", "url": "https://lh3.googleusercontent.com/FBG7HHSFDyFRt0Dtf8jpVtZtcZCr0BSPJ60PaQ1-zu_O0hjUHwGI6bGPGIjvfrCOFk8m6eleSfu2pTWBDzpoDQ92Bg", "name": "Milsten Östra Ryd - Norrtelje", "lat": 59.47399300000000, "lon": 18.12006200000000, "team_id": 1, "available_slots": 0, "bs": 44, "bc": 66, "rs": 42, "rc": 94, "ys": 37, "yc": 79},{"id": "99e34cd87975464d82761c0656a49782.16", "url": "https://lh3.googleusercontent.com/8AkP196eo-T0x_NpgNuF1qiBa5F1Jeg265ycJnHhyL7h3TlRG2Mq5o6QYJKolSfC7gxPmrSKTLkclWcbAmjbcqT5j1Ba", "name": "Farmers Market Mural", "lat": 59.44568700000000, "lon": 18.07323700000000, "team_id": 3, "available_slots": 0, "bs": 22, "bc": 222, "rs": 15, "rc": 180, "ys": 15, "yc": 163},{"id": "99fbbf80df7f32e5a13bd40a11bae178.16", "url": "https://lh3.googleusercontent.com/EJ6HP3AklqVuzdCwt3g6Iugy3tfiOLL4NsY_Ci-pxfWJ02vMIV8ol8z7cQ74MfRFjoSBAoGvgBR764M7o13bH5uBqqAtEINqkOroLG9s3w", "name": "Tipi", "lat": 59.44297400000000, "lon": 18.08514300000000, "team_id": 3, "available_slots": 5, "bs": 18, "bc": 364, "rs": 8, "rc": 238, "ys": 7, "yc": 227},{"id": "9c4f829831bb410fb68e2abe06a23b65.16", "url": "https://lh3.googleusercontent.com/aW-YhwpluqxrEKTZTxBseYaAOCs6OkBfquQqU0GsLuFN8vw2o0C5zMCwm5PlCeuuRyeWDE9Gcx3RGu_eRF-wEcyUSw", "name": "Båtmanstorp", "lat": 59.46373500000000, "lon": 18.06847100000000, "team_id": 2, "available_slots": 5, "bs": 61, "bc": 72, "rs": 48, "rc": 76, "ys": 43, "yc": 41},{"id": "9dc61cc297554b35a6fc260680273ab6.16", "url": "https://lh3.googleusercontent.com/7yhtYus-OFS_bHF8R4lUNtoXA68lw0j9DgmtJ6InyeTO0yAz_rH58MzG_ZrC9oweVtOGHC9-Uat9gpEuFCCMqGpnUgU", "name": "Diamantens Lekplats", "lat": 59.49971400000000, "lon": 18.08065500000000, "team_id": 1, "available_slots": 5, "bs": 6, "bc": 125, "rs": 34, "rc": 240, "ys": 7, "yc": 130},{"id": "9f195f5b59ae447b8bbb481a389e73a3.16", "url": "https://lh3.googleusercontent.com/MaW9tgQ9iFiCUfevToH0CaLvpa7daPffoMwKDz5Kd7mZna3cePR8DGK49JwnX6pHayRTjoaCpUvAPdn6Rm1fLQ2K7IvtQ9NmUfEaIIYn", "name": "Lekplats på Tenorvägen", "lat": 59.45420000000000, "lon": 18.03762200000000, "team_id": 1, "available_slots": 0, "bs": 81, "bc": 73, "rs": 50, "rc": 69, "ys": 50, "yc": 9},{"id": "a0bd120430f9458ebf4db4fd3e4252c1.16", "url": "https://lh3.googleusercontent.com/fCVps8rG9naPJjaNXlwt3au4IHVdcwM1yqOGsldZQn1wtdgRjZg17_wRZK6j86UO7PwnXIs_MuM_F1CZSwiY_JVJYA", "name": "Parkvägens Lekplats", "lat": 59.42617600000000, "lon": 18.09976800000000, "team_id": 1, "available_slots": 2, "bs": 53, "bc": 111, "rs": 20, "rc": 83, "ys": 33, "yc": 68},{"id": "a0e8ffb7533d4c29bc97518ad5770379.16", "url": "https://lh3.googleusercontent.com/CA-GF0l2UWPhbrVqhlxfbrpHGTRh7YHLRy9vEQ2ZcSO1p7G1v4aef8Ysp3uILixFEx-WEQqQpnVwExqRPF6IOG5rAw", "name": "Ullna Milsten", "lat": 59.49084500000000, "lon": 18.13461200000000, "team_id": 2, "available_slots": 0, "bs": 333, "bc": 1, "rs": 6409, "rc": 1, "ys": 0, "yc": 0},{"id": "a196a6dc099343978f44638af40acc80.16", "url": "https://lh3.googleusercontent.com/FX6GGRrUO7vCUprXd93zIKkMiUzzO8ECc2jd8MMBOYK0fSbFO7Z3RnwUeAvdgO5Z_6LpCQIUQdZ-2MzeMDEHr_GUxtCV", "name": "Lansen", "lat": 59.45673000000000, "lon": 18.08467700000000, "team_id": 1, "available_slots": 0, "bs": 60, "bc": 51, "rs": 48, "rc": 40, "ys": 82, "yc": 60},{"id": "a21f3b955c17418b9b0bf8bb94f8bce1.16", "url": "https://lh3.googleusercontent.com/aZ2fR06UrPHgtA2O4gsO1VzyeyiscVKaL8PRLfbiVum57vwhsBOVpMXddw0doC1sS_ZO3xb0jr92NaOV4UHyX38eJaRT", "name": "Lekplats Väpplingvägen 1-51", "lat": 59.46652200000000, "lon": 18.04122800000000, "team_id": 2, "available_slots": 3, "bs": 9, "bc": 249, "rs": 29, "rc": 246, "ys": 5, "yc": 73},{"id": "a399baa9af1e4feeb4e8c885c9f4ce8e.16", "url": "https://lh3.googleusercontent.com/HpMSDHaon-9Kp_dBwuA4SQUZPjgx_clP3G46clyMjCbZW1llwNmPSk0DGWS0DUQ0_9jeu6hdPPI6zlIhxns2Tsm8Rqo", "name": "Revolver", "lat": 59.44402400000000, "lon": 18.07419600000000, "team_id": 1, "available_slots": 0, "bs": 24, "bc": 190, "rs": 20, "rc": 152, "ys": 17, "yc": 138},{"id": "a5c0dcb367d04062a52546ad5feac9ad.16", "url": "https://lh3.googleusercontent.com/Su3lMvKjOjDQO_NVs7bVIqmulBvoSTeMP1vguaG6YEQL5QEz8vO5J5uyQldm50-uQOzwrqESiN4XyKr_e6n82mkdtS8", "name": "Täby Kyrkby Milsten", "lat": 59.49464700000000, "lon": 18.05728900000000, "team_id": 1, "available_slots": 4, "bs": 22, "bc": 145, "rs": 22, "rc": 152, "ys": 22, "yc": 149},{"id": "a5c6fdab57f63f8aba843f7c3a9bb986.16", "url": "https://lh3.googleusercontent.com/0kvY0Or9UZkjYa3PpSEkYVTbkERaIZFz8jDvIZnXryaWp9ZUejP100n2jejhOt3uxXKnj-xvwgUrwi0REgRsff3yzSgpka5Rd3og9Fg", "name": "Sopranleken", "lat": 59.45261700000000, "lon": 18.04110800000000, "team_id": 2, "available_slots": 4, "bs": 38, "bc": 99, "rs": 50, "rc": 102, "ys": 39, "yc": 27},{"id": "a648a5b0a1e54e19984198d304149f2c.16", "url": "https://lh3.googleusercontent.com/_FLyl3sd4mJ4tCSpR0QhSCG_v4wDIkeiOF5ZJavVKxAtNOYF-QvRtryR7DYkfQ4rW7aO05SswdMnrgXk-biW2BHgLEs", "name": "Cymbalen klingar", "lat": 59.43234300000000, "lon": 18.07262200000000, "team_id": 2, "available_slots": 4, "bs": 72, "bc": 78, "rs": 37, "rc": 48, "ys": 48, "yc": 48},{"id": "a6fa72c15d5e44aa941a4385c9716bc6.16", "url": "https://lh3.googleusercontent.com/hEi1manWnu0jU8LtevbSCnUw8S5Cmk2VWdOOPeIkfmXC0gMGGVhNIFGFR02oLO5rqOUE_n-vlU-MQ0F8W5DCqJGGs8j8", "name": "Mörtsjöskogen Info", "lat": 59.44930100000000, "lon": 18.01385200000000, "team_id": 3, "available_slots": 3, "bs": 53, "bc": 72, "rs": 38, "rc": 60, "ys": 52, "yc": 69},{"id": "a75984c5641f455393645deaf0488ed0.16", "url": "https://lh3.googleusercontent.com/Y_WcJKNpS5HoAfyC6-bxmPqdu3_FpKNuQorKFUIgqIHJbPmw-46PyHPC4fOcr_459D1rrTYUaOLSAoCH3QffLEHs0VE", "name": "Ogräsleken", "lat": 59.46577200000000, "lon": 18.04070200000000, "team_id": 2, "available_slots": 3, "bs": 8, "bc": 99, "rs": 33, "rc": 216, "ys": 10, "yc": 178},{"id": "a81adbfc9b044957a9e44d8a434497d8.16", "url": "https://lh3.googleusercontent.com/PkF3NYEjjLy8pjyn3695CuEFR4WjvG-ffOTf8e4afkuqlPB0k7VMdX2_84r44JC16GXLLeZS8cBBBIMSH0cnw9YgN8N_", "name": "Alsumpskogen", "lat": 59.45744300000000, "lon": 18.07790600000000, "team_id": 3, "available_slots": 0, "bs": 74, "bc": 27, "rs": 88, "rc": 43, "ys": 103, "yc": 37},{"id": "a86835fc0ea842c1a501ba781c4f7143.16", "url": "https://lh3.googleusercontent.com/ZU4worswnQyQpWVk8bwApWedsxobVdaOoT2pDCWCBrLYid38Y4CmmH9kD9g2jUbDXztR7FHbH4_gktoO3E_ubUrqZL6L", "name": "Ullnabadet", "lat": 59.47316500000000, "lon": 18.14149100000000, "team_id": 1, "available_slots": 5, "bs": 107, "bc": 9, "rs": 234, "rc": 3, "ys": 145, "yc": 6},{"id": "a8fba516080d49508b14c22f02c19770.16", "url": "https://lh3.googleusercontent.com/dMd6cUJSuvhPBqfEtK0iDTjAdkfoAC-4uTsYaDCw2fkpyZkraEuU9iF0t2fF1FR2rv5f2PcxLd11s-tqvAFzs8zpRw", "name": "Klubbleken", "lat": 59.44428100000000, "lon": 18.05800300000000, "team_id": 2, "available_slots": 4, "bs": 19, "bc": 24, "rs": 60, "rc": 120, "ys": 21, "yc": 103},{"id": "a9dbf60189ee4c19a5309376abf8f49b.16", "url": "https://lh3.googleusercontent.com/XXarWNK9Cllhz3F0m3fvz1Y7i01poIACeOZ2rJw5fziBEavBioKyO_ypBAHQG1vR1uOTYmkao1SM09aO9qUJtILtqJo", "name": "Möt Forntidens Folk Och Vacker Natur I Täby", "lat": 59.49032800000000, "lon": 18.06393100000000, "team_id": 1, "available_slots": 0, "bs": 40, "bc": 73, "rs": 23, "rc": 38, "ys": 66, "yc": 92},{"id": "aa781c326d8948dfbdf930487a4648a5.16", "url": "https://lh3.googleusercontent.com/3oK91Kal25jPgmSe1OcQCMgvFixseNyBIpSuTCb9DtcSJczB4mN-4DAfFt0Xy858z2fq9AzpUx3tq1tm7H0sZtvjAA", "name": "Om Hägnadslag - Gårdar I Grannsamverkan", "lat": 59.48942500000000, "lon": 18.04669200000000, "team_id": 1, "available_slots": 4, "bs": 69, "bc": 51, "rs": 59, "rc": 30, "ys": 87, "yc": 52},{"id": "ae9a11a005bd4c9a8117c60880e41181.16", "url": "https://lh3.googleusercontent.com/fy8e0mAPXASEhiPp43-hlzMFYv1ETbL8-fHctym0QOz_5qRFPXTwA0k7-WpOvhJeca73CPlb3J1vdXyPt1nIZmY4Lh4", "name": "Torpet Stolpen", "lat": 59.46321700000000, "lon": 18.06836000000000, "team_id": 2, "available_slots": 5, "bs": 65, "bc": 59, "rs": 61, "rc": 62, "ys": 58, "yc": 37},{"id": "aee9f3d1b0cf478f9e95e4e0ae524a91.16", "url": "https://lh3.googleusercontent.com/txxti651h6PPogI7A_gMaTGr-uHzf4lFAAAlLK9k7cXn0IoMnyQxfdo0upRWbiqcLvl7FXWELS63bYm4vZwvHo04tZH2", "name": "Björkpelarsalen", "lat": 59.46335900000000, "lon": 18.06405200000000, "team_id": 3, "available_slots": 0, "bs": 47, "bc": 83, "rs": 35, "rc": 91, "ys": 33, "yc": 83},{"id": "af7f47e2817144018df56a236b051a52.16", "url": "https://lh3.googleusercontent.com/5NcyZ82h8XScNyXMzknpeuwnlPzTN-vYbMXo7RbwUrd_LjNeiEzMVwv-M1hFVKX_RR8WvUCd4CS3FbTwzdR5jH_tvSAS", "name": "Näsby Slottspark: Ankaret", "lat": 59.42456200000000, "lon": 18.08878600000000, "team_id": 1, "available_slots": 5, "bs": 54, "bc": 125, "rs": 19, "rc": 96, "ys": 26, "yc": 48},{"id": "b14cc11c24504c5ebe93428ee4170f05.16", "url": "https://lh3.googleusercontent.com/iSlXMsd8N5ofmeTcZrqyLqfxuvk26ST3p2TXvOjpE1miVQ7hoOprYKM0WTPCaAhQ5QcSSDwSue2TROX7l6m0y8SeUA", "name": "Ett Par Trollsländor", "lat": 59.47348100000000, "lon": 18.13415200000000, "team_id": 3, "available_slots": 5, "bs": 36, "bc": 31, "rs": 54, "rc": 27, "ys": 148, "yc": 49},{"id": "b33c6c3db86140948e29de6a3ccabaea.16", "url": "https://lh3.googleusercontent.com/l5P0Pf-HrbZ6i35aD2ceHqGGps0P_yEqRR-dTfW-mi9s60TiK6MiI3tX3EURgjiJ4io5fJITI7MCX7ctiilDV6ZZ6Ym-lMOk_HurRL8A", "name": "Lorensviksleken", "lat": 59.43750900000000, "lon": 18.11359100000000, "team_id": 1, "available_slots": 4, "bs": 84, "bc": 47, "rs": 61, "rc": 33, "ys": 78, "yc": 49},{"id": "b39349c784f3328a837d924c1a8d8354.16", "url": "https://lh3.googleusercontent.com/mOYwGe0CF2lA4Jm8fC6Ma_z0qyIMkXgEu_2sOp9wV5paiX5JdHT5XSPm8fiS3aEknkfkqzjMvVM0EJVf0v0rNu-EDOpN9lZb4SzbQmpJ", "name": "Picknickbord på Ängen", "lat": 59.49679400000000, "lon": 18.08503400000000, "team_id": 2, "available_slots": 5, "bs": 26, "bc": 117, "rs": 34, "rc": 130, "ys": 24, "yc": 96},{"id": "b60f6334c28936b5b80f960cb50c7388.16", "url": "https://lh3.googleusercontent.com/zdaM12XovINOic4DSft8P1o3354d4KP5It20gm-GdmugnJ0zjxlTyHzbPKaoAEidV0m7n-pJW-2ZTcpsAr-xwozxmszmgxTrr5GXdFew", "name": "Roslagsleden markering", "lat": 59.47705000000000, "lon": 18.07206800000000, "team_id": 2, "available_slots": 4, "bs": 273, "bc": 12, "rs": 269, "rc": 13, "ys": 321, "yc": 7},{"id": "b6699c01c26944dc806f26e13e0b9aed.16", "url": "https://lh3.googleusercontent.com/zAeAS1aOTV6_CRrQqpc_O7LGecNzcEIZ9XfYqbsqBuzLdBTqppzgvo8Orm4VOHDHLBxI-JOvp-gQLXDUU_ZBigb0Z6Q", "name": "Water Pylon", "lat": 59.42612800000000, "lon": 18.10454200000000, "team_id": 1, "available_slots": 0, "bs": 52, "bc": 118, "rs": 19, "rc": 78, "ys": 32, "yc": 69},{"id": "b8397793280949e6ab5e4bba0c377cca.16", "url": "https://lh3.googleusercontent.com/ea-kFjMZq3qTz0KWwz0s50gzWH_yKhb-pheJT7G3YYqqgPzqUuMEkSBHVQmfObuWobpK21hukNxajUBwphmGAUsX5io", "name": "Lahäll Station", "lat": 59.42412100000000, "lon": 18.07436000000000, "team_id": 3, "available_slots": 0, "bs": 51, "bc": 95, "rs": 20, "rc": 74, "ys": 49, "yc": 70},{"id": "bd4df2db9a75477fa9bae666e3c6ef7c.16", "url": "https://lh3.googleusercontent.com/EYM9bl8DyaJQBxJcvj-NX3oeiOoeNrplk_yU7CCheNpXBIxCzn5jt2eZyiBSK8_6MOasUwR7XjX_9VWhK3cabNtJUtk2", "name": "Stor och Liten", "lat": 59.43933100000000, "lon": 18.05285500000000, "team_id": 1, "available_slots": 5, "bs": 36, "bc": 100, "rs": 34, "rc": 75, "ys": 40, "yc": 92},{"id": "be618c244ffc4646aaa4efbe2dc28e62.16", "url": "https://lh3.googleusercontent.com/CTu75UcG6eYNE3-Rprua7yAB5_UwgVMlvfjfRDupbq88_H2-a23uXLc5UVovyiHZZRQkzOOo_eEwFJ_OeatBuzFvZA", "name": "Stone Sculptures", "lat": 59.44190700000000, "lon": 18.05885900000000, "team_id": 3, "available_slots": 0, "bs": 43, "bc": 59, "rs": 52, "rc": 74, "ys": 50, "yc": 69},{"id": "c03cc76236d54f799fa96b681a1b6343.16", "url": "https://lh3.googleusercontent.com/g0XHl_L225BUPxPXP3aLKPkJ-XNDg2eCdGqWw8hcvLUDJeIiRRK7br_mVqdVf8dLX0slNKWrv8FhjVegwp8UDm1YmBg", "name": "Runsten 147", "lat": 59.45510600000000, "lon": 17.99848700000000, "team_id": 1, "available_slots": 0, "bs": 75, "bc": 4, "rs": 285, "rc": 3, "ys": 515, "yc": 3},{"id": "c37ee554965b4e60a1a12f2e6248f6b0.16", "url": "https://lh3.googleusercontent.com/XyElDpCCMEEk8H0vxzNgp-VDvoH1wsoZveuWhPFCaCV8GOY07-inkZ0srem-0CKvER2u-t0rktF8MIqqO-5azB1uyfQ", "name": "Gravfält från Järnåldern", "lat": 59.42887800000000, "lon": 18.08115700000000, "team_id": 1, "available_slots": 0, "bs": 57, "bc": 76, "rs": 32, "rc": 58, "ys": 51, "yc": 65},{"id": "c4b42b1384454798b7a7ef5c7afd2933.16", "url": "https://lh3.googleusercontent.com/LvnH1SSMfI5ZQoTpVc04XPfUf2szS0yebkWsXIN_z9alCdO8KAqlefdC_WXocD6o8CDhzIg0zGXBzYnckCnQCQa2Sw", "name": "Biblioteket i Skarpäng", "lat": 59.44641200000000, "lon": 18.03229900000000, "team_id": 3, "available_slots": 1, "bs": 7, "bc": 272, "rs": 9, "rc": 171, "ys": 19, "yc": 337},{"id": "c695c14112094cb5a1a2b85b7a97d73f.16", "url": "https://lh3.googleusercontent.com/Ir29e44FtdJ1ojzoVLKwz37i1iLK5bOkTXZFvun3kcNtA66JkRJzXNK8eRg3-itec7so-t2egQNfoRUiknABAm6SxmKb", "name": "Fotbollsplan Skarpäng", "lat": 59.44579400000000, "lon": 18.02297600000000, "team_id": 3, "available_slots": 3, "bs": 36, "bc": 173, "rs": 20, "rc": 95, "ys": 14, "yc": 123},{"id": "c69e4b4c4de34e5a97e33ae17662be23.16", "url": "https://lh3.googleusercontent.com/NCv1vHv6d7SqyuA2CANI_TQBElTx6uC1STOqKAJSzqSXjBPykV4RJvPVBpserAemmLyzHzgjJ4mXrMVrVyCeRPpK_kRK", "name": "Varggropen", "lat": 59.47244900000000, "lon": 18.10946200000000, "team_id": 3, "available_slots": 0, "bs": 279, "bc": 11, "rs": 151, "rc": 14, "ys": 301, "yc": 15},{"id": "c8145fab019f4323802e03a138097e53.16", "url": "https://lh3.googleusercontent.com/YTW3bsBIj8f4fxvt2qb6qp7CLH-LC6PHMMxxrAvZslNYcX1lSIZEkXRwWEcA7FU65qnvW9kfi11y7wpfUPQoEfDZcw", "name": "Arninge Golfklubb", "lat": 59.48389500000000, "lon": 18.12722900000000, "team_id": 1, "available_slots": 5, "bs": 107, "bc": 48, "rs": 75, "rc": 31, "ys": 58, "yc": 41},{"id": "c8d9e0c75cf53a75a897f04b09d49335.16", "url": "https://lh3.googleusercontent.com/eVInM4g08G8gn59mDPIx7WEqc2D57Jya5uuHl5zjbs6lN17wuieQETcjY0rh53F4mIAZpE-oaOPOrIlVcGHKp1F2IbFue__-NsyJ67xf", "name": "Täby simhall", "lat": 59.44838000000000, "lon": 18.09120500000000, "team_id": 1, "available_slots": 2, "bs": 28, "bc": 134, "rs": 23, "rc": 136, "ys": 26, "yc": 118},{"id": "c8de8cc8976b451f8406b2f390890b0e.16", "url": "https://lh3.googleusercontent.com/vrajU3ofOoLtpoKKgaOAixd2EnOv2If5IDWZH0QBTyCFHht7CAML9qKKPfteXX-dpiEeu5zpkfZJ940BaP7yD-b65Ok31wcH8JH-emDyhQ", "name": "Boulebana med bänk", "lat": 59.45112000000000, "lon": 18.03052600000000, "team_id": 3, "available_slots": 4, "bs": 17, "bc": 343, "rs": 9, "rc": 60, "ys": 12, "yc": 311},{"id": "ca6e21c1aaab484896725fde02eae843.16", "url": "https://lh3.googleusercontent.com/HfQFHlR3coKIOfSr_6Bz9EsL6vIgKCXwFEmhL1wrB-c-PxMjR6M1nC8sllPjxrUE5wvqhg0GrGh2wEqdSm5sWkLp_XGI", "name": "Lekparken I Rallargränd", "lat": 59.49568200000000, "lon": 18.07322600000000, "team_id": 1, "available_slots": 5, "bs": 65, "bc": 73, "rs": 33, "rc": 27, "ys": 66, "yc": 61},{"id": "cbbc61f8a5984386949715bd5f675c38.16", "url": "https://lh3.googleusercontent.com/yTCPfArQBYHyLOTLtrLQSf_lnUvJDRmO59WxFUMmsrFJwHFaQvPsE_Mn_HTVaJJQep82n9tGVzAddn8eZU85fzp0ZQ", "name": "Näsa Äng", "lat": 59.42549400000000, "lon": 18.10391000000000, "team_id": 3, "available_slots": 5, "bs": 68, "bc": 88, "rs": 20, "rc": 69, "ys": 47, "yc": 52},{"id": "cc7f18d1f37a44cdb183334d54697daa.16", "url": "https://lh3.googleusercontent.com/mvq-B5Z_XbuQtIRMsvSM8S_4HlThMPN3BUKyC1Ft6z1JlK-DWrmWsC96ThYX4T857o2nxU9MtrojrMcvuYFJMeddvCA", "name": "Karby kvarn", "lat": 59.47386800000000, "lon": 18.05378500000000, "team_id": 2, "available_slots": 4, "bs": 40, "bc": 14, "rs": 334, "rc": 25, "ys": 59, "yc": 12},{"id": "cdfc2cd28d524674b8defeb7ad820099.16", "url": "https://lh3.googleusercontent.com/aLE7ifZnAp_IlNK4Hxxl9D9XFCrM0FCQbtaq0V-tcbvhkARj95Oj6pollx7Flg90d0RIRxYBM-Nkc4cAswx_5WvVuk8", "name": "Nike", "lat": 59.44601500000000, "lon": 18.07100600000000, "team_id": 2, "available_slots": 4, "bs": 20, "bc": 195, "rs": 22, "rc": 200, "ys": 13, "yc": 129},{"id": "ce7cb7a542784d33b2f13419374db4d0.16", "url": "https://lh3.googleusercontent.com/unsaokpptnF4IuWaEZqDzXPQDZtsHKxsWijdyY_9TxYTaUYFnit4ijGb7IZobpm2Cw7LO1YDwvcfBIBC3CZTD3mG1IE", "name": "Ett Stycke Levande Historia", "lat": 59.45553100000000, "lon": 18.11303500000000, "team_id": 1, "available_slots": 5, "bs": 146, "bc": 41, "rs": 57, "rc": 27, "ys": 73, "yc": 29},{"id": "cec49a439cfd4dc8bbf5920fa5255c1a.16", "url": "https://lh3.googleusercontent.com/YJ4HJTGZaJcGU-4IzheGxlmu897-sU4kXeiL8Is4Oa-RuWjWsF7EUOOLmj09EoBxxSg1iIhZlcrdSIAjyGV3snu2Xg", "name": "Galoppfältet Station", "lat": 59.44683000000000, "lon": 18.08433500000000, "team_id": 1, "available_slots": 0, "bs": 30, "bc": 178, "rs": 15, "rc": 115, "ys": 22, "yc": 129},{"id": "cf7656f00d7a447a8c66416df2ce525b.16", "url": "https://lh3.googleusercontent.com/SnjfRBfgP88ESGfvfBcONHJ4Of5Jq72xBoALqfSLSFtcPIPeXYIvJ10NBXyNnmuced7JVMOKN_5-DB-w7qjzckyfrEs", "name": "Gravfält", "lat": 59.45813500000000, "lon": 18.11178700000000, "team_id": 1, "available_slots": 3, "bs": 154, "bc": 39, "rs": 45, "rc": 15, "ys": 96, "yc": 32},{"id": "cf8ccb188f904c8aae4718b9a4cec79e.16", "url": "https://lh3.googleusercontent.com/uNnyMNRyjGS76CCTvoMaNAQsA7islrdcEmc7OI7wpIkwSy8Cufr0se-RvoDuZguN3WAAZucRKX-kto-q9zIUDnYukBI", "name": "Invigningsstenen", "lat": 59.49056700000000, "lon": 18.05879700000000, "team_id": 1, "available_slots": 3, "bs": 46, "bc": 111, "rs": 31, "rc": 45, "ys": 33, "yc": 102},{"id": "cfb20cffb48f4c6b904249166cfedf04.16", "url": "https://lh3.googleusercontent.com/1PpMaAwjdZwsMJEuWYHvz1cPRUMUhgkwFB6Jg_qsRsqW1vRCjL58mIMHv-_6FGrgkt7iPPHD4x13QsUeB9LyWcKtbw", "name": "Flying saucers, Täby", "lat": 59.44617600000000, "lon": 18.06983600000000, "team_id": 1, "available_slots": 0, "bs": 19, "bc": 128, "rs": 22, "rc": 185, "ys": 20, "yc": 167},{"id": "cfb5d1d43ce047f8834a3398bdd2beae.16", "url": "https://lh3.googleusercontent.com/xGure62-quHBUTqh5LcEaT38HV2FzP0QoXWX93eUekC2kSgZoMgDPsIHnOVqWKvbfg9xg1mhZF0UQLW2M2UjI-Cc5i8", "name": "Livskraft", "lat": 59.43485200000000, "lon": 18.08394000000000, "team_id": 2, "available_slots": 4, "bs": 40, "bc": 133, "rs": 18, "rc": 106, "ys": 30, "yc": 87},{"id": "cff856bd6c84493e9a70a17ca2c02860.16", "url": "https://lh3.googleusercontent.com/BBANM7J-RyjT0KJHJztZ5N8xYqgLvfGQIA-j3-LYsrgbHALXIzgjZQY2koUc4noh_9Krx1J1sGA_84DeJkr8LmVyGg", "name": "Skålgropssten", "lat": 59.45005400000000, "lon": 18.08049800000000, "team_id": 2, "available_slots": 2, "bs": 19, "bc": 115, "rs": 32, "rc": 131, "ys": 26, "yc": 130},{"id": "d044059e7f664df89ed4bd6e9df1797a.16", "url": "https://lh3.googleusercontent.com/NBKitVfz8PUcM0g0pl0MnTM24tQgX1gJIE89I4AGrw4iNdK2g1MvizL9WQ7qtMhO5yIEl-DiKuyylcQ7UZHWp0Ug_eCR", "name": "Prästgårds Naturreservat", "lat": 59.48445200000000, "lon": 18.08689500000000, "team_id": 1, "available_slots": 5, "bs": 19, "bc": 253, "rs": 17, "rc": 251, "ys": 14, "yc": 37},{"id": "d10b9d6a02384b10aa65ebf941553398.16", "url": "https://lh3.googleusercontent.com/AYLDuBxrADpnuuW99KJJbw0MNpvNeI6j5fhIPED91Rug15aUiE_lA_sOwuRSydsX08TWVtqzZIbrhvCy6Q5nj-hDfeo", "name": "Hägernäs Station", "lat": 59.45101200000000, "lon": 18.12448400000000, "team_id": 1, "available_slots": 0, "bs": 54, "bc": 76, "rs": 30, "rc": 53, "ys": 61, "yc": 68},{"id": "d4102798b53e40cbaf042789fcc377fb.16", "url": "https://lh3.googleusercontent.com/e8HsbkUXNufVDhcaYz2EJFMBR4emBvZG0EZCOBuSYV8osR2uCiVikBke9RhD_EzU2C_ixrlUd6_5eEIpb93y5Y2wdysg", "name": "Cylindertunneln", "lat": 59.42799100000000, "lon": 18.09107400000000, "team_id": 2, "available_slots": 2, "bs": 56, "bc": 94, "rs": 33, "rc": 75, "ys": 33, "yc": 66},{"id": "d49dc0203ffc3a27ab2591276359608e.16", "url": "https://lh3.googleusercontent.com/C-LB3Dg3cxs__aWMfY7Pl7GVclr1mJ-nAlPHDImz-cux2MLoU2y7pwscjkCdhBr4o6yi1qFqRZraFcdaPd6R-AsOIC7_WSHoYt3aQbQ", "name": "Vinnarcirkelns Lekplats", "lat": 59.44287500000000, "lon": 18.08701200000000, "team_id": 1, "available_slots": 0, "bs": 19, "bc": 266, "rs": 11, "rc": 229, "ys": 18, "yc": 127},{"id": "d49e6ab210674e51ad04cd45d88435ff.16", "url": "https://lh3.googleusercontent.com/a6q7iYiFEcqM1l4qV45ilrr4TtJRI-f9N_BefMKhPD4srDZties3TU5V8MkzdNS0eqK-2eccMri2vmQY9j7Vxod48jM", "name": "Skavlötens Motionsspår", "lat": 59.46730400000000, "lon": 18.10861500000000, "team_id": 2, "available_slots": 2, "bs": 48, "bc": 70, "rs": 20, "rc": 28, "ys": 84, "yc": 69},{"id": "d5967d05e4c74312ba841d4623ee3e56.16", "url": "https://lh3.googleusercontent.com/Xr1ECeiCmQu49TNub3WNjRyO_T9fFb6pHI8Kz1u1RC74thXlQcRNPZQQfGbrzzqLCqs1JIoA5py80kQcp_tOKfi6o44", "name": "Karta", "lat": 59.46340100000000, "lon": 18.06510200000000, "team_id": 2, "available_slots": 3, "bs": 46, "bc": 53, "rs": 60, "rc": 51, "ys": 37, "yc": 29},{"id": "d5caa2a2aeda4720bbcf9f555de88130.16", "url": "https://lh3.googleusercontent.com/pArfE_nxkecEu335HK3w_IrDMMNvgTn2Wx4kY4K1wWcI2eLCWdzNQ1wgBwbLUisD6mH5wEni1eTgLoCfZL76uaQUpvDU", "name": "Skeppsättning", "lat": 59.44812500000000, "lon": 18.07544200000000, "team_id": 2, "available_slots": 0, "bs": 13, "bc": 200, "rs": 27, "rc": 230, "ys": 10, "yc": 85},{"id": "d7f8934454f641ac879dc7f8ca249b19.16", "url": "http://lh3.googleusercontent.com/5_QvOqKUgvbJz-MtsuD_HjN7AAMKKKhIXK1wbR93HN7CHV51D7JcSCWpjxtFK5Fck8xMQABYTJe7n44UddMt_rLV_Fw", "name": "Hagby Ekopark", "lat": 59.48033900000000, "lon": 18.01289500000000, "team_id": 2, "available_slots": 4, "bs": 241, "bc": 8, "rs": 321, "rc": 18, "ys": 135, "yc": 15},{"id": "d993f3f2c4d130c89fda9e4e06f7299d.16", "url": "https://lh3.googleusercontent.com/ZqYO1Pstpyv6AVO4ymYrVVevVl6AjegKZUZZ0v-185OhOu_geab7UM9ztT6zBQW8QHjfU4BhgHr1Dxo073f21XyiscY", "name": "Viggbydalen Löparbana", "lat": 59.44271000000000, "lon": 18.10310800000000, "team_id": 1, "available_slots": 3, "bs": 40, "bc": 96, "rs": 27, "rc": 71, "ys": 43, "yc": 92},{"id": "d9afc20d3fe64dd697742bd21e4b07d5.16", "url": "https://lh3.googleusercontent.com/gJPEww_5kN7sRvy8TNgGZoaJJSPdJ8mJuzqmZxwtJCM5Qe7R854jNjQUdxd3RDi1IvfwxUFNS2cbsoJ-rheWP9LKZg", "name": "Norra frontens bunker", "lat": 59.48012900000000, "lon": 18.01641500000000, "team_id": 2, "available_slots": 3, "bs": 372, "bc": 7, "rs": 695, "rc": 9, "ys": 255, "yc": 3},{"id": "d9beed90fc9d46dbbe43b33b1d4072be.16", "url": "https://lh3.googleusercontent.com/oximP7sDmSlcyPteY1tmTtH1gmXKL2s-syUzCVTOQ1TOemRAbRvRbThYbsibmTo6iuXunKz0-uiMM5_VeQq6M-_Syv7c", "name": "Trafiklekplatsen i Centralparken", "lat": 59.43187500000000, "lon": 18.08654300000000, "team_id": 1, "available_slots": 5, "bs": 34, "bc": 154, "rs": 17, "rc": 120, "ys": 24, "yc": 108},{"id": "dbc7ecef7fc13f6d824293e32e5d663b.16", "url": "https://lh3.googleusercontent.com/eY-rSahcjeG3Ykv6Nu2hPGNNpxDR1WqDk9Q7QqDsgk3lBPK2Cw2CGIRXOnnsaJRJ-aeQ6v1d3vTQ6jaSd8umiKfLFMJ-WJQiFhz1XLsE", "name": "Vallinska mossen", "lat": 59.47392600000000, "lon": 18.06892500000000, "team_id": 2, "available_slots": 5, "bs": 246, "bc": 9, "rs": 548, "rc": 12, "ys": 154, "yc": 5},{"id": "dd3af6689f8e454e80b2c96109c90743.16", "url": "https://lh3.googleusercontent.com/XJSqvNH4x_60h35wCdFXTHIlO4TfCURWX1EIeNYyPED4fu3cuxg_pPnLCYaCiwYq46ZrfoQYNb3eJ9N6PFEH24Ka5wfL6ztp8_QNwWiH", "name": "Den Grova Aspen", "lat": 59.45706900000000, "lon": 18.08018600000000, "team_id": 3, "available_slots": 0, "bs": 90, "bc": 30, "rs": 102, "rc": 35, "ys": 109, "yc": 33},{"id": "dda2859092104dc9858be2b0ccd42552.16", "url": "https://lh3.googleusercontent.com/Au91R-UWahcIyBVZqxN5i6HwZo7pS4iL5OiEaheDFCTpdvwpnmiFg_K_Xp-AlHaJ0siqYTW60CY7ypFo8WEas4mDFbY", "name": "Fällbro Runsten", "lat": 59.48171500000000, "lon": 18.01459400000000, "team_id": 2, "available_slots": 4, "bs": 220, "bc": 10, "rs": 235, "rc": 17, "ys": 209, "yc": 17},{"id": "de9e6a4998b546a6b481571f3d43fbd0.16", "url": "https://lh3.googleusercontent.com/U1SvC98niPX3011KOj8v9rWR5TdkN8JE3fN4LlnyfKs-AidAwvRXD2pyedaIPr5rbVsDzwlIxFQd7FQMrjz1mIJepA", "name": "Gullsjön", "lat": 59.47764800000000, "lon": 18.08958300000000, "team_id": 1, "available_slots": 5, "bs": 367, "bc": 20, "rs": 168, "rc": 11, "ys": 52, "yc": 11},{"id": "df9151114d2d3c838d59f9e5fa7226bd.16", "url": "https://lh3.googleusercontent.com/o5qc3bc1iSabVAABnfJGMuHX_PnWvX5kkG-GMIx9rlN31rZZUcdqIRlO1NVaUZVnJibajoTAyGKAgNXflLVp3E0O-5_e2Z9TxsGuaK51pw", "name": "Spårmarkör Skavlöten", "lat": 59.49515100000000, "lon": 18.10285300000000, "team_id": 0, "available_slots": 6, "bs": 829, "bc": 11, "rs": 5, "rc": 1, "ys": 63, "yc": 10},{"id": "dfd1f75b44444e4db38ce388256adc83.16", "url": "https://lh3.googleusercontent.com/g8IwzLKh9iD8PHmRQSVEli1XPNPUQcbX9XuE2tSU5dWap_7megExcpaUAQqZDKaIt2eliSdjOyK7wFAlkkJuw90yPw", "name": "Hagby runhäll", "lat": 59.46846800000000, "lon": 18.01602100000000, "team_id": 2, "available_slots": 5, "bs": 217, "bc": 5, "rs": 545, "rc": 9, "ys": 408, "yc": 9},{"id": "e1d873c5e083484ca45f62fe5eb81ba8.16", "url": "https://lh3.googleusercontent.com/6lheAJF1zHNYsDJXc63lO1ZmkwqwJFIWWfqfIqlKk6dVD5VjDHhPDe11yKDx0Y8h2WMofh8Hz2ak_EXQ9QixEr7pJDm6J5mD77WMGGYx8w", "name": "Ser Du Åkern?", "lat": 59.48451600000000, "lon": 18.07488000000000, "team_id": 1, "available_slots": 5, "bs": 581, "bc": 9, "rs": 387, "rc": 5, "ys": 259, "yc": 10},{"id": "e23b5d477c82424da81d77fc84dd1fd4.16", "url": "https://lh3.googleusercontent.com/Nr-PijAhFTmT7H5CqJ0GWxaVkEJGvRj0lJ1l8wF_ggcWLRJdFxtvqzFBAdFGvNa_LttbRENesHrTC958eRAl3lW6zLw", "name": "Slii - Hälsans Stig", "lat": 59.46017700000000, "lon": 18.09862500000000, "team_id": 2, "available_slots": 2, "bs": 61, "bc": 89, "rs": 24, "rc": 44, "ys": 41, "yc": 82},{"id": "e2b8408937074a2bbee35508fab732d0.11", "url": "https://lh3.googleusercontent.com/7E3ZanTrxSp32pYVaxQlsXzdikX8OYL40NsH0MAoXt3kf7QZXd1DgyBgb3W4Q6XZUvmVdrE2d9Pgl3m5Q0DHjuqqtZ8", "name": "Jarlabankes Bro", "lat": 59.49935400000000, "lon": 18.06328900000000, "team_id": 3, "available_slots": 0, "bs": 31, "bc": 95, "rs": 24, "rc": 57, "ys": 48, "yc": 114},{"id": "e2e834a3ea9841cb830e540a7e4ea9be.16", "url": "https://lh3.googleusercontent.com/tYxhcRAqGKGkljux1icyaRvjTv5Qr-yvo_kLw3O4iix8f8ausTcUPqu846qdfw9qI7cEj1-QqsiW-W11nRYGk_g4tmA", "name": "Uppmuntrande ord", "lat": 59.44601300000000, "lon": 18.10195300000000, "team_id": 2, "available_slots": 4, "bs": 21, "bc": 175, "rs": 22, "rc": 186, "ys": 15, "yc": 146},{"id": "e2ff6a927889406eb7cf5d8befbce195.16", "url": "https://lh3.googleusercontent.com/fq6pnBWyEJkFQ-ny__2Y3mNyXTxeylEtmVWCNB-pGDO-mwFWkp-QCQZoCJZE5AJnTG4mWuYSuVXJjv5H4pcJkhANw8E", "name": "Näsby Slott Fontän", "lat": 59.42441400000000, "lon": 18.08810300000000, "team_id": 2, "available_slots": 5, "bs": 67, "bc": 105, "rs": 21, "rc": 78, "ys": 25, "yc": 48},{"id": "e44f3c36e57a4706a3eff3219b935b92.16", "url": "https://lh3.googleusercontent.com/W8JsHT-4plz_kZVJRdcUfCsPt7ihaK7vb--IhOQWzOt9LiN-F1sI_w8UCsCt4iaHlzvotz5ZDTFn_GRWhKcekr9w9bcw", "name": "Granbäcken", "lat": 59.46024000000000, "lon": 18.07033100000000, "team_id": 3, "available_slots": 5, "bs": 60, "bc": 32, "rs": 112, "rc": 40, "ys": 131, "yc": 25},{"id": "e4b0a47790f243d38e7e4dccb81b2ac0.16", "url": "https://lh3.googleusercontent.com/IDoaEYJbom43rLFzxIWRE3ZxyCzHk-j34x3TqSpdljOOe5VMGDoZqv4A-rq-7hRTDMX50yOiWA7IkVKK0UtbUnDYpGLa", "name": "Halväten Skylt", "lat": 59.43852500000000, "lon": 18.12698700000000, "team_id": 3, "available_slots": 3, "bs": 77, "bc": 48, "rs": 49, "rc": 29, "ys": 91, "yc": 50},{"id": "e4b6abf328353e198770fbb6a278e02b.16", "url": "https://lh3.googleusercontent.com/45-GiRILkvgQ63oKxaR--M43lapUbmMqx_KkwQsw2vv73-e2CZU_ZyLdQr9-1-arS4RAEgxj_z7nrZGtXl5zkqBRQyS2Cy34QoEnSzDN", "name": "Sportleken", "lat": 59.45766400000000, "lon": 18.05704300000000, "team_id": 2, "available_slots": 4, "bs": 43, "bc": 151, "rs": 21, "rc": 99, "ys": 12, "yc": 100},{"id": "e70c2729ea97456d915dad6e1ed2cdbf.16", "url": "https://lh3.googleusercontent.com/DPizHcobJArfh0HMHCNoejGxtKJOUFiI6AOJyKdUHSjgyOXd47ZDi2y_AqH7UemVPe6MHa8L5A7x02a4ygdiGbJivyQ", "name": "Tre Hästar", "lat": 59.43404200000000, "lon": 18.05960800000000, "team_id": 2, "available_slots": 5, "bs": 40, "bc": 161, "rs": 18, "rc": 97, "ys": 15, "yc": 110},{"id": "e7bcbfea3eb24195bc7ba56fe2c05f87.16", "url": "https://lh3.googleusercontent.com/LgfRvUlnC8YA3zYJnJBFSuCwVjB43fAM_4lHP_2oZYy5Q1e6CavMXoTq3rz-TWPsgQ-yrtgQVECuXdz3xZ3G3itjIXuG", "name": "Ella", "lat": 59.44380000000000, "lon": 18.05073600000000, "team_id": 3, "available_slots": 5, "bs": 22, "bc": 154, "rs": 30, "rc": 178, "ys": 15, "yc": 76},{"id": "e8cc1782090542fb8b0e444668af8b3f.16", "url": "https://lh3.googleusercontent.com/CUYJoa28pn8_mKoxeW-4_HGZMpXKmO7gQpP9-M8bWP6Ve-GfvF4XiEKZuX_NGL_5XALc1rG5PEZE3fp5FcbvoMQ2TWVE", "name": "Molekyl", "lat": 59.44936700000000, "lon": 18.03122600000000, "team_id": 1, "available_slots": 3, "bs": 46, "bc": 109, "rs": 28, "rc": 74, "ys": 34, "yc": 81},{"id": "ea8e71d1950d42719e43fef3227b20e5.16", "url": "https://lh3.googleusercontent.com/gncAfjsSpe0sKWg7jcM0xs3W5lManefy28gmBA4ZqXRhJc0LbDBMoyXQsWYC1O2ShaWEJB90lwAz3TTVFcSDawAdDw", "name": "Östra Gravfältet", "lat": 59.45717500000000, "lon": 18.11474900000000, "team_id": 2, "available_slots": 3, "bs": 330, "bc": 14, "rs": 166, "rc": 8, "ys": 332, "yc": 11},{"id": "ec09f3a7e93d41df9312f04e925e1070.16", "url": "https://lh3.googleusercontent.com/HBxgEZvl4ukmhy9eHtwTUaYiRSwzkPs0ULVjY6DXn7Ci5Y5KNpr54ZUoyJn2LyncJ-SRcRd9dl-YsRDNipGhvDj4vV0", "name": "Shurgard Lighthouse", "lat": 59.45029700000000, "lon": 18.08736300000000, "team_id": 2, "available_slots": 3, "bs": 86, "bc": 27, "rs": 93, "rc": 42, "ys": 105, "yc": 35},{"id": "ec6f9786551c4423b3c56b4733d1a254.16", "url": "https://lh3.googleusercontent.com/_iF1snq5N_rbmSgypB4w_PasNx6-NlNawqIbp0nL9tuJDDDogKkXUxFtxri7aTIc1WS1T0qybkPK_pGNLjrBJsB6hXs", "name": "Näsby Allés Lekplats", "lat": 59.43176600000000, "lon": 18.07503700000000, "team_id": 3, "available_slots": 5, "bs": 30, "bc": 172, "rs": 14, "rc": 82, "ys": 25, "yc": 143},{"id": "ec7457a13be94ebd8150e10c6e0d0101.16", "url": "https://lh3.googleusercontent.com/9Q61sS3XnJpnn44_ZyQIrDecMkw7MBhJ2iH4lVt0-IJFCObzf5hByEOG7Z7JqJ5HggxoeBt-wmALPqi_xVJYtVYSTBTH", "name": "Om Utmark Och Inägomark", "lat": 59.48953500000000, "lon": 18.04734700000000, "team_id": 1, "available_slots": 4, "bs": 67, "bc": 54, "rs": 42, "rc": 28, "ys": 83, "yc": 59},{"id": "ed7c204ef11a38a389b667f10249367f.16", "url": "https://lh3.googleusercontent.com/hoq_T4GxieZsbe3xR4Id461Jg16MgnO6L6MONasOq8TcNK0ztMAWfR8aByx6x8chipZK7HZhELqnvkkvr0S2s7ruDuVVP6i_D4VvrwMzBg", "name": "Skavlöten Skyttevärn", "lat": 59.46487000000000, "lon": 18.11168300000000, "team_id": 1, "available_slots": 3, "bs": 82, "bc": 43, "rs": 38, "rc": 14, "ys": 148, "yc": 39},{"id": "eef6a83d21be412d8bf3b539a816900f.16", "url": "https://lh3.googleusercontent.com/Lnnujf0WxDkABgchYqInC7YO2Im6CAUNECTyM1KyIJ_JTwWpoRLiDlzAgZrV92I2-bq0e1kxKaG8PO9HMyGhawbG7g", "name": "Tibble Kyrktorn", "lat": 59.44337000000000, "lon": 18.06558700000000, "team_id": 2, "available_slots": 0, "bs": 25, "bc": 188, "rs": 16, "rc": 145, "ys": 18, "yc": 149},{"id": "f01dfa5104cd49fc8edac252a6bf1cfd.16", "url": "https://lh3.googleusercontent.com/T4iDjf6J2YIM6DMkfGArodT8xf4uIbBTWPzOG38maDf4_Ei1p8M4q7jx0s0IV-7wIw4iHKw23J0p2zFD65L3C0IPNEk", "name": "Viggbyholm Station", "lat": 59.44902100000000, "lon": 18.10386800000000, "team_id": 2, "available_slots": 1, "bs": 23, "bc": 172, "rs": 21, "rc": 171, "ys": 19, "yc": 121},{"id": "f0b2e5a5447546c7be07250dd0cf0cc3.16", "url": "https://lh3.googleusercontent.com/lzR_efuWyYtNgydlPK7xSH7moN_3Wp-Sc2iM11M5xRYbna5Uzih8sYeW4gdPDrtthVzibgTl5xIGbySaCNlPhlkfRPo", "name": "Strandpromenad", "lat": 59.41876300000000, "lon": 18.09970500000000, "team_id": 3, "available_slots": 5, "bs": 116, "bc": 41, "rs": 88, "rc": 37, "ys": 69, "yc": 27},{"id": "f1f5f1584fd74e01aa07e59b5aa9c15b.16", "url": "https://lh3.googleusercontent.com/LK9EOyFry2cwGcCtBZGmJNC4UQ6oAMUrqN1-gVo9X7n-A-3xUPFXShhUaKHTjVXtkMh6CwNFRAGi6dHfh5o1jb1fsCs", "name": "Ängsholmsbadet", "lat": 59.45932600000000, "lon": 18.10075200000000, "team_id": 1, "available_slots": 0, "bs": 58, "bc": 92, "rs": 28, "rc": 56, "ys": 38, "yc": 77},{"id": "f2ede5861a27432ab20887c8c6115cda.16", "url": "https://lh3.googleusercontent.com/9ADskw4n5tWZC0GlJh2_4UMc_3xnhLomOZui2PGZuRe0G7EsSc-TDiEWxzYq3MW54wmnKAwALqteREltP7JVKHFjioHR", "name": "Fittja", "lat": 59.49121200000000, "lon": 18.04826900000000, "team_id": 1, "available_slots": 3, "bs": 61, "bc": 60, "rs": 43, "rc": 32, "ys": 72, "yc": 65},{"id": "f3275ca05eed4e23aac946375d0b8533.16", "url": "https://lh3.googleusercontent.com/sQlLk-PomigBOK-SAc2iaE08BDA6WI_G-HrkiAe49BcyOkTHwpSPZ7jMjfP4Y8lHxf_SxQT5ki0SEo_oudlPK1O6MIk", "name": "Glädje", "lat": 59.43488300000000, "lon": 18.08567300000000, "team_id": 1, "available_slots": 4, "bs": 34, "bc": 73, "rs": 10, "rc": 61, "ys": 16, "yc": 22},{"id": "f3819ea94005479a922e2df8a99e8caf.16", "url": "https://lh3.googleusercontent.com/LKz2N2xb9onrQbD3H3A60SeqdCNyHrwU2RSy3bQS9peBazta9_7U9uF8mbTDvnVzcSod6k7swpTnLRA0S0xK_3V0ug", "name": "Strandad Båt", "lat": 59.44387900000000, "lon": 18.03680800000000, "team_id": 3, "available_slots": 0, "bs": 18, "bc": 65, "rs": 33, "rc": 120, "ys": 36, "yc": 130},{"id": "f42347719edd421bb37a548571a91c5a.16", "url": "https://lh3.googleusercontent.com/jq8UmYLywOYXpBJHM9j0smYeK2Arm-1vlaHU6oahUEYqaMce--7ngibNUo9mmKxsKE55UkKWZvotgqFHkIoygNIMfQ", "name": "Virauddsparkens Basketplan", "lat": 59.45120400000000, "lon": 18.10692000000000, "team_id": 3, "available_slots": 1, "bs": 37, "bc": 91, "rs": 42, "rc": 103, "ys": 43, "yc": 50},{"id": "f42ef4ea40c63846882f0d9c3d4d7af6.16", "url": "https://lh3.googleusercontent.com/XVjziZzZUEbfYhBASbjfSIHBKtxvCdzrSpe-fG1qiDKDGWiNS4mcGnEbrGqnm1r7saLftrOc4RSwM54C8fCrGq-uZaQ85gddlxeX7P2F-Q", "name": "Götagardesstenarna", "lat": 59.47036200000000, "lon": 18.09162200000000, "team_id": 3, "available_slots": 5, "bs": 93, "bc": 46, "rs": 24, "rc": 33, "ys": 14, "yc": 7},{"id": "f537b243fa514dafb567bf879a3da140.16", "url": "https://lh3.googleusercontent.com/s3endx0CZEAcjmR2LtyAl1EOg7o8wQT9_kJ_nk3oEcYzBh3YguyjE6xWPwia4OYCJUhMecfDz4ugNv4Y5d-thwerPx0", "name": "Ledungsvägens Lekplats", "lat": 59.48508100000000, "lon": 18.06008800000000, "team_id": 3, "available_slots": 1, "bs": 61, "bc": 60, "rs": 62, "rc": 17, "ys": 73, "yc": 69},{"id": "f586acc872714dc3bedf2993d0716af8.16", "url": "https://lh3.googleusercontent.com/27Zcl2a8yjkAzP7yMlFEgR__zC3SvFrQ-4Yho3dMVSGaMrOt5BCpRAmkT5yNdasBJdZIOCoStrzeY7ZFS3f3YY28zgA", "name": "Info quiz start", "lat": 59.48102700000000, "lon": 17.99928500000000, "team_id": 3, "available_slots": 4, "bs": 1717, "bc": 3, "rs": 475, "rc": 8, "ys": 119, "yc": 5},{"id": "f6c76faec37d479eb010a1899c26d8b9.16", "url": "https://lh3.googleusercontent.com/5Whgd-LzhEvwC7aGrfYTfSgdWrT55W98GXn9-l1Ct5CBIgcb-Nsj6l1RKuWThRFAQjdg7YWV3QNXZCDE63sAv3mAVw", "name": "Storschen", "lat": 59.44428500000000, "lon": 18.04388100000000, "team_id": 2, "available_slots": 1, "bs": 23, "bc": 66, "rs": 62, "rc": 111, "ys": 19, "yc": 71},{"id": "f7468b78602e4df4ac5760bfa8fc0985.16", "url": "https://lh3.googleusercontent.com/LjBZHSLSoQ2YIIpPilkJGyrETFfhXwqS63sJgG7b2pFuZEp-uiXYfddwVeSuX92B0yBQxE-6pqIeNI9cVOBF33v6Hw", "name": "Hagby", "lat": 59.47252900000000, "lon": 18.02111600000000, "team_id": 3, "available_slots": 0, "bs": 28, "bc": 63, "rs": 29, "rc": 56, "ys": 69, "yc": 90},{"id": "f8799685d7c846a18f940a0aefc8b09b.16", "url": "https://lh3.googleusercontent.com/53REuPdTptOlXnFXntdqvA0ITiTXXgTjSm4YZBIiCtBvlmPYPy2blYu2SJGSCArhbrrFiCATo78-E76frGd4W_-T9QQ", "name": "Lusthuset", "lat": 59.44808800000000, "lon": 18.12661300000000, "team_id": 2, "available_slots": 3, "bs": 68, "bc": 61, "rs": 75, "rc": 49, "ys": 45, "yc": 44},{"id": "f890012f13bf4dfca84c098be2785ef9.16", "url": "https://lh3.googleusercontent.com/y4bbzn8S-dJRwb7iIWuXciA3gMMV-A3im3OATWOI4bdZEXDYye_0RC2l5BdJyWvwEUO-8H60bVKsHNrmGv-ljD2fxlkr", "name": "Åva Skatepark", "lat": 59.43916300000000, "lon": 18.06305000000000, "team_id": 1, "available_slots": 0, "bs": 42, "bc": 167, "rs": 15, "rc": 102, "ys": 14, "yc": 99},{"id": "f8d8a09c0f554fdb96f5034ecab52ff6.16", "url": "https://lh3.googleusercontent.com/9JnmfPVUhS_1G0ampECC76GqOeC5pTqKlQEdNAkuK33H9xNXFLa2X5DwM1yld5DXvOIuTJtI0aZJPcP37c_4cojLhKg", "name": "Täby Prästgårds Naturreservat", "lat": 59.48242500000000, "lon": 18.06542800000000, "team_id": 1, "available_slots": 4, "bs": 433, "bc": 7, "rs": 416, "rc": 5, "ys": 573, "yc": 7},{"id": "f9357c79cf25490e9c6eccd9ef1fabea.16", "url": "https://lh3.googleusercontent.com/BClPs1ALo-pe2shIdH61ECbd_lKG7zVJlvxYMly3iyjrBVCmpNP_Rt8utaizivr6ytoKmj8FEJmkMolrJg-bGXp56oqt9ueIcMHI-YhV", "name": "Motionskarta", "lat": 59.46838600000000, "lon": 18.10614000000000, "team_id": 3, "available_slots": 4, "bs": 60, "bc": 55, "rs": 53, "rc": 17, "ys": 104, "yc": 54},{"id": "fb52e521563148c59d13126bb0aedfd3.16", "url": "https://lh3.googleusercontent.com/DIv3YdXXdIdJfoYco7myqe_2NLWtU8kC7a8pFmeUWbqbN-AZrZdqFBnPc20wfgkpWC54rCeewYAe0NF5tpoDAi8hoVIJ", "name": "Rönninge By", "lat": 59.45638900000000, "lon": 18.11262200000000, "team_id": 1, "available_slots": 5, "bs": 132, "bc": 46, "rs": 48, "rc": 34, "ys": 71, "yc": 31},{"id": "fc7f800de08545d7b7c4ae6d725c176d.16", "url": "https://lh3.googleusercontent.com/uFcMNTvb-iH1mwF9oWGnn4IY2o_ZMOzmFo0d7zw13QmudcNWEaKfcmqlH57OwupFNV93n3fRI0uqce2-yw0A2T_ewQ", "name": "Björnbergets Gravfält", "lat": 59.44860000000000, "lon": 18.11126700000000, "team_id": 3, "available_slots": 2, "bs": 443, "bc": 10, "rs": 127, "rc": 3, "ys": 399, "yc": 11},{"id": "fda714fd6db04a059376e0d4df6a6b1c.16", "url": "https://lh3.googleusercontent.com/kKG5Uj5BtZMEfmTLDqxdEX0n21Efa3WUWmy0lxtTqAgZkfSXlVb3P1-UQZuxMX9YTpxn8a64UC32lfKzcDXN-ZXPBfPW", "name": "Viggbydalen Konstgräsplan", "lat": 59.44279200000000, "lon": 18.10346200000000, "team_id": 2, "available_slots": 5, "bs": 40, "bc": 98, "rs": 31, "rc": 63, "ys": 40, "yc": 99},{"id": "fe317503cba23be3a19f8a08012fccee.16", "url": "https://lh3.googleusercontent.com/NKt8-fCxnkeFm9G9PyW0nX8qDlC48IPp2gCKN_jY2G0Um4Ar-mQx0x4gaSiydgx2DwnV8bBTHJDong7AwBCwiklgpE-DBx0y3nnSeHgOgQ", "name": "Brinkvägens anslagstavla", "lat": 59.45685000000000, "lon": 18.04625400000000, "team_id": 2, "available_slots": 0, "bs": 21, "bc": 35, "rs": 46, "rc": 48, "ys": 14, "yc": 27},{"id": "fe9412cfd0903a718facc7d383f02e3a.16", "url": "https://lh3.googleusercontent.com/W1A_y_SCdWMBuZ5AzS7-IAWG8F5jQrgr6K_PysP0Lo-Tu0hoDKMOwsLnQb5XK4RyBAiZLUCBoKy3jn2SaNKtJLJt5zaSjqJK-iN0BhY", "name": "Roslagsleden", "lat": 59.46508800000000, "lon": 18.00241500000000, "team_id": 2, "available_slots": 5, "bs": 148, "bc": 27, "rs": 93, "rc": 22, "ys": 191, "yc": 17},{"id": "fff74e45eaa64032916fd8f392b8847e.16", "url": "https://lh3.googleusercontent.com/8b2EW_LGqLDbZ8ry86r_8cQrzw81Lj9BbN5OQjLX5s7mN9DYgkE7pyccOyVjphZPB7zYAyFu9V2Gx-XG7FPRKYMReJXj", "name": "Ensta Station", "lat": 59.45251400000000, "lon": 18.06376200000000, "team_id": 1, "available_slots": 0, "bs": 24, "bc": 157, "rs": 29, "rc": 163, "ys": 18, "yc": 76}]
