[{"id": "00b39bd1fb3d4364a8e5cdd7c363575b.16", "url": "http://lh3.googleusercontent.com/nSt80Im4OK7-2_S-R8iU7kTayGITkIJ1S76KEpG7Y3QQnNDkIVTCXGKq8cddzio7VkIDUc7sSi3xcj8sAnwil8DmWg", "name": "Odelberg Torso", "lat": 59.32450200000000, "lon": 18.38258700000000, "team_id": 1, "available_slots": 4, "bs": 0, "bc": 0, "rs": 0, "rc": 0, "ys": 0, "yc": 0},{"id": "01de84c57ceb39bb9a626064a1dbdc5a.16", "url": "https://lh3.googleusercontent.com/Sdp9a-MoVud0mdRYcb23DlYmVPsZregRO5zKooLDX8mf2cmfXRuA7r2q7J0KzxH883a_eYIPGyLzXVMTLuRrF766os3lgJsN06sIYbkYrg", "name": "Fotbollsplan lagnö", "lat": 59.35438500000000, "lon": 18.40492200000000, "team_id": 2, "available_slots": 3, "bs": 0, "bc": 0, "rs": 0, "rc": 0, "ys": 0, "yc": 0},{"id": "021a656bfb0e4efeb1d4ba5ff133f72c.16", "url": "http://lh3.googleusercontent.com/mHD7u8mrUnAxid9VHkcudW7C42nMEIp3WiSHlSB9zf_pXciyYFCNT6Duc-USAtkwzLbdvASbh0byx7KLTglLuhG28FBa", "name": "Välkommen till Klockarudden", "lat": 59.29824700000000, "lon": 18.67100300000000, "team_id": 3, "available_slots": 5, "bs": 0, "bc": 0, "rs": 0, "rc": 0, "ys": 0, "yc": 0},{"id": "02b6b28c505b310495b3df393840710c.16", "url": "https://lh3.googleusercontent.com/B4ToT_HCgNAyzqmnA1MywIeEJzjyoGdYxvYLvuimSpxgYt2360MVZKnIbBiKyz7ATXXwk5HXib5GlXgUluCDwB-sBsiXJe2dLio4LI7D", "name": "Svarte Man", "lat": 59.37119600000000, "lon": 18.66734900000000, "team_id": 1, "available_slots": 4, "bs": 330, "bc": 20, "rs": 223, "rc": 3, "ys": 143, "yc": 17},{"id": "02e83c3bfd7440638b58e0cef6c8c4d9.16", "url": "http://lh3.googleusercontent.com/UK3nOGZWe7nXcbyyW6isuECRC11IpTnK6QwW8m2VyS56-oZPIIfnez_HpTaOsjWvtd6_Cwy0xjfIoUbwC5EYeqtCGw", "name": "Fotball Golf", "lat": 59.37251500000000, "lon": 18.53183400000000, "team_id": 2, "available_slots": 5, "bs": 0, "bc": 0, "rs": 0, "rc": 0, "ys": 0, "yc": 0},{"id": "03ffaea8cba14647b484acaff44c23c2.16", "url": "http://lh3.googleusercontent.com/4LvBnnn4As2PaCw9JU186Y-duAd-gt_izdcNphP-C_jfjs2NFIB9zcAaLwI4OgOHW_Ae2paFYOuUZmGbgTh8tEhs4Q0", "name": "Bolvik Campings Lekplats", "lat": 59.38513500000000, "lon": 18.52269100000000, "team_id": 2, "available_slots": 3, "bs": 0, "bc": 0, "rs": 0, "rc": 0, "ys": 0, "yc": 0},{"id": "0494ca82ce4e413db594a510a3b08b1d.16", "url": "http://lh3.googleusercontent.com/cch2fL3kaCOBJvC9CiMaKYXQ1QqzeVRdVGdqzkJDpeKF9UJUIgq1uG-R91j0V_zzN9BCTSzyTU5BE-nWP0CxpIZ5qw", "name": "Sun Gazing Statue", "lat": 59.30619000000000, "lon": 18.34610400000000, "team_id": 2, "available_slots": 5, "bs": 0, "bc": 0, "rs": 0, "rc": 0, "ys": 0, "yc": 0},{"id": "0590dad572ca4fb8afb059245a54ff2e.16", "url": "http://lh3.googleusercontent.com/uNu1aslSzjfzdSXrs1Srv_njYqd9NMdrHV0cm9nfscAK59z_JLJDECO_bLY5SU1yFsTq2xV45ThHvCJ8tg8P6ugB7Eg", "name": "Minneslund", "lat": 59.31744300000000, "lon": 18.39747900000000, "team_id": 3, "available_slots": 5, "bs": 0, "bc": 0, "rs": 0, "rc": 0, "ys": 0, "yc": 0},{"id": "068055a417114d5d853682b381a29196.16", "url": "https://lh3.googleusercontent.com/84qJzrBxxJJ5lN4A7eWMyAlBp0i07ZepnL2WRzdqetwx06OxKVidIwtSLSilvV1AyPkRDEijm3CL0UdCjMB_bqTe-fw", "name": "Klivstätta", "lat": 59.44634700000000, "lon": 18.79146800000000, "team_id": 1, "available_slots": 0, "bs": 782, "bc": 4, "rs": 2468, "rc": 2, "ys": 412, "yc": 2},{"id": "07c7ad03d0f74feda768565e23200b98.16", "url": "http://lh3.googleusercontent.com/bjKi1l4Ly8L1kCfmiZ09R_Zsuk29D19Ptn-r3DFLf-dReWW0QKEivZrglonCloQmzORFd7nS9gHIuYtzCI2yvl32oZ8C", "name": "Skepparövägens lekpark", "lat": 59.30457600000000, "lon": 18.68111700000000, "team_id": 3, "available_slots": 1, "bs": 0, "bc": 0, "rs": 0, "rc": 0, "ys": 0, "yc": 0},{"id": "07d76dfae87c48559694ffcce87bf63b.16", "url": "http://lh3.googleusercontent.com/f53I3jE1D2naleiX7n9dhq5Wv7mumKUt1M-6WVKOt3wIhcuDdxQNoFG7nejvfQDUhqNMfodEg6rcAqxEMDiXcpp_IVo", "name": "Hässelmara Fotbollsplan", "lat": 59.27618600000000, "lon": 18.63638600000000, "team_id": 2, "available_slots": 4, "bs": 0, "bc": 0, "rs": 0, "rc": 0, "ys": 0, "yc": 0},{"id": "07da778f75914247abdb7f28c24940ff.16", "url": "http://lh3.googleusercontent.com/ysMK47j7QWUsGa_gD1dygeVWnmPYCxac-tdxofowfUg3rHM5ktizkba9yMuZ8Jq6aGNhV1FeSJtfkEpjK0UG_bCihDY", "name": "Axel Sjöberg", "lat": 59.28947600000000, "lon": 18.91482800000000, "team_id": 1, "available_slots": 0, "bs": 0, "bc": 0, "rs": 0, "rc": 0, "ys": 0, "yc": 0},{"id": "09bd8510cadd4b4f91073d7e08953cf0.16", "url": "http://lh3.googleusercontent.com/v0folRZ0QEgESvQk6ZMmqpA8FFkGwwtwikhSSJUhPmfQG_6I50xXz93pjr2d60QReNb9rVmG3-GaglJE58D2dhhGBg", "name": "Naturreservat Skevik", "lat": 59.34119000000000, "lon": 18.39279100000000, "team_id": 2, "available_slots": 5, "bs": 0, "bc": 0, "rs": 0, "rc": 0, "ys": 0, "yc": 0},{"id": "0a0806bbfc7a4b6987ab87a1e80f4f92.16", "url": "http://lh3.googleusercontent.com/Xps7g2gs-00TI-udSt6oR5jk2n3eFSUK-jYcYV0ZKJYt0MZ1Z4xxWLRdZdjoxIcFwQWzKFUbxlXgo4iq5BzQUUMHTGg", "name": "Gustavsbergs Kyrka", "lat": 59.32657400000000, "lon": 18.38642900000000, "team_id": 3, "available_slots": 0, "bs": 0, "bc": 0, "rs": 0, "rc": 0, "ys": 0, "yc": 0},{"id": "0abb4d221ab548e3ab8ad1c59008e980.16", "url": "http://lh3.googleusercontent.com/kC8YOKq0cR_D7gPh3N5IM3e5s76jj-ZGtZ9kkG1t3B9_yUdhI8nycAPskN5u7779Col6PTpNcaYrzvveXfqJiW5qxz8", "name": "Fågelskådartornet", "lat": 59.32557600000000, "lon": 18.50927800000000, "team_id": 2, "available_slots": 5, "bs": 0, "bc": 0, "rs": 0, "rc": 0, "ys": 0, "yc": 0},{"id": "0cac0b27211439ad83e6bc314d5cbb9a.16", "url": "http://lh3.googleusercontent.com/8rap1NheyAPzll1gNYoD5amr8qTUApQkjdERNivqgtTdrNurgsXe3Dl_ubUwhIYubED9rvqRmSXN0ykwSTYdFxKCgghRw8hSUWaQxPvn", "name": "Informationstavla vid Överby gård", "lat": 59.36104900000000, "lon": 18.65075300000000, "team_id": 1, "available_slots": 0, "bs": 1271, "bc": 6, "rs": 70, "rc": 2, "ys": 251, "yc": 6},{"id": "0de01833533b4c5994061b2b713ed88b.16", "url": "http://lh3.googleusercontent.com/3nTGMo737sn_p1SeerKglYhG2n0SyAQ14qScJ2xVgr_bEbJ2aVdTD3T9NZJ-3wNLuBnJHM25FmuCuvbAv7XkaTKA7qoI", "name": "Djur Information", "lat": 59.27771100000000, "lon": 18.62487500000000, "team_id": 1, "available_slots": 0, "bs": 0, "bc": 0, "rs": 0, "rc": 0, "ys": 0, "yc": 0},{"id": "0eac711c541347e2aedd70988a2f40b5.16", "url": "http://lh3.googleusercontent.com/pT-hh3w1JaqMc0R4IoWHYe0SzUQcjgKEhDVzERoGMQQlVu_8zX4PyRdj8DGAeJ-3rOhAUBpt7CUzjkWNd20qCLMhAUQ", "name": "Bokhandel Vinterhamnen", "lat": 59.28688200000000, "lon": 18.70419000000000, "team_id": 2, "available_slots": 5, "bs": 0, "bc": 0, "rs": 0, "rc": 0, "ys": 0, "yc": 0},{"id": "0f803eb85e9b43d0ba9337bcc0d78de5.16", "url": "http://lh3.googleusercontent.com/c-Dh8Wxi1ANaVacfxhZtHZzQXYtsGYFyTHHrypjsmbM40ESmjcMLsvET1zHFVr3bezQH28FVDXx4XpufVNWdvCgQ_60", "name": "Vrilar", "lat": 59.30308100000000, "lon": 18.55001000000000, "team_id": 3, "available_slots": 3, "bs": 0, "bc": 0, "rs": 0, "rc": 0, "ys": 0, "yc": 0},{"id": "0fd930837e5144f7b5db2e1f44950dc1.16", "url": "http://lh3.googleusercontent.com/WzeqWxBQurPrETfJPTgyU8XE7hqE6WUXZtXyOnCTmwT_XYUjEI5k60NLXUx8clz0EkBP8zEAp5pNiE5hUSsbW54PRPjUtAge3QI6GNo7", "name": "Roland Svensson Museet", "lat": 59.42408200000000, "lon": 18.90909800000000, "team_id": 2, "available_slots": 4, "bs": 0, "bc": 0, "rs": 0, "rc": 0, "ys": 0, "yc": 0},{"id": "11f69b6aef7f4d389e49c24757882955.16", "url": "http://lh3.googleusercontent.com/rtxYLVujfOsgC7v12-R5c5Ld_oDLb9QEgUyhAY27o1hhXv99J4J7U360tbJu6lyGaDPtez54LTGGl1h4L9-iHja04nY", "name": "Evlinge anslagstavla", "lat": 59.34545900000000, "lon": 18.55945300000000, "team_id": 3, "available_slots": 5, "bs": 0, "bc": 0, "rs": 0, "rc": 0, "ys": 0, "yc": 0},{"id": "12de0dd75f0d4e21b06b1ee907303901.16", "url": "http://lh3.googleusercontent.com/_geb-SP8sBwBRnOt5LIZBAXGWvSiwR06br4XDCc5Vn5SoaCA8MxssXy868AX0R6ndCWOYVL0M0jCEP5SBXsnczjtT7I", "name": "Toppstugan", "lat": 59.37566200000000, "lon": 18.53977800000000, "team_id": 2, "available_slots": 5, "bs": 0, "bc": 0, "rs": 0, "rc": 0, "ys": 0, "yc": 0},{"id": "1374391d38dd476daa65e64f4b380962.16", "url": "http://lh3.googleusercontent.com/INDIdzIeljKPCNnVd44tGyEi5B_z-0GHo_PH240N1s-QeBXvtR9F1WBpnw7MLcR9ZAqyjEAAY2GxTZkG8Lsy35G_0v0", "name": "Havscampingens Bangolf", "lat": 59.29298800000000, "lon": 18.42210700000000, "team_id": 1, "available_slots": 5, "bs": 0, "bc": 0, "rs": 0, "rc": 0, "ys": 0, "yc": 0},{"id": "13afd0bfe68d3bb9abb481d9d6b20e12.16", "url": "http://lh3.googleusercontent.com/g68r78BRJ2lK30haeJvPCo-qbnY2m-yskStuVivIjxVREDmX6Iu_gHZgUtSCUVfgDg_oFo6KjuXcHA0faPbycPDA2bKhQMJv3VD-FsogvQ", "name": "Skogshinderbanan - Balansgång", "lat": 59.37090600000000, "lon": 18.54017400000000, "team_id": 3, "available_slots": 5, "bs": 0, "bc": 0, "rs": 0, "rc": 0, "ys": 0, "yc": 0},{"id": "141c8d66d0a449fe80b06f7201795ce7.16", "url": "http://lh3.googleusercontent.com/OHRikqQ6odz8sJjsqzrhpHnSsGrhVVxwz_UizZDok9lFP0HRLugQK_Iiarytj1b6RzzNYUWGruqaVkpOuyauhBV_U1A", "name": "Harö klockstapel", "lat": 59.33708700000000, "lon": 18.89036000000000, "team_id": 1, "available_slots": 5, "bs": 0, "bc": 0, "rs": 0, "rc": 0, "ys": 0, "yc": 0},{"id": "167190340c9e47a2adcba9d441083f07.16", "url": "http://lh3.googleusercontent.com/LwV25EblSIBjkwhlRpOGqK1ztAHNuPAYWhHMPyE7DGSKucx-mACzGvZQmT0VKxEavIP9pUIhOQC4P2XvNkV30Gcpo48", "name": "Värmdöleden", "lat": 59.31423200000000, "lon": 18.48213100000000, "team_id": 2, "available_slots": 5, "bs": 0, "bc": 0, "rs": 0, "rc": 0, "ys": 0, "yc": 0},{"id": "17a57c11d6d144e7b6516fac9e0be18f.16", "url": "http://lh3.googleusercontent.com/YVe8jLTfJeQYePniMaFJbK8SrAz8nqdHv6t5uDEUL_vcsp6ycX31KD_nJcBrWyQIBTscL8n-z_aGprIHLiwYiAbxmwIa", "name": "Barnholmsvägens samfällighet", "lat": 59.31925200000000, "lon": 18.71277400000000, "team_id": 3, "available_slots": 5, "bs": 0, "bc": 0, "rs": 0, "rc": 0, "ys": 0, "yc": 0},{"id": "18dc92856f9343bc96fc6b324ffd7838.16", "url": "http://lh3.googleusercontent.com/pAsJtgTbCoc5G-veWNxrGTVNSzqyRrBg7jTBR5Z2P4__zfkNkt7uuGIxWXnsdQRQgLetp7kFGVbskNTc3UiH-4ijcg", "name": "Järnåldern Säbyvikingar", "lat": 59.26478700000000, "lon": 18.48578100000000, "team_id": 1, "available_slots": 2, "bs": 0, "bc": 0, "rs": 0, "rc": 0, "ys": 0, "yc": 0},{"id": "190b84b8ea57425eb5ddf953aced0861.16", "url": "http://lh3.googleusercontent.com/yqEzyWwHmoYbRr5RHsqUQH4_zpkP1lEAC7jrIoNsB0l2k2-eFUtyviDt5kdqoxDQgo4JPtX1RpbbFHMqFa7aEYejdg", "name": "Nämdö Kyrka", "lat": 59.18434800000000, "lon": 18.69451300000000, "team_id": 3, "available_slots": 1, "bs": 0, "bc": 0, "rs": 0, "rc": 0, "ys": 0, "yc": 0},{"id": "192276e4008e4c69811ef02b9f160b53.16", "url": "http://lh3.googleusercontent.com/kCewaAxqL4PjL3tdtUnmW32NwFcpStlVwgaNrUbHDANsm7QAIEun8CRFTUIL6a0L8At2KaVwxrV8DB4hvWJn2bllkw", "name": "Kroksjöns boulebana", "lat": 59.29294900000000, "lon": 18.53542000000000, "team_id": 1, "available_slots": 5, "bs": 0, "bc": 0, "rs": 0, "rc": 0, "ys": 0, "yc": 0},{"id": "19266f2f8f6a4f9aa478d369490d8735.16", "url": "http://lh3.googleusercontent.com/e--sgUHUlvo3uk6i8qDRct7s-oQzH1-LpJ2ATqpriUhGaA6FFU5DWsJQapUgltp1cjEeupbsIBuZRlQ5y9_KoRoXaA", "name": "Promenader i Stavsnäs", "lat": 59.28721800000000, "lon": 18.68879500000000, "team_id": 1, "available_slots": 2, "bs": 0, "bc": 0, "rs": 0, "rc": 0, "ys": 0, "yc": 0},{"id": "197d5c0eebfa47e4be2021797bd180d6.16", "url": "http://lh3.googleusercontent.com/VTLEJTGITgTC478D0sshaqtVKkkf2A2JO5QIZ5Nh9cEmiEWNAfMmVjvV_WXHskAYBdFapG4I9SQn91JMk11he2dpQNE", "name": "Stavsnäs gärdes information", "lat": 59.28681700000000, "lon": 18.68754100000000, "team_id": 2, "available_slots": 1, "bs": 0, "bc": 0, "rs": 0, "rc": 0, "ys": 0, "yc": 0},{"id": "1b41bd4083404e31ae4ec2b2afd2868b.16", "url": "https://lh3.googleusercontent.com/HABDo9CqY4VWF7bMUeqSr7_EqZk6uqQRyRMwT_O5QAMvhcBD1cyre7rCTlRdnOCGLTHdXSo7EFHuzU3j7rYzFEbufA", "name": "Konst på Ladängen", "lat": 59.36977300000000, "lon": 18.64257500000000, "team_id": 1, "available_slots": 0, "bs": 1107, "bc": 3, "rs": 1440, "rc": 2, "ys": 289, "yc": 1},{"id": "1c125ff8d3414ef2a5fe528880092eec.16", "url": "http://lh3.googleusercontent.com/WQoJ71rtTaInlUkG4FK9Zq6_oGnmjUwRh7RS8EZZfYsXDC6d155EHnlyontPv16k6JsDHi4iu6hlg6ApaxCWL3WEjGc", "name": "Sandhamn Bunkern", "lat": 59.27733500000000, "lon": 18.91163100000000, "team_id": 2, "available_slots": 5, "bs": 0, "bc": 0, "rs": 0, "rc": 0, "ys": 0, "yc": 0},{"id": "1c989584e3634dce80b55e1990515a95.16", "url": "http://lh3.googleusercontent.com/Xt9MZZH0aO-DbEKi5NxCcnatv1BA12xvYaCeALqUo_ZPOnY1O5NWoaFHnnNx6cd_WbGXBPVUYwsFxMJe2mFJEnx6Ksc", "name": "Möja Naturstig", "lat": 59.42801600000000, "lon": 18.85985200000000, "team_id": 1, "available_slots": 5, "bs": 0, "bc": 0, "rs": 0, "rc": 0, "ys": 0, "yc": 0},{"id": "1c9de8ada89746b5ae606b293bf42416.16", "url": "http://lh3.googleusercontent.com/Fl66A22LjK2MuRr2JL2G7hdydjmTUv4figmgNcQHoEZcNUItdcjAf1oga6TqkB9nivAYJ0uctqH7XaQ65yg7rXcE7g", "name": "Charlottendals lekplats", "lat": 59.31338100000000, "lon": 18.39095100000000, "team_id": 2, "available_slots": 1, "bs": 0, "bc": 0, "rs": 0, "rc": 0, "ys": 0, "yc": 0},{"id": "1e2e9f81125a3b77aa0c42b2625431e8.16", "url": "https://lh3.googleusercontent.com/aQNIqOvi71y7cIiQLFVNOpsZLJoALaeLHxzZ9WvLDuzWzO2rkJX-pTmAHAJOsiBZeuz-aXUZrwXbjvKrbVTrdlZI1gpwGWcEdQ3PJmE", "name": "Gottholma farm yard", "lat": 59.31953400000000, "lon": 18.36154700000000, "team_id": 3, "available_slots": 2, "bs": 0, "bc": 0, "rs": 0, "rc": 0, "ys": 0, "yc": 0},{"id": "1e6940223ce73f0d858cd3d3b332ed2e.16", "url": "https://lh3.googleusercontent.com/rFBV6ocLjHjQyldUusP_jCQnflZf5muojRa_CDrVzo_nGBT8WWpDbwR-ItHQcYFfXfQLYxcDOsHOxoQM1NbrJaQzZP_1c86DO2xJgsMV", "name": "Välkommen till Nybörjarviken", "lat": 59.40611600000000, "lon": 18.56616400000000, "team_id": 1, "available_slots": 1, "bs": 212, "bc": 4, "rs": 150, "rc": 3, "ys": 2074, "yc": 4},{"id": "1efa00f4e7a1433d89b83c2506be544b.16", "url": "http://lh3.googleusercontent.com/L5EhGLFT2sWoeNaFHn9-8rne4Xu7H6_pWfhVrcLOszvUciiQPgLgVlOqSjpyuOxn9hy3CNyWAwnYW-0i--8RNVZusCU", "name": "Kyrkentre", "lat": 59.40524100000000, "lon": 18.88143100000000, "team_id": 1, "available_slots": 2, "bs": 0, "bc": 0, "rs": 0, "rc": 0, "ys": 0, "yc": 0},{"id": "215e5316eb844b62bbb640995c858a56.16", "url": "http://lh3.googleusercontent.com/qUIYXlesNfAqKyFcJyuPluL57Mjh263yW_i02R_j-wbIKzhy71y4U3mGQLZCTz5VDZSpPqXi9zdJkCPawuGOT8KJItwx", "name": "Playground", "lat": 59.33462100000000, "lon": 18.39496600000000, "team_id": 1, "available_slots": 0, "bs": 0, "bc": 0, "rs": 0, "rc": 0, "ys": 0, "yc": 0},{"id": "21dbbecdae5e43bcbaf9185cd6143523.16", "url": "http://lh3.googleusercontent.com/5bBmWCjg_U8Hg9IpgpOgXrzgjTNvF4YlDRBug9GxTVhYbW51YNcQYoDqbpOk1Imiwqxe14cd8tGXTUbHcQ8X5cYLiXcA14cih2CkVvhg", "name": "Välkommen till Norra Kopparmora", "lat": 59.33898700000000, "lon": 18.57228400000000, "team_id": 2, "available_slots": 5, "bs": 0, "bc": 0, "rs": 0, "rc": 0, "ys": 0, "yc": 0},{"id": "228e9826ed6e4a49b4e7cb16e3e85a01.16", "url": "http://lh3.googleusercontent.com/mH1c0WRcxDW_0qXdkbvg3y1TIlcpMFmH6nbNkHsA42zNuXwJGTdJe2jWMODX_CH8COrIjQBMTZt9mZ0xtP-5iiQltI71", "name": "Ingarö Utegym", "lat": 59.28010300000000, "lon": 18.43293500000000, "team_id": 2, "available_slots": 4, "bs": 0, "bc": 0, "rs": 0, "rc": 0, "ys": 0, "yc": 0},{"id": "22f1abc5790f4a08bba782b8f98f69ee.16", "url": "http://lh3.googleusercontent.com/oiInDJjnOJDbprWcKJhjTxAMaEyNXq-CZ7TXg0m3BbX6tGRcc9ewiszUzYztJ5ahAXn4xjZT-gUh4_qjEtHUp100VRY", "name": "Lekplats Dalgången", "lat": 59.30160000000000, "lon": 18.47212800000000, "team_id": 3, "available_slots": 4, "bs": 0, "bc": 0, "rs": 0, "rc": 0, "ys": 0, "yc": 0},{"id": "23128e15aa8b483a91fa255ec70fcd87.16", "url": "http://lh3.googleusercontent.com/UO7NfT6SAbG_h0N3afTT1z7mj75QE7ggzUrZzeSIydFj1IjNphPDi9jkXZh92YoBIvoXhWWhkEg0aINVVcPeEYyEiW0", "name": "Grantomtahallen", "lat": 59.31619000000000, "lon": 18.46627500000000, "team_id": 2, "available_slots": 2, "bs": 0, "bc": 0, "rs": 0, "rc": 0, "ys": 0, "yc": 0},{"id": "233a8abe81c94e6882e67791918faa7c.16", "url": "https://lh3.googleusercontent.com/5GIgMSJgasCslPFrvjDtOI0r5Az9D-_jEsq_5idXsRm7_uLS5sA_GyKhbx6rDv3sy-GaOPG80XV5aNNhAIzp1E9Wq6jp_y1MBTNIy9OW", "name": "Bodas Pärlor - karta", "lat": 59.36651400000000, "lon": 18.60553300000000, "team_id": 2, "available_slots": 4, "bs": 43, "bc": 2, "rs": 593, "rc": 14, "ys": 121, "yc": 13},{"id": "23ac4107f825438faf581c00d55932e0.16", "url": "https://lh3.googleusercontent.com/q3pdAR4IXxHQqN6U0uURBgZvvRJCdnRfUkFlA-xUvAwTzY4MzrqjyMPs7baSXYOZaDgxKF2P7S9Whw31IIHjni6u7Yo", "name": "Grinda Ägarskiften", "lat": 59.40868100000000, "lon": 18.56739100000000, "team_id": 1, "available_slots": 5, "bs": 352, "bc": 3, "rs": 480, "rc": 3, "ys": 6957, "yc": 1},{"id": "24593f4aabb0454381c9a982f668162c.16", "url": "http://lh3.googleusercontent.com/J2wQsVGMn2M__TlqaqEzZpUf7c7Wjzro1Jtf-nmS8PtbD_Cr38UlgZ2FmrUogUrm8iqtXoYIJYFxOHjvfjCQ0AtmWg", "name": "Äventyrslekplats", "lat": 59.32709500000000, "lon": 18.39903300000000, "team_id": 2, "available_slots": 2, "bs": 0, "bc": 0, "rs": 0, "rc": 0, "ys": 0, "yc": 0},{"id": "26a2d91d633d40bf98ed1ee75f0efdb9.16", "url": "http://lh3.googleusercontent.com/ivYsDyvPOshTRAPpFHiSOZ4yVAUZuMSwJfmchLrJgOwnP8H9uRUiEcc_A1t-8ww8U7FjRG8lYjhJUd3nqMEUJmRU7Ic", "name": "Vita grindarna minigolf", "lat": 59.31055700000000, "lon": 18.69442900000000, "team_id": 1, "available_slots": 1, "bs": 0, "bc": 0, "rs": 0, "rc": 0, "ys": 0, "yc": 0},{"id": "27f306d0954846a9ac4d9395d33fc0b7.16", "url": "http://lh3.googleusercontent.com/_gcqSIbVBBj0n-8vJd2HZC93CA8XkZrVAQRVqHnzwwQiyPHcK5UEB5wZpBJEnAJlZbaOnD613dVF669CFH0v6HT42uCZ", "name": "Värmdö information", "lat": 59.31252300000000, "lon": 18.42803200000000, "team_id": 2, "available_slots": 4, "bs": 0, "bc": 0, "rs": 0, "rc": 0, "ys": 0, "yc": 0},{"id": "28a9d747894a44568e60f73014deda99.16", "url": "http://lh3.googleusercontent.com/eH2rA6VrEKdodfCpqebZWPmYUYxnBQP0-62qvAyk464xId52lTv1OFNgtAXPzoR6XIO7MrQYVfTjqnD_8Zsl6c9J7KXboV7OnLcbJUVa_A", "name": "Lilla lekplstsen", "lat": 59.31946000000000, "lon": 18.50230900000000, "team_id": 3, "available_slots": 5, "bs": 0, "bc": 0, "rs": 0, "rc": 0, "ys": 0, "yc": 0},{"id": "28bbb5da77a74271b54aa17dfe5e24da.16", "url": "https://lh3.googleusercontent.com/a0oM0FvKZjLPTpU_UHyGWvzWdMXj4vLZiW6OE_l850gEpQbg6af3eD3zcTRmn8tPWL7m9QkQJuwO75mQa_c3MC0VOBST", "name": "Mossa", "lat": 59.41209000000000, "lon": 18.56880400000000, "team_id": 2, "available_slots": 4, "bs": 230, "bc": 2, "rs": 487, "rc": 2, "ys": 2583, "yc": 3},{"id": "2955bde3f9793faa8de1ea8130e3ca56.16", "url": "https://lh3.googleusercontent.com/QPUh6e8drjMKHAW98RVRzlZOA7MU__-y69YgmSow-j6auYfVK4m5fFnE7anbsiRqp1f0xEqOmr2UOnYmUCKMv7ze9thNN3Cn-yueJpmy", "name": "Gistholmens grillplats", "lat": 59.45225100000000, "lon": 18.74621900000000, "team_id": 2, "available_slots": 5, "bs": 502, "bc": 7, "rs": 262, "rc": 7, "ys": 468, "yc": 9},{"id": "2a376ad8f8f3448cb08ead83e3404dac.16", "url": "http://lh3.googleusercontent.com/jAj-cHU4m0ApGqRBtrO1ecHrX_xmHyKBPGy7oo_FFZu3yHfhzE5AioVsIzwlWX_n3j73_PZjoc5Y2z6NjrG5KAAjjRP2", "name": "Vådkasen", "lat": 59.40895600000000, "lon": 18.89002700000000, "team_id": 1, "available_slots": 4, "bs": 0, "bc": 0, "rs": 0, "rc": 0, "ys": 0, "yc": 0},{"id": "2c11522d75074fe4bbc4a1abe87a4727.16", "url": "http://lh3.googleusercontent.com/3e4w68E1vqOY00OmsQfrzkMhNEoIgWUzYYgwHDNFuCVfrnTfJV964JGo7gcmDNGlHkoOC4H4olYjZZ-jhRm8gua29KJA99muIXh_jgxH", "name": "Södersunda Brygga", "lat": 59.27019100000000, "lon": 18.73564300000000, "team_id": 2, "available_slots": 5, "bs": 0, "bc": 0, "rs": 0, "rc": 0, "ys": 0, "yc": 0},{"id": "2c4dae95ae8d4d77bea2c881553ff389.16", "url": "http://lh3.googleusercontent.com/agML2GSZ5OUDp6i1yK6T48SF-U298sIKovysJNHfMsNJLUnVb9cp3KyoBd4nnrlDvbQcnT1MvsLlrxSVzZH5eKwWZvcE", "name": "Klockstapel", "lat": 59.28708100000000, "lon": 18.91195700000000, "team_id": 1, "available_slots": 3, "bs": 0, "bc": 0, "rs": 0, "rc": 0, "ys": 0, "yc": 0},{"id": "2d12c7fb622249a199f523efa268efa7.16", "url": "http://lh3.googleusercontent.com/SqTgAQpiUCH_p4eogcO2WF0gBzoz9fKbACJ8bFRA76ztlJFxsOERDgqgpDE9WdRtZj7fGhaQtOu3utUzMI6bU2PYsQ", "name": "Tennisbanan på  Wermdö golf & country klubb", "lat": 59.30409700000000, "lon": 18.45566600000000, "team_id": 3, "available_slots": 1, "bs": 0, "bc": 0, "rs": 0, "rc": 0, "ys": 0, "yc": 0},{"id": "2fd737d3f09e378288c7f7638a7e2c68.16", "url": "http://lh3.googleusercontent.com/CzbRIVq4g1qob9sHNb4KD9BJO9Yn2Vore_YkoDR8XEvYN7Xv1UzkGsOWnGzgEfoN4DEniKEqpckAqYhlpdoZG1IlwY7U5rSowENJuWF5", "name": "Living coast Långvik", "lat": 59.23896100000000, "lon": 18.52064800000000, "team_id": 2, "available_slots": 5, "bs": 0, "bc": 0, "rs": 0, "rc": 0, "ys": 0, "yc": 0},{"id": "3039a186ec4e4edfb38c1b2fcf614e5e.16", "url": "http://lh3.googleusercontent.com/h_DFcG1PkbNleJEP8i7Aq3XgEpnkoCY9vPnJqGqu83mpyH3N2ZcJyAiRXIXll9exu4pVbNGEqx916HRzs4v0hYWnSQ", "name": "Välkommen till Björkviks havsbad", "lat": 59.22086300000000, "lon": 18.53852000000000, "team_id": 2, "available_slots": 5, "bs": 0, "bc": 0, "rs": 0, "rc": 0, "ys": 0, "yc": 0},{"id": "32039b94ba064e7aad77aa0ee2400396.16", "url": "https://lh3.googleusercontent.com/IuS1rTj1GQ4c6dCxbjRTHAU3A6_vNgemu4_bNPfaV8IhvfSB6xHR_hHitgGi9czRO7Gk_Ds5t0JtDKwOo_EkUrYEc6OX", "name": "Naturreservat Grinda Södra", "lat": 59.40758300000000, "lon": 18.55337600000000, "team_id": 1, "available_slots": 2, "bs": 132, "bc": 19, "rs": 236, "rc": 19, "ys": 151, "yc": 19},{"id": "329e64bc7526479283a1cf81e41311ef.16", "url": "http://lh3.googleusercontent.com/8FK1wjG69a4oHkPpGgJCqWmIFC5XMm4y8_Vg81UzJCgyQ5e8NiqcRNB3R5lfcb1uViurCAwYm6EBwRRV-w8C7y9xZQ", "name": "Brännskeppsbackens samfällighet", "lat": 59.29008800000000, "lon": 18.66147400000000, "team_id": 3, "available_slots": 4, "bs": 0, "bc": 0, "rs": 0, "rc": 0, "ys": 0, "yc": 0},{"id": "331eb7501c2f4a8790e57bb8984cd334.16", "url": "https://lh3.googleusercontent.com/pNZhc6uJIlk4-ZKTJLy4DnHEVCis4DuXG303T9_w97KaqyUmZykLhMOH0ac3QeEZ_VyutAh-8FAdnEv23AKoE5rcGkQ", "name": "Fotbollsplanen vid Överby kvarnväg", "lat": 59.36595700000000, "lon": 18.65430200000000, "team_id": 1, "available_slots": 5, "bs": 1352, "bc": 3, "rs": 0, "rc": 0, "ys": 2469, "yc": 2},{"id": "3481f64302eb426a9ba8dc56f87959a5.16", "url": "http://lh3.googleusercontent.com/17jgUlMMFjrtAvvyAUcArjV-81XQEg4Qpllp_2IHEDOcv_msfr5RPMmznpcGkUI3OAeZrsWqGvfDuaNOPU_719zny1E", "name": "Farstaborg", "lat": 59.31882200000000, "lon": 18.38253500000000, "team_id": 1, "available_slots": 0, "bs": 0, "bc": 0, "rs": 0, "rc": 0, "ys": 0, "yc": 0},{"id": "34df24f3602c4b2ab7b6cfe91e1b0b4a.16", "url": "http://lh3.googleusercontent.com/G6LKkH2X76tKmsRb0-7KEvBNbrv0lxDu_-z-NtroaC4zyq4hf2plhKAB8rZLS5NHVRH9ymQ6t7ZR_VMHLCyUfzOJhw", "name": "Djurö Sporthall", "lat": 59.31227800000000, "lon": 18.69756700000000, "team_id": 3, "available_slots": 4, "bs": 0, "bc": 0, "rs": 0, "rc": 0, "ys": 0, "yc": 0},{"id": "354e51a6cf674b64b11449aa60e05c9b.16", "url": "http://lh3.googleusercontent.com/EULpq8AQiV36bx5dTLAmcZKih-UucLIRfP2TZ1JTpY4P_yMQ6_-4QkA9WGrUVugJOGv8YE7sXG0dv5NOYq-lgKdNdSdy", "name": "Hagaberg", "lat": 59.30969500000000, "lon": 18.46940200000000, "team_id": 2, "available_slots": 3, "bs": 0, "bc": 0, "rs": 0, "rc": 0, "ys": 0, "yc": 0},{"id": "365678ebb31632d4b5e1e7c33ab6e134.16", "url": "https://lh3.googleusercontent.com/LhiqYnqbX59vXt4Dd9OtK_5g3ygvy8ibfUd46QZi7B0mhrHT8FeIKqJqPNBiJn5sFpJtRckUPBsZpu3Fl39feX_8WcN3C30aFwc387cn", "name": "Svartsö sign post", "lat": 59.45515900000000, "lon": 18.67884100000000, "team_id": 3, "available_slots": 5, "bs": 482, "bc": 6, "rs": 358, "rc": 3, "ys": 1096, "yc": 5},{"id": "37f498a0d63b3513a783f06405c5994f.16", "url": "http://lh3.googleusercontent.com/gIrjCnUOSUFXKPwI09ToQ0RZ3r23FPZ-7mTFEUWUFOvGWl99r2nGV7McWqLR6nmyZklORrkBIVfUF2om90OZ86DjJ1lr1_ALNzls_70t", "name": "Yoump Värmdö", "lat": 59.30958700000000, "lon": 18.38358900000000, "team_id": 1, "available_slots": 0, "bs": 0, "bc": 0, "rs": 0, "rc": 0, "ys": 0, "yc": 0},{"id": "39b54818a4a5479eb4e85656bca16731.16", "url": "http://lh3.googleusercontent.com/NYy41iPDO2-0gdxxLb1h_IuWXW5Z1ICYIuigaxC2SkbCkEV253INztHfyylknwAGGxVM2zcsv4JT8IyZmCr6ePaiA50", "name": "Djurhamnssvärdet", "lat": 59.30947500000000, "lon": 18.71047300000000, "team_id": 3, "available_slots": 4, "bs": 0, "bc": 0, "rs": 0, "rc": 0, "ys": 0, "yc": 0},{"id": "3a3053e6f1ad4b81a9bb1ab06dd35c31.16", "url": "http://lh3.googleusercontent.com/Jq0APmtINkfOCjKwdonBSrJP8xBshmPfQCEuIym5_1xqdSF_fEWZGhk2JRgKEe_MDM-itZ3LedmbmfjuCI1W7ujd6_4e", "name": "Pärlan", "lat": 59.40629000000000, "lon": 18.88805600000000, "team_id": 1, "available_slots": 3, "bs": 0, "bc": 0, "rs": 0, "rc": 0, "ys": 0, "yc": 0},{"id": "3b4aac774f104ffa8e3a3a5f9a9b29b6.16", "url": "http://lh3.googleusercontent.com/QNIRb2yXz0kshtJJtBzh1HTPGoDpadxSZqSKBu1YbBICxOdgohoH784ViKK34DK6yc_2dLRceD0M-ib1zOpOX04yZjY", "name": "Lekplatsen Stavsnäs by", "lat": 59.29172100000000, "lon": 18.68791100000000, "team_id": 3, "available_slots": 5, "bs": 0, "bc": 0, "rs": 0, "rc": 0, "ys": 0, "yc": 0},{"id": "3c7b8f7ce3024830a0af0085baeb0058.16", "url": "http://lh3.googleusercontent.com/OfUbLXwXoZ1rC_jlKxfItx6cg__pMEfPCt3jZMl1lekgA0b4mzk36Rf7o374qJPxWoc2ziBaNU-mxvPjtYBcqduVkMG6", "name": "Välkommen Till Värmdö", "lat": 59.28259000000000, "lon": 18.57137600000000, "team_id": 2, "available_slots": 1, "bs": 0, "bc": 0, "rs": 0, "rc": 0, "ys": 0, "yc": 0},{"id": "3d6b138eef5f4242ad44ff954618efcb.16", "url": "https://lh3.googleusercontent.com/EYukEMD7SGldGfK88YjgBFfuV_H7FyGhyDee1OlL6iH7_Qm7rYoMIFeY_RWbmAOesfGPNhzJrnPX5su3wsyQeBaiEZwhf48wkhPswPQ", "name": "Dansbanan på klubbholmen på Verkarna", "lat": 59.38304500000000, "lon": 18.63381500000000, "team_id": 1, "available_slots": 5, "bs": 1271, "bc": 7, "rs": 147, "rc": 7, "ys": 179, "yc": 1},{"id": "3d6e09457faa42ed9a37affcb3e02200.16", "url": "http://lh3.googleusercontent.com/JuznLJq_gihgP3g4-VPP4UQarei8-cWExuFYp24Lpg4ATitJtAQCKWz3MAaIKV4XQZrQXtu9CpDfSAve2cApr_-S-Q", "name": "InformationIngarö", "lat": 59.28258800000000, "lon": 18.42618400000000, "team_id": 1, "available_slots": 4, "bs": 0, "bc": 0, "rs": 0, "rc": 0, "ys": 0, "yc": 0},{"id": "3d79b843c09c43ebac46e850cfb2df05.16", "url": "https://lh3.googleusercontent.com/Fg8TSKs9oPJyq5bIuigcgdDxr0FtXUHpmjDys3XlYrDv_sRSOVDwvUwlR9aSg4y87wDnkl1I_EUN-SCfIObg9Z39nQ", "name": "Gula Vindövarvet", "lat": 59.36354000000000, "lon": 18.67396900000000, "team_id": 1, "available_slots": 0, "bs": 1132, "bc": 6, "rs": 35, "rc": 2, "ys": 69, "yc": 4},{"id": "412740fb5707434988528fba8904cdf4.16", "url": "http://lh3.googleusercontent.com/EOVJOq_t6n-eqaN7o_F3mKT_tIllLAJuUXfkV47y02C4AX62mpx_DTBlClh37YbDRWC_XbaGc-tmL4Oy172C40SpI8s", "name": "Runmarö Ekan", "lat": 59.27885300000000, "lon": 18.73567400000000, "team_id": 2, "available_slots": 5, "bs": 0, "bc": 0, "rs": 0, "rc": 0, "ys": 0, "yc": 0},{"id": "414a44ec575c43cb94c5556f485b0f5e.16", "url": "http://lh3.googleusercontent.com/XLyx6_kNxQo4_5gnNUsrsOIRDKInIqyXRZ3ARpDIGvzWYMACojeve85Det4-8Fi11HHYHXoWPGNeDeA_e6jMI6oZ5-0", "name": "Stone-Child", "lat": 59.33281200000000, "lon": 18.39000900000000, "team_id": 1, "available_slots": 0, "bs": 0, "bc": 0, "rs": 0, "rc": 0, "ys": 0, "yc": 0},{"id": "4214b792afdf4263bb72ec6b0de483a9.16", "url": "http://lh3.googleusercontent.com/XgwkRigGHf9WTIAmvgN_CTUU0zO5l0kK8Oi4WESldrV9GxbwA7WzW2eyx_2C7O-j59TXhyI5yypsl6REUtuELsdFTQg", "name": "Lotsarna på Runmarö", "lat": 59.27055800000000, "lon": 18.73679200000000, "team_id": 2, "available_slots": 5, "bs": 0, "bc": 0, "rs": 0, "rc": 0, "ys": 0, "yc": 0},{"id": "42ca31831f2146f8a718ebba61aa5ce9.16", "url": "http://lh3.googleusercontent.com/9XojzxuZyGR78vumKNo6HVWvygq5h_1G75uTK1qkBNirkqkSH16_zrIupMIL4L-b8K6FzSewpCGyTxLcX6qthVYXiA", "name": "Honungsbiet", "lat": 59.26726100000000, "lon": 18.50300700000000, "team_id": 1, "available_slots": 0, "bs": 0, "bc": 0, "rs": 0, "rc": 0, "ys": 0, "yc": 0},{"id": "44e0cf4d4ccb3582bb0ae77d4dc1870b.16", "url": "http://lh3.googleusercontent.com/Pn6Fj3RF3UPW9HnPoV1M7KlPOrqQ2er5-HIrHJifvGGYeFXuBrcIvPMXvGWH-OJwb_PRA76ZVy1JRkpWR-fUduZMk1rKBb3NGtmKxKLkvQ", "name": "Pensionat Lugnet", "lat": 59.18088400000000, "lon": 18.67492200000000, "team_id": 1, "available_slots": 5, "bs": 0, "bc": 0, "rs": 0, "rc": 0, "ys": 0, "yc": 0},{"id": "4622669c0b8647889af7fc1bc540de82.16", "url": "http://lh3.googleusercontent.com/Cv6x2k59D3Zdk9UdNgQwkXXq7cWqZ3fSgZGbahu93CPVrM5EgwDVdBEaji0pScWO2VQPr3792FmUC9bzNMVx61i0UaM", "name": "Lekplats med stenbumlingar", "lat": 59.31951500000000, "lon": 18.48472700000000, "team_id": 1, "available_slots": 1, "bs": 0, "bc": 0, "rs": 0, "rc": 0, "ys": 0, "yc": 0},{"id": "463e14acddee446e9e900f483c74afed.16", "url": "http://lh3.googleusercontent.com/Jj5j1mL1_6Wzw_zYpwwPSIqWAIaBHvfVc0KptP_PcYhFPRPHkSVcMTseHAmK1n2Bzzdyqi9nnI6Ek1y9aR6Xcz4rcTy6", "name": "Strömmas tennisbana", "lat": 59.29952200000000, "lon": 18.51331500000000, "team_id": 3, "available_slots": 2, "bs": 0, "bc": 0, "rs": 0, "rc": 0, "ys": 0, "yc": 0},{"id": "4857dc4cfe194516af159044d12176ac.16", "url": "https://lh3.googleusercontent.com/ho3JzVhmYJ72_wOpmj4jTk2Dr5UZ-yg1lg5zPuGUFPbW7ZkbmIz29qaSKSmOAIrM6G4oo222OyjXnJNrfJug8nQObFNK", "name": "Skärgårdsstiftelsen Grinda Gästhamn", "lat": 59.41418600000000, "lon": 18.55693600000000, "team_id": 1, "available_slots": 5, "bs": 314, "bc": 19, "rs": 138, "rc": 17, "ys": 111, "yc": 16},{"id": "48a4033c0390449da13d547413540ef0.16", "url": "http://lh3.googleusercontent.com/5T0CH4eU8zh7yK8c6fAHCM3vuJfpKINdJQ2yXfVefvx0vOq-AugYv47uqYQ9uSU1fmWmqkJ9KvjJxPCzEG5VRPhGlA", "name": "Gamla ångbåtsbryggan", "lat": 59.35417900000000, "lon": 18.64295200000000, "team_id": 1, "available_slots": 4, "bs": 0, "bc": 0, "rs": 0, "rc": 0, "ys": 0, "yc": 0},{"id": "49340ba33f5840ef9144f6cc5b56b820.16", "url": "http://lh3.googleusercontent.com/nUG0crlpVvZSCmjpn3num_7pLC5h3QmY-BfKpiI7YfsLgF5_GcaIIojapE6nDCe01pgLmjvO8bW5WfSGksYAkuQ6CvjJ", "name": "Idalens tennisbana", "lat": 59.22307200000000, "lon": 18.52743900000000, "team_id": 1, "available_slots": 5, "bs": 0, "bc": 0, "rs": 0, "rc": 0, "ys": 0, "yc": 0},{"id": "49a3eaacaa8746a7ba4902cf7f153fc6.16", "url": "http://lh3.googleusercontent.com/FWt6FevSYPDzORVkeeYU3UN96CMMSA87cNlHXYpK1AHPNWvUoKIanQZ6pjPMCi0pQ03hra3rdA_KcNzHub9Guf3u6CCQMBz7Fe4fIy8PHw", "name": "informationstavla Fridens samfällighet", "lat": 59.28016500000000, "lon": 18.63519800000000, "team_id": 2, "available_slots": 5, "bs": 0, "bc": 0, "rs": 0, "rc": 0, "ys": 0, "yc": 0},{"id": "49fb83416f524fd989a3ee14585246ca.16", "url": "http://lh3.googleusercontent.com/q2PgH3SqZF5oA0zsTHsyBpZxvpIbJ-vuw3Gi4Hn3SaMI9xh7BBZyIOQ5-4eE0fuBNzl7khe-OfMoEy_LBPrZCYOs2RA", "name": "Sjösala 7-mannaplan", "lat": 59.27650500000000, "lon": 18.69096000000000, "team_id": 2, "available_slots": 5, "bs": 0, "bc": 0, "rs": 0, "rc": 0, "ys": 0, "yc": 0},{"id": "4ba93fffd1c445fd8d05a79b5e9beb0b.16", "url": "http://lh3.googleusercontent.com/PZN2xvL27QHDqlfiUAHR14x_qAC1QXAOKpv9MMPbf5ekDme35gw0jSW2x36wEnobwLXi8olVNDVwgCk1K4oxsBouWQ", "name": "Saltarö Tennisklubb", "lat": 59.34720900000000, "lon": 18.60237000000000, "team_id": 2, "available_slots": 5, "bs": 0, "bc": 0, "rs": 0, "rc": 0, "ys": 0, "yc": 0},{"id": "4bcd06247b6e48758dc5d89942534418.16", "url": "http://lh3.googleusercontent.com/p4IfG2WerNL-oulS1xc9h3zTb4pDc4ExVz_2On1Z50cO6VnCu61y014KAXtyrQ4aIahiMCh6Og1pWrFhbzwII1gbEw", "name": "Gustavsbergs Hamn", "lat": 59.32335800000000, "lon": 18.38476500000000, "team_id": 1, "available_slots": 3, "bs": 0, "bc": 0, "rs": 0, "rc": 0, "ys": 0, "yc": 0},{"id": "4bdf1111348c44e4aa8f756e118e78b4.16", "url": "http://lh3.googleusercontent.com/uYSiGAZp5nuDVE_c80u5L845MllLB3y3jKJLni2MD0Dspp-9Q9Xvp0TDu5g8NjZlFbFnftXqIz135bB5dBxtk_gjHg", "name": "Billy The Bever", "lat": 59.33953800000000, "lon": 18.38584600000000, "team_id": 1, "available_slots": 5, "bs": 0, "bc": 0, "rs": 0, "rc": 0, "ys": 0, "yc": 0},{"id": "4ccaf8b4e4393b04ac6f101d256a5b58.16", "url": "http://lh3.googleusercontent.com/z7XT7KIouLXyAd1IFK1a9B8ui9yLTLnzTWVmtxoDAaq7CXlwXqBhZ7RTIwI2viS3ugxO2XjQW2A_mQ05OSPZgxeLruhuqRXQhpJX_eeP", "name": "Football field", "lat": 59.28522700000000, "lon": 18.49823000000000, "team_id": 1, "available_slots": 2, "bs": 0, "bc": 0, "rs": 0, "rc": 0, "ys": 0, "yc": 0},{"id": "4d65ea4d3a54418caa277f7acd0e7708.16", "url": "http://lh3.googleusercontent.com/P_xdL3fnOkEkOWEpTrQhh4e7BhSymz4NB3ohGzrF0SNpJ7CgbbzWLtZU7BTFocuv-3UeA8MqFBsAc0FZV4DZsIf3Bwo", "name": "Ungkulturhuset Gurraberg", "lat": 59.32747200000000, "lon": 18.39256400000000, "team_id": 1, "available_slots": 0, "bs": 0, "bc": 0, "rs": 0, "rc": 0, "ys": 0, "yc": 0},{"id": "4dd38b9c3ea94c948256f90256bd5158.16", "url": "http://lh3.googleusercontent.com/MgDe6SK4BQgtncQgzgAKKVfwd4ig3lhpWNYwi_VpqQHYG8PWwS61W6mmLs-bHqkZZnwODvXo9ROTee9mlzBlLMbzcQ", "name": "Djurö Minneslund", "lat": 59.30458800000000, "lon": 18.68939800000000, "team_id": 1, "available_slots": 5, "bs": 0, "bc": 0, "rs": 0, "rc": 0, "ys": 0, "yc": 0},{"id": "4e08f68cb49d47059e4a612be954c886.16", "url": "https://lh3.googleusercontent.com/Ko5kgiYK2cJ_OpebwfCHnE40S9ivnC3HfQe6yFto-dtomBN4NatTlYstCTOQtPufr-gFYqvRSsGrOn0ak9mKUUVU8fc", "name": "The Stone", "lat": 59.32594900000000, "lon": 18.34280700000000, "team_id": 1, "available_slots": 5, "bs": 198, "bc": 4, "rs": 581, "rc": 6, "ys": 1009, "yc": 4},{"id": "4f146c061e4c4c338d7d845ad0f18cfe.16", "url": "http://lh3.googleusercontent.com/LOVx3DZabbQX-4n6-dsIn0f5hR6TIO6tEePTY5IPxfQzeGmN-62lgmcUBya3BNlkLWIO5J7zCRCEmm7NuynqLgtPbNZy", "name": "Värmdö beachhandboll", "lat": 59.31839000000000, "lon": 18.48683200000000, "team_id": 0, "available_slots": 6, "bs": 0, "bc": 0, "rs": 0, "rc": 0, "ys": 0, "yc": 0},{"id": "5155cbf0f950496cb5a839ee0a788481.16", "url": "http://lh3.googleusercontent.com/vP-TorOaBo5xyYGRQeUsTm7pZAj_z43MetA3PiTwcyOxltUua7VthPAvmBzV1SDxTUmpDeI_4uC_sW4ChKy9svFk6dk", "name": "Gustavsberg Vattentorn", "lat": 59.33045200000000, "lon": 18.39211700000000, "team_id": 1, "available_slots": 0, "bs": 0, "bc": 0, "rs": 0, "rc": 0, "ys": 0, "yc": 0},{"id": "528ee82842a84fef9005c57ef44d235e.16", "url": "http://lh3.googleusercontent.com/3kiCcyDSPMY7BL0pIFAs51E22WNsq3tfewLLMDuKqXY52e2AFE5qmOQfeMfUFMFf3O_B_Ny2ThqKSXzDX-3BFdoUjx8", "name": "Naturstigen", "lat": 59.41082900000000, "lon": 18.88816700000000, "team_id": 1, "available_slots": 2, "bs": 0, "bc": 0, "rs": 0, "rc": 0, "ys": 0, "yc": 0},{"id": "545b87310ca64747945c63e72f35c751.16", "url": "http://lh3.googleusercontent.com/lbPDxkovxl_kEYo_l3PPCp0SJJYJVtWUVFUa8F2FJm-u_CmFW4SsM10u0KK2_XJ5EYtLzdLuODImWJ9TZlFvAEMkGdY", "name": "Värmdö Leden Information", "lat": 59.31241400000000, "lon": 18.48773000000000, "team_id": 3, "available_slots": 5, "bs": 0, "bc": 0, "rs": 0, "rc": 0, "ys": 0, "yc": 0},{"id": "54e7dce0208546cc9a177ac1400595ed.16", "url": "http://lh3.googleusercontent.com/1Id5IPF46EzFkQsCz0EqVq2aj_JDa0uz7MEfFvTLWSMHUnbYk41bs02YvxiDQovipWBPT-NRxTqCKnfmZhLlSbIHWnU", "name": "Byns gård lekpark", "lat": 59.31401200000000, "lon": 18.71040700000000, "team_id": 2, "available_slots": 3, "bs": 0, "bc": 0, "rs": 0, "rc": 0, "ys": 0, "yc": 0},{"id": "55b3467a81793d02887f0b9cfaa0cb52.16", "url": "https://lh3.googleusercontent.com/AihwJKujB86kEK8eYOzpAI5o3Tsah1WGHMM2iCr8_eGBvvLpE3WxMxhRdACrCmedteF4Hm2MEo4D9jdQT0YliVV3ol_m78hZKPh0I5H6", "name": "Fotbollsplan", "lat": 59.28112700000000, "lon": 18.34805500000000, "team_id": 2, "available_slots": 4, "bs": 55, "bc": 10, "rs": 62, "rc": 71, "ys": 67, "yc": 72},{"id": "5646fbecb9913b4f83fab1c81588b618.16", "url": "http://lh3.googleusercontent.com/dr72vkF-CVS-WSus-3j73SGtTRFWEKvBV_7VkquQe_4qaWOhJBRCvaH9l12xh7PYPZkQfrHtq005pZJ3CtIjy_Rtu7RxibW04AHD50gtwA", "name": "Låtta, robotbagaren", "lat": 59.27511200000000, "lon": 18.74294100000000, "team_id": 2, "available_slots": 5, "bs": 0, "bc": 0, "rs": 0, "rc": 0, "ys": 0, "yc": 0},{"id": "573ae48a6e2f4510a0aab2b138821bde.16", "url": "http://lh3.googleusercontent.com/hBzBVLB4xxOcJLC13gG9scpzK8dcF5DjUmeQg3Rq4c5ElRvOdzv-gNRQi7h4_3RaZwJfJlRvbU-YvFfH5M_hBWucn808", "name": "Kaptens utsikt", "lat": 59.31275000000000, "lon": 18.43094600000000, "team_id": 2, "available_slots": 4, "bs": 0, "bc": 0, "rs": 0, "rc": 0, "ys": 0, "yc": 0},{"id": "57dd80e024ea38eb92a9aaf6b5565c37.16", "url": "http://lh3.googleusercontent.com/TGSLM_hFrcI3vHgQVg60F1N3mqHQ_Iq10voOsjaDe75BVumacjB6_61Te9L4Ycj20XZOUqySxT6c9I-6zIHJShdcEGvmuJXXC97Pl-GG6Q", "name": "Långvik", "lat": 59.19964500000000, "lon": 18.70913500000000, "team_id": 2, "available_slots": 5, "bs": 0, "bc": 0, "rs": 0, "rc": 0, "ys": 0, "yc": 0},{"id": "587f69a2b5244e83bc59220ba71a4a1b.16", "url": "http://lh3.googleusercontent.com/SuxH1ZEp4TPqlKvpwZNjsFiz54UMKMJQgjHbTPDqjLYD3zLUCw7qCXZmKhlBgxwhfPjz1K_RrSJa5E4UqiuZ6NF7Pw", "name": "tennisbana vid Herrviksvägen", "lat": 59.29385600000000, "lon": 18.50536500000000, "team_id": 1, "available_slots": 5, "bs": 0, "bc": 0, "rs": 0, "rc": 0, "ys": 0, "yc": 0},{"id": "5a73f2988c0c4e70ad2932deba304498.16", "url": "http://lh3.googleusercontent.com/6die0DwesO8v6uZnIkpSlQC-NOJ9bTFaueAnDfcuvQhRkshcBFc7aBFZtBjd_le8OuhgpWU4_aWY_FpceZWDbnnucwo", "name": "Den Gamla Stigen", "lat": 59.31050500000000, "lon": 18.71716800000000, "team_id": 3, "available_slots": 5, "bs": 0, "bc": 0, "rs": 0, "rc": 0, "ys": 0, "yc": 0},{"id": "5bbdc01fd24347958b442a8a9446306f.16", "url": "http://lh3.googleusercontent.com/AFA8k3owjHuTdZowr2xfq_LtVUaSV1uJ6o0ob13yRJSHZNK5lh_VeLWYe27VDlStwqYMEO1XRnElKNFUJUUPwqFfN2o", "name": "Ösbyträsk naturreservat", "lat": 59.31971700000000, "lon": 18.41492600000000, "team_id": 1, "available_slots": 4, "bs": 0, "bc": 0, "rs": 0, "rc": 0, "ys": 0, "yc": 0},{"id": "5d870d38455e4ae6b407e43702564831.16", "url": "https://lh3.googleusercontent.com/W3fwGVaYogJJxdTOA0ytBZj8S203H5snrUpJPhDaYEG7i21Y3Xqm87qW-KEEpMBhA2r2Jz5UacYhEkMuUJZd9x2Yd7kN", "name": "Sydvästvägens lilla dansbana", "lat": 59.35864500000000, "lon": 18.65311000000000, "team_id": 1, "available_slots": 3, "bs": 786, "bc": 4, "rs": 1531, "rc": 3, "ys": 318, "yc": 4},{"id": "5f8aeb2ea5b54adbbae3b800943181fa.16", "url": "http://lh3.googleusercontent.com/N6KxrMfUeTZNoC2It7S_9smyzoi6hH90UkYN8KYW8rU45LGDeGUP_tDUVnlSZ_KdO-DGbpC8kJCy8hfvSaJWoWWAKVEy", "name": "Stavsnäs sommarhamns samfällighet", "lat": 59.29193600000000, "lon": 18.68854400000000, "team_id": 1, "available_slots": 3, "bs": 0, "bc": 0, "rs": 0, "rc": 0, "ys": 0, "yc": 0},{"id": "602a6e8d4b2542ee958488bb5b0a2733.16", "url": "http://lh3.googleusercontent.com/40uJQNOKMiKS-RL1Hl8lIncLFQO7iAUlPDW4ZJvR657Vnw4caDKs5hAfULyCtSHT-M0cVqgWjpYa17xgxT2XUU2B5Q", "name": "Backvägens Boulebana", "lat": 59.32197400000000, "lon": 18.50998800000000, "team_id": 3, "available_slots": 5, "bs": 0, "bc": 0, "rs": 0, "rc": 0, "ys": 0, "yc": 0},{"id": "61dd9b32c6d041d39c43f68bbe566d84.16", "url": "http://lh3.googleusercontent.com/ylZgs8JnM4ARIqJueoh2-GnaqRATBAel969Xnwuu6dEI5O40oEJx-OI9m-6nMBM4bxrt6SaOnbz9i0WNC_hh4XPYZAw", "name": "Värmdö kyrka", "lat": 59.35795000000000, "lon": 18.49679100000000, "team_id": 3, "available_slots": 5, "bs": 0, "bc": 0, "rs": 0, "rc": 0, "ys": 0, "yc": 0},{"id": "62bcb236d9913e0ba9fff0570127ec35.16", "url": "http://lh3.googleusercontent.com/npZvnPUJPxvgdkuMBKePB0Eiitn0dG3G7Py4LUz0Co9BgxezlahVKRGBffNU18gA35Rsl33g-2L4TgvvmmPN0Dso3wfXAVfqoJw-efw", "name": "Södra Lagnös Dansbana", "lat": 59.29472600000000, "lon": 18.46448600000000, "team_id": 3, "available_slots": 5, "bs": 0, "bc": 0, "rs": 0, "rc": 0, "ys": 0, "yc": 0},{"id": "62be8ee60fb14de4ad61eb8968cd57f9.16", "url": "https://lh3.googleusercontent.com/UBNJtz22ofiMLZ9LgrwnXXumh01K76WKdBY0lBbYqRlUZDZX41TnS1-IEI-LgFviliIjML5aQVSzNaJW3fnRI9VsAg", "name": "Grinda Naturreservat", "lat": 59.41175500000000, "lon": 18.56121000000000, "team_id": 2, "available_slots": 5, "bs": 196, "bc": 7, "rs": 239, "rc": 7, "ys": 1180, "yc": 6},{"id": "62daa688f23b395cb3fc17db625d2beb.16", "url": "https://lh3.googleusercontent.com/ggi3OvsWX8M3h9uXI_EH6G7jdvysUWrXAPW7ooN1_cmDpGgK8xlnRad1GqKhoShlDcW2HzdjDN-QRIpfvKQN5biTfYZWX9MO9Rk0TSzY", "name": "Informationstavla 2 Koviksuddsvägen", "lat": 59.35525400000000, "lon": 18.35657400000000, "team_id": 1, "available_slots": 3, "bs": 0, "bc": 0, "rs": 0, "rc": 0, "ys": 0, "yc": 0},{"id": "62fe7cbc092141d2971df8fd96220409.16", "url": "http://lh3.googleusercontent.com/pAOhtOgcqrGUcjoMoisTRzPl9RLpo2zh1z2guhLnVWuYMsBTFWB3uuYKOLZgRflGpUtIG2luRhjNS1MDypckN7B59TD4RAW8_WCH9ewb", "name": "Vindö krog Boulebana", "lat": 59.34494600000000, "lon": 18.71194400000000, "team_id": 1, "available_slots": 5, "bs": 0, "bc": 0, "rs": 0, "rc": 0, "ys": 0, "yc": 0},{"id": "63566d54eb263ef99b91303a25364c59.16", "url": "https://lh3.googleusercontent.com/Uw9qE8HMhmgES-DOzFZzvVe5VC5mBHXPn-0iOpihtVkl8BZGxccMcB8Qjbaq4aO3ZiV_cyKpwPGmg84U92uLNyeUJTc", "name": "Gula Vindövarvet på trollstigen genom skogen", "lat": 59.37316100000000, "lon": 18.67119000000000, "team_id": 2, "available_slots": 5, "bs": 9457, "bc": 1, "rs": 0, "rc": 0, "ys": 0, "yc": 0},{"id": "636e43c17c44465cbe0e06c1b26e5b9c.16", "url": "http://lh3.googleusercontent.com/cbJbTFtTaQMPrZ9G0pTmTlIU6fPEYV3snKQ_HTNlgHE0m954U_8hFyuUquD9FJAicfcmJk7x3RQnAWB9Kcf7WufE1A", "name": "Skeviks gårdsslinga", "lat": 59.34845400000000, "lon": 18.38126800000000, "team_id": 1, "available_slots": 3, "bs": 0, "bc": 0, "rs": 0, "rc": 0, "ys": 0, "yc": 0},{"id": "63a0f5438dd4486b8b9803118801fc00.16", "url": "http://lh3.googleusercontent.com/1VzYtNKv3wDU88qMzpj_3r4rz5u8Nj27GA7XslCECU8nfBGbRrZsHlsRrbOXfyyxkxRPAD43XVkUSUW-uhVip4pC71A", "name": "Skärgårdslandskapet", "lat": 59.29859300000000, "lon": 18.66968400000000, "team_id": 2, "available_slots": 4, "bs": 0, "bc": 0, "rs": 0, "rc": 0, "ys": 0, "yc": 0},{"id": "64c85ad6df8c4c47927510bd0e51f913.16", "url": "http://lh3.googleusercontent.com/eRZyKKPkCY0MDDVr2oIQtgCUL8WJGqla0sFLl0-xczBi8caBeDSqSI5z5wsMyGIRRqk7c8yQg0jw4rSQcS2TixJx5kk", "name": "Nämdös historia", "lat": 59.18240700000000, "lon": 18.69275100000000, "team_id": 3, "available_slots": 0, "bs": 0, "bc": 0, "rs": 0, "rc": 0, "ys": 0, "yc": 0},{"id": "66940f0b57e04340a71d0adaadada912.16", "url": "http://lh3.googleusercontent.com/3fuX3kqxVmGixZo5OdEIWlKvOLW9ZAipKk1N38OaKdENg6ZDc6CeJGwBXc12QtiebzfDR_c5RCac2H999ggsfKg_TMg", "name": "Ösbyträsks Lekplats", "lat": 59.32481100000000, "lon": 18.40813700000000, "team_id": 1, "available_slots": 0, "bs": 0, "bc": 0, "rs": 0, "rc": 0, "ys": 0, "yc": 0},{"id": "67945835856745db9e089f1018074aac.16", "url": "http://lh3.googleusercontent.com/1NrsIxBXFZm0rrrlcrLJYMG-ZQiJAvrF5dPeV5Do8P1ZOEHtyBwEUpsN9rvnqz5jE2bUu0OsCLE-m8CkhUbEpKU_5LE", "name": "Tre Hönor", "lat": 59.37231000000000, "lon": 18.53006900000000, "team_id": 2, "available_slots": 5, "bs": 0, "bc": 0, "rs": 0, "rc": 0, "ys": 0, "yc": 0},{"id": "68ce59b9a50f4c199a4cf2d3efbc309f.16", "url": "http://lh3.googleusercontent.com/AXfr0QW5KbuoSm5Jgv6hbdq_CoHIZYJLSYNwuGU1hulH6MnqXlqMEpvAtgylNOP9jXwr6iG13BeWlSraQQhXEXxfnQ0", "name": "Dragkamp", "lat": 59.29786600000000, "lon": 18.67156300000000, "team_id": 3, "available_slots": 0, "bs": 0, "bc": 0, "rs": 0, "rc": 0, "ys": 0, "yc": 0},{"id": "69247cc51ca24a18ae5fdfbd34391b42.16", "url": "http://lh3.googleusercontent.com/A_mw_NDAM6oz3jo9e9GbW2Us7IcUiW5xbnzusETuyL_uK5-VmD_waVRO1RDXH_9qLC-V7HaL4NBnmvhx5q-VwRgFJgU", "name": "Djurö Utegym", "lat": 59.31294500000000, "lon": 18.69735000000000, "team_id": 3, "available_slots": 4, "bs": 0, "bc": 0, "rs": 0, "rc": 0, "ys": 0, "yc": 0},{"id": "6c1202036567431293a5e49088a5fe47.16", "url": "http://lh3.googleusercontent.com/OtZD9jT4k7DLduFKhOxr5zJoCj3qbGcxZZSAv3awH69f0U3p0M-xF_QCgHgTXIE9wiwzHNS3KQgDfVJSk6MOly0xDGM", "name": "Lekpark vid fågelbrostigen", "lat": 59.27491000000000, "lon": 18.54300100000000, "team_id": 2, "available_slots": 3, "bs": 0, "bc": 0, "rs": 0, "rc": 0, "ys": 0, "yc": 0},{"id": "6c153bec3a9f42c1ae988211dfeb94b7.16", "url": "http://lh3.googleusercontent.com/twCf3Fj_Q9q4lPy350vCVF7XJ9Rd4_upQAmVeRjIu9fRCrqYtLN78_gwG-eMUa_n3r9St2QRJaKs4XFt1GM2b90Pik0", "name": "Välkommen till Fågelbro", "lat": 59.27639900000000, "lon": 18.56189700000000, "team_id": 2, "available_slots": 4, "bs": 0, "bc": 0, "rs": 0, "rc": 0, "ys": 0, "yc": 0},{"id": "6cd6764bd02b4207a10458e92b43b231.16", "url": "http://lh3.googleusercontent.com/haBMu1xz1941zEyV2yEh5LhDa5GLuZqB6HrQhPAwNF3aIQFjeRVzGL57EZA4qYlRWDWyGzTvlwkiviXq_nDn3t5FETE", "name": "Tranarös boulebana", "lat": 59.27829700000000, "lon": 18.52381000000000, "team_id": 1, "available_slots": 5, "bs": 0, "bc": 0, "rs": 0, "rc": 0, "ys": 0, "yc": 0},{"id": "6d4b118196f54dd7892c2f99fcff2c4a.16", "url": "http://lh3.googleusercontent.com/ta17_5QH_dyzwsW81nK8d9kMM70zm2IfOKwOuyQaVW3eAOCMLsZxCBCbJvEH_A-cZltZ42-A2mJ5b9k2ZtEGzl65l2h-", "name": "The Gates", "lat": 59.31801900000000, "lon": 18.39759800000000, "team_id": 1, "available_slots": 5, "bs": 0, "bc": 0, "rs": 0, "rc": 0, "ys": 0, "yc": 0},{"id": "6d580cd387ee30b5bd36007df4eed0e8.16", "url": "http://lh3.googleusercontent.com/EGoD4SOQSjLj0nx6OmWOvzkF9Sbx1bKDVRmI6mjnyznna9vV4dVNqhKe6wiTE8kx0JbaG-ctOmTM8vFcBlVsGQ7XAtD0NYrSHfeJH09G", "name": "Playground Långvik", "lat": 59.24339700000000, "lon": 18.50549400000000, "team_id": 1, "available_slots": 5, "bs": 0, "bc": 0, "rs": 0, "rc": 0, "ys": 0, "yc": 0},{"id": "6de4328025fc4cbcbbaba9675caf4813.16", "url": "http://lh3.googleusercontent.com/51tEcvuHmbFrLqXKhmsd9CxIWqEPMh5DLvMy7hSZV4ALHoflK8coMrCP6xBmPKwqv17LUvqngPVfoyxXIb0MqOeE4gBo", "name": "Elstolpe", "lat": 59.32684700000000, "lon": 18.50370600000000, "team_id": 1, "available_slots": 0, "bs": 0, "bc": 0, "rs": 0, "rc": 0, "ys": 0, "yc": 0},{"id": "6e1518ef73a64ba4b83eed27633eeb92.16", "url": "https://lh3.googleusercontent.com/f23O7hDS4aWcBA3Udas4BV2DprfmWlTkf48x3BBnVRHsXG02mTceeghUd9DeJbEJBa5EIDEzpeq3z-bSYgqIWxRvKg", "name": "Välkommen till Sandön", "lat": 59.38435900000000, "lon": 18.54428300000000, "team_id": 1, "available_slots": 5, "bs": 881, "bc": 7, "rs": 155, "rc": 10, "ys": 238, "yc": 10},{"id": "6faf3c672824459ab42f293b24b2154d.16", "url": "http://lh3.googleusercontent.com/ZBoHq1DWGZWfvr2AfTbLRYwoPL43rlFOP22b_CzMWg6IlIBy-XvDN2JbiVLK55INJ_l6cH4pWYu0844lxV4ov3ZXrus", "name": "Saltarö Väderstation", "lat": 59.34560700000000, "lon": 18.59270200000000, "team_id": 2, "available_slots": 5, "bs": 0, "bc": 0, "rs": 0, "rc": 0, "ys": 0, "yc": 0},{"id": "703cadae3afb446ca8371bdd699bcce8.16", "url": "https://lh3.googleusercontent.com/WDiN-1fAygr35HbfkCCbn6cmASbTWnsJPmH8YpZsIGPRVQDF4yKlU1sIEyhBfHhmpEgXkYncUoml-8oA2p1UVgBS5Ew", "name": "Tammstorps båthamn", "lat": 59.34998500000000, "lon": 18.66488400000000, "team_id": 1, "available_slots": 2, "bs": 0, "bc": 0, "rs": 0, "rc": 0, "ys": 0, "yc": 0},{"id": "70c1c8a87fd235a89b6a024c6d6e1599.16", "url": "http://lh3.googleusercontent.com/9RM2zyEb0kJ_zALrbtJ0bT22M7hDmYPloE54_AIh8SJgiRgFnzLLUHxkNqWoZZE17YJtQWQymmcCBJHT98VTCueMtsyoQjoc3u6hN6sC2A", "name": "Haghultas grusplan", "lat": 59.32004600000000, "lon": 18.46705100000000, "team_id": 2, "available_slots": 5, "bs": 0, "bc": 0, "rs": 0, "rc": 0, "ys": 0, "yc": 0},{"id": "72c3c785b4e143e3945cfd9cebfa32d1.16", "url": "http://lh3.googleusercontent.com/oF78EPjvDWNO47VMgL7TJM-n-KP-zpHEElOYZ6ScJwvqmaVbwHMG40EnTDZYFpESbV8TSvEArS5OppRhqZOOGOhANSs", "name": "Naturreservat", "lat": 59.33186800000000, "lon": 18.59863000000000, "team_id": 2, "available_slots": 5, "bs": 0, "bc": 0, "rs": 0, "rc": 0, "ys": 0, "yc": 0},{"id": "72c8066f9ef94b06a4da87f52e110ee7.16", "url": "http://lh3.googleusercontent.com/RS0pcRiGhCabcrFdzYCtetlUoDhHfZjoyTuGVXaEZl1khVjPILgXEmjndDL0b2re7evO_7Xys5GBrKGVF1EgAfbs-R4", "name": "Sjölidens Lekplats", "lat": 59.32255500000000, "lon": 18.47547000000000, "team_id": 1, "available_slots": 5, "bs": 0, "bc": 0, "rs": 0, "rc": 0, "ys": 0, "yc": 0},{"id": "73ac401bca614f34a856fa9ef58567a0.16", "url": "http://lh3.googleusercontent.com/reM2PR7iRvmwJJVeBf_tUlz8-XiH-SbdgXNKiKd97BiTfO5Q5D3UPCB5PHZGyFUM1vPSMYDIZDv1I9kSAum6X2smkg", "name": "Carl Edelstam", "lat": 59.30905900000000, "lon": 18.44302900000000, "team_id": 1, "available_slots": 1, "bs": 0, "bc": 0, "rs": 0, "rc": 0, "ys": 0, "yc": 0},{"id": "73f9179248cc4af6b9225cb924b45c47.16", "url": "http://lh3.googleusercontent.com/wuvyrZKYgKN19RUSmx2LqQCtg9XvjfAwzswuM-rDsRtWu6Q4fNeOsPUMFWz074jaTHn2n6PSlTfyVWAs5qUB3_gxtTy6l7W7M69j90E", "name": "Trädet i Blå Blom-parken", "lat": 59.32089300000000, "lon": 18.38457500000000, "team_id": 1, "available_slots": 3, "bs": 0, "bc": 0, "rs": 0, "rc": 0, "ys": 0, "yc": 0},{"id": "766ec0fd7a9c4c938fd49437c0dc64ae.16", "url": "https://lh3.googleusercontent.com/QneCj5-QXWBcgtug7tNYk1-kgKA4yhU3GVr3-KHnwY-CFfw-yMb7TygdpGCwWug773HbJvcJicchnAjoNSQu2D1IGQ", "name": "Välkommen till Träskö-Storö", "lat": 59.44535000000000, "lon": 18.78993100000000, "team_id": 3, "available_slots": 5, "bs": 428, "bc": 5, "rs": 1669, "rc": 3, "ys": 1018, "yc": 2},{"id": "76daa67cd6c748f9b9f467932396cb4f.16", "url": "http://lh3.googleusercontent.com/qKxedBJ1sDQlgf1E0-YpU3-7czH_GPeccTaDVmvmckfTqigwBbjITZK3PrJgvuCkse1c3pC0IMWdEcOYWnx3y9Vluw", "name": "Circle of Metal Bodies", "lat": 59.31940600000000, "lon": 18.38546100000000, "team_id": 1, "available_slots": 4, "bs": 0, "bc": 0, "rs": 0, "rc": 0, "ys": 0, "yc": 0},{"id": "773b4261a19d4a65ac271e21e624bd2e.16", "url": "https://lh3.googleusercontent.com/p0E4uwpqsk8EwY2uXhfVyvzCh1LslJxmswAlp10JnBDOaTE1GBWIVIp9X0i6_l0VDA1xZ5yxHzuFOIQlMfgnE5Ov3g", "name": "Livet Vid Stranden", "lat": 59.40640600000000, "lon": 18.57486300000000, "team_id": 1, "available_slots": 5, "bs": 892, "bc": 5, "rs": 281, "rc": 5, "ys": 946, "yc": 4},{"id": "79db8b493f04469cbb5dd4f4417751ce.16", "url": "http://lh3.googleusercontent.com/VjyegxG0xnDEOlYz4GNyZwhUXxc6-AnCQoIFb7swxFQ74ASYt4P3mqob3G4UwaIhwaffpZfECuaqGDK08lutS_UiZDk", "name": "Iron Flower", "lat": 59.26439700000000, "lon": 18.49845700000000, "team_id": 1, "available_slots": 1, "bs": 0, "bc": 0, "rs": 0, "rc": 0, "ys": 0, "yc": 0},{"id": "7a66a60584d446c49dd7d325ac756066.16", "url": "http://lh3.googleusercontent.com/Mfl8Fz1qcWW9Go82PRXHtoC4sZbM14K7vxwU_d_mwt8U4ofBafpuevLhVHccsyEU5IXYohTg7cImduQ2LP8WDZ7imA", "name": "Svenska Kyrkan - Värmdö Församling", "lat": 59.32280400000000, "lon": 18.47462900000000, "team_id": 1, "available_slots": 5, "bs": 0, "bc": 0, "rs": 0, "rc": 0, "ys": 0, "yc": 0},{"id": "7dbbe29f1ebf402b80e4ccd8286aa869.16", "url": "http://lh3.googleusercontent.com/gh-fcZXejzFo8oKdT8SkjctonrFaBO7qQ86GLJ6MEEQZeEWjosUrLXAt97YinxGKy1ih4MXbQK_ek52YTt6wAcmUTg", "name": "Ängsvägens samfällighets informationstavla", "lat": 59.28448600000000, "lon": 18.64900800000000, "team_id": 1, "available_slots": 0, "bs": 0, "bc": 0, "rs": 0, "rc": 0, "ys": 0, "yc": 0},{"id": "7f701a36d7383e71bd32a909d471597b.16", "url": "https://lh3.googleusercontent.com/i0rLS-uyogKZv9LTQx2SnbLzm0bqyfTDhXgYh_qEuonQGb748CXZhhS6pEhAji2txH_G3RFZWS3Bs_ZQS208_5jAmTaJ", "name": "Gula Vindövarvet vid Svartvikens vändplats", "lat": 59.37313000000000, "lon": 18.66026600000000, "team_id": 3, "available_slots": 5, "bs": 512, "bc": 15, "rs": 165, "rc": 3, "ys": 149, "yc": 12},{"id": "7fb951b6b7894549a120597b5a201603.16", "url": "https://lh3.googleusercontent.com/xYsq8kk165QkAbk8b8WIPo-yFGG1DOkd5e9xHtnSxpmJrCy7xaMiREZ0MyUbdBx4x6JbR-RlbMxPLA4wXARqPqxiaQ", "name": "Överbyvägens boulebana", "lat": 59.36102400000000, "lon": 18.67904800000000, "team_id": 1, "available_slots": 0, "bs": 1233, "bc": 6, "rs": 111, "rc": 3, "ys": 310, "yc": 5},{"id": "7fe3ae51af9b4aa9b2c5a41f988735ca.16", "url": "http://lh3.googleusercontent.com/V-gQEU8LjhrhrjkYRW6stLK7dWJoLVdsPwYklFyd0oeNkDk2TIRj1vMlrVN_rKMMmNrZ_VrDRyMVvgKn_s6zk0TtidQ", "name": "Sjösala 11-mannaplan", "lat": 59.27720100000000, "lon": 18.69256200000000, "team_id": 1, "available_slots": 5, "bs": 0, "bc": 0, "rs": 0, "rc": 0, "ys": 0, "yc": 0},{"id": "80878980a4e04f189b19049f59c63d90.16", "url": "https://lh3.googleusercontent.com/DNdYW6aJ-w-wC9LY3BWEvCvrHmXY51E9NroQel5M1YxvhPtgmutcsaT37ufxhhaQEitqSzqxrJIxPT3RiSGWmM3dvXA", "name": "Fredriksborgs Fästning", "lat": 59.40068100000000, "lon": 18.44274500000000, "team_id": 3, "available_slots": 5, "bs": 318, "bc": 15, "rs": 276, "rc": 12, "ys": 156, "yc": 13},{"id": "80a790e5994a4802bcff0987410b827c.16", "url": "http://lh3.googleusercontent.com/ejjY7vOWmA740XpS8e6vQA3_qv8NIL1vSfsunp8L6dKe9Q5EggHSjUpYtIFTBtp246_FBiVR36zu6rln6N2gLlfTBjw", "name": "Gamla Prästgårdens fotbollsplan", "lat": 59.32842700000000, "lon": 18.72984400000000, "team_id": 3, "available_slots": 5, "bs": 0, "bc": 0, "rs": 0, "rc": 0, "ys": 0, "yc": 0},{"id": "82c02095c75a448d8377ae71cb735ee8.16", "url": "http://lh3.googleusercontent.com/qGTrN9LlZyXvsnCeJZyrhZpfX81gQpA4sRJDfUiXd4RrFJneuVfBCR0YlW-AiTlEseXkB9pLxPVKAMLDH20sXD-m3g", "name": "Gustavsbergs Powerplant", "lat": 59.33270000000000, "lon": 18.39139400000000, "team_id": 3, "available_slots": 2, "bs": 0, "bc": 0, "rs": 0, "rc": 0, "ys": 0, "yc": 0},{"id": "843084313a4c4b4da8d8b654f66c31c3.16", "url": "http://lh3.googleusercontent.com/nCA9_l37T9NFRHx9Ofy6wcCUusowmUh8CA01dKfI5HmdloKMQhphYJQJxiy7rYfh-0Z97FT8KcS8AmTTrxef2y1MYw", "name": "Tyska kolonin", "lat": 59.19594300000000, "lon": 18.72606900000000, "team_id": 2, "available_slots": 4, "bs": 0, "bc": 0, "rs": 0, "rc": 0, "ys": 0, "yc": 0},{"id": "844d675054c240f88f21218c3ed59031.16", "url": "http://lh3.googleusercontent.com/tcLRYaT3CFmJT9eitnlMGPAiKtCRTtL1-cg-AOKXFrSbvj835cmg5OnRKmD7zd-g2Z_ap_a8JphnYWpi58wT8-oCxA", "name": "Stavsnäs fotbollsplan", "lat": 59.28506500000000, "lon": 18.68941800000000, "team_id": 1, "available_slots": 1, "bs": 0, "bc": 0, "rs": 0, "rc": 0, "ys": 0, "yc": 0},{"id": "84c323a486c244ae9efb112c92e17dab.16", "url": "http://lh3.googleusercontent.com/4IJEGUUuEk7eSMTQcQDWeRaSJ5m7m6wWvSGfBxZp4tq868oEXbE0kUNhOYlKBsCbXmSzpNEKaiOGtwoB6MF37717lv4", "name": "Holkar", "lat": 59.26495300000000, "lon": 18.50772400000000, "team_id": 3, "available_slots": 5, "bs": 0, "bc": 0, "rs": 0, "rc": 0, "ys": 0, "yc": 0},{"id": "851d6369ae3b447d898252adf13331e8.16", "url": "http://lh3.googleusercontent.com/p5bdi-d9cex1l1-DIJNKq5370TszgFn_6-_VcSrIgQKCj4yRE3ol98UYHujhsIxBdtcsdPCLF_JHyUmHRcDxcwau7Q", "name": "Alkärr", "lat": 59.30298900000000, "lon": 18.55721900000000, "team_id": 2, "available_slots": 4, "bs": 0, "bc": 0, "rs": 0, "rc": 0, "ys": 0, "yc": 0},{"id": "86b45e234e9742e99ee8d2ae2da4808b.16", "url": "http://lh3.googleusercontent.com/Dged072c80-zSz1RRGlrwa5nlM6_s7FN7AbR7Ep-wcBonGLGNGSCsoR3wp_cWJTsYkWALZsF9IjNCJQmaS8GfV25mQ", "name": "Stora Lekplatsen I Ösbydalen", "lat": 59.32209400000000, "lon": 18.40895700000000, "team_id": 1, "available_slots": 0, "bs": 0, "bc": 0, "rs": 0, "rc": 0, "ys": 0, "yc": 0},{"id": "87575dafc8ca4dd0aac386d843d13054.16", "url": "http://lh3.googleusercontent.com/Ci82lq1ObPvmIwajF1nxQgufRGyEIzm-fGb_xLRlFZLTE9UPXhtf7KTRUjHncCTfNP-yGLoegsseOYSyyKU7xSwfBZg", "name": "Högmalmarnas samfällighetsförening", "lat": 59.32092700000000, "lon": 18.68806500000000, "team_id": 3, "available_slots": 0, "bs": 0, "bc": 0, "rs": 0, "rc": 0, "ys": 0, "yc": 0},{"id": "890650848e724d49b76f7ad4a69e414b.16", "url": "http://lh3.googleusercontent.com/1JEkGWxHVpFuGom7vggkl4kYZnWpF3Ga0mvFrs9c6KRwZvyAbDxM7_5itkP16yfQENGl71IFNe0b_E_YcJYG82YCFNTE", "name": "Skärgårdsmuseet", "lat": 59.18213700000000, "lon": 18.68862000000000, "team_id": 3, "available_slots": 1, "bs": 0, "bc": 0, "rs": 0, "rc": 0, "ys": 0, "yc": 0},{"id": "8999f191938745c38d91c046b8c40028.16", "url": "http://lh3.googleusercontent.com/Y6KOToQk2rA7k8ZBLY2BkyzuuTmqKot0HaQsdWuCYojsfwI9KqVKACNS6GjW9sMQE3x9zbOgAn4SP6M_gl0ShjYyUg", "name": "Fågelbrohus tennisbana", "lat": 59.27657800000000, "lon": 18.55155800000000, "team_id": 2, "available_slots": 3, "bs": 0, "bc": 0, "rs": 0, "rc": 0, "ys": 0, "yc": 0},{"id": "8a59c17ae30443f7b0b2423242fcc862.16", "url": "https://lh3.googleusercontent.com/I_mcPUnCNIVLDXfmu33-3NnyAOP4OkfQyKCM-a25dnVkP8bumYyBAXb52gfYDyIx03Y2Y34zu8NwETKSmHBneOsa_Y8", "name": "Timmerdalsvägens Boulebana", "lat": 59.37000500000000, "lon": 18.65548000000000, "team_id": 2, "available_slots": 3, "bs": 497, "bc": 9, "rs": 465, "rc": 3, "ys": 590, "yc": 6},{"id": "8b590a8b1b5331aeaab0c752d323b92e.16", "url": "http://lh3.googleusercontent.com/jj8lBTMOMDcvm35T8SLw-J9-6-zom9ahegBjLMzI1ozn6RT9AiiHRkVBvbtY674MnVWESpACjaFc61iLf6XzF0G-UT5f61sy3NfJMhA", "name": "Välkommen till Utbildningsplats Björnö", "lat": 59.22928000000000, "lon": 18.56320600000000, "team_id": 1, "available_slots": 5, "bs": 0, "bc": 0, "rs": 0, "rc": 0, "ys": 0, "yc": 0},{"id": "8ba695772e1443b284f534bdd9ff7667.16", "url": "http://lh3.googleusercontent.com/kP4VtNWamx7hk1B69YB82REy2kTT09ffw2SCwnnjnS896dUAcjU7kvbq29UfccLrqEEBBnuVUaV2nPQTINtARP3WJ5AW", "name": "Naturreservatet Örby Träsk", "lat": 59.32665400000000, "lon": 18.39896100000000, "team_id": 2, "available_slots": 2, "bs": 0, "bc": 0, "rs": 0, "rc": 0, "ys": 0, "yc": 0},{"id": "8ccc9c202b234da1af2ee4d6f20e82b3.16", "url": "http://lh3.googleusercontent.com/GeqZtvgVNMDyAszjObhdLnfhrGfT-pREAR06AWz5bQDRDx42NqaKHwrG5fSdtDONItt79UB89Tpksd3pPNQXXmgdSzA", "name": "Bergmossevägens lekplats", "lat": 59.31707600000000, "lon": 18.40669600000000, "team_id": 2, "available_slots": 2, "bs": 0, "bc": 0, "rs": 0, "rc": 0, "ys": 0, "yc": 0},{"id": "8d116fa302b742e4a337b9e418e409c0.16", "url": "http://lh3.googleusercontent.com/P8iQJ2RY4YlAJ7IhhFPDZe7FvZndeEcqBmHjYp2YrlQ-8vr8CGeHFrvE4zoaM58V9jpHnYGYpZ68QQYKx451wFxlo7Q", "name": "Välkommen till Fågelbro Säteri", "lat": 59.28219400000000, "lon": 18.56787700000000, "team_id": 2, "available_slots": 0, "bs": 0, "bc": 0, "rs": 0, "rc": 0, "ys": 0, "yc": 0},{"id": "8e6d0dae9ebb4bf7ad7f76e475c06d60.16", "url": "http://lh3.googleusercontent.com/VKgY2qNinVePtXB2Wln7VHHCnBwiNHlBaH9fX48cXyk4AVZQ8J5dp-lJo5LACPhd2M05DhUMtaNNe2wc5rzlTDlJr99Kb5OoPpEIfHZB", "name": "Treudden", "lat": 59.44252500000000, "lon": 18.92072800000000, "team_id": 1, "available_slots": 4, "bs": 0, "bc": 0, "rs": 0, "rc": 0, "ys": 0, "yc": 0},{"id": "8f8df241cc5441cf93bb7c81872a0563.16", "url": "http://lh3.googleusercontent.com/_GgvLb9RwG1f1Mi3lZHKw9-_zfRJE7fws49rDdCTLt1eYNM4BOvq0WDIfRQgJHFLiLA88v4AauojyRceXAQVbqk-tnM2", "name": "Q Arne Valén", "lat": 59.35189600000000, "lon": 18.37331000000000, "team_id": 3, "available_slots": 2, "bs": 0, "bc": 0, "rs": 0, "rc": 0, "ys": 0, "yc": 0},{"id": "912f6e39f4014d80af80e552c984341c.16", "url": "http://lh3.googleusercontent.com/JjuxTindFYGmgfh6yA-z2YDPKIDaGLjCaJoEvJD78lR_l5t4rt-ALZCPQg_jLFP1zVeXW_mpFYtAazF_NDnkWJq_PgI", "name": "Lillgärdevägens fotbollsplan", "lat": 59.31741400000000, "lon": 18.70181800000000, "team_id": 3, "available_slots": 5, "bs": 0, "bc": 0, "rs": 0, "rc": 0, "ys": 0, "yc": 0},{"id": "91b8eb21b7cb4ba19fff865f9f1dfb34.16", "url": "http://lh3.googleusercontent.com/iPM0ZFqpMM3kMUtshOOTCJBf48-GJTvjmHt26VIhK3WKlIbY9diJFmrDIEeGIapVj1DVWI9DnLWDfWEZKMTRKZp0znc", "name": "Jättebäbis", "lat": 59.32279500000000, "lon": 18.39921400000000, "team_id": 1, "available_slots": 0, "bs": 0, "bc": 0, "rs": 0, "rc": 0, "ys": 0, "yc": 0},{"id": "939bdd3a76534389884573fc47bd9b2a.16", "url": "http://lh3.googleusercontent.com/e4KAv9umpyVlC5V-MnOcpG3GR41fdAEG8ruE94gRLrxtQzDJbtrI2TLwrrwg3ncj_S_cZH_kZtbOIHH6XXa-EDXRlg", "name": "Iron Horse", "lat": 59.26244900000000, "lon": 18.41422500000000, "team_id": 1, "available_slots": 0, "bs": 0, "bc": 0, "rs": 0, "rc": 0, "ys": 0, "yc": 0},{"id": "94fe43828f584fa7961ae38521340b08.16", "url": "http://lh3.googleusercontent.com/R05wWQydYAZ43xNANF2t-UUIx0wXaBhHE23Dh0kIy-FdGdBKh3leceLHcdMLSZCLxWn9tBqBqvDMWmXPWW4eOx5eTkQ", "name": "Old Cannon", "lat": 59.28814100000000, "lon": 18.91864800000000, "team_id": 2, "available_slots": 5, "bs": 0, "bc": 0, "rs": 0, "rc": 0, "ys": 0, "yc": 0},{"id": "954180bcdeb8436d9d3d231e8b400745.16", "url": "https://lh3.googleusercontent.com/hNIdw_kmvfs37opqKSiuuoEKJGxP10VQ6XbkCs_GxUC0kfGOMSrZjasA4A88pWSxckTAtLaj4pOP0VMHd5ud1f2bcuQj", "name": "Tammstorps fotbollsplan", "lat": 59.35376800000000, "lon": 18.67761700000000, "team_id": 2, "available_slots": 5, "bs": 0, "bc": 0, "rs": 0, "rc": 0, "ys": 0, "yc": 0},{"id": "96a7b9ef35134cbb8b06047f2a33eb20.16", "url": "http://lh3.googleusercontent.com/kn8HnwrYKnFDo5VsrpeD-MlpDhwn4iOQrbVdzuUmVR9ED6YFmP7F3LGSNvE2K9WqCKIeljRuSAV9im9gJmt4MBZg_fRn", "name": "1903 Oxstallet", "lat": 59.32084800000000, "lon": 18.37463000000000, "team_id": 1, "available_slots": 0, "bs": 0, "bc": 0, "rs": 0, "rc": 0, "ys": 0, "yc": 0},{"id": "986e79cb9eb2481eb14757c0b36c4887.16", "url": "http://lh3.googleusercontent.com/GDnLTilHKH12cxOTsl556aQYX2DKk1JeRbGjKHnWKaaw0aL8HpV0JQTjVIgfSqGHfKRBSYBz_YfRx7h8wbHsTeWtGw", "name": "Grisslinge Milstolpe", "lat": 59.31330200000000, "lon": 18.45234500000000, "team_id": 2, "available_slots": 0, "bs": 0, "bc": 0, "rs": 0, "rc": 0, "ys": 0, "yc": 0},{"id": "99c2b344afc544d7acbddd2c82cf2c8b.16", "url": "http://lh3.googleusercontent.com/L3jDVHPm1-sAqdYW2svgBt6xarJ5PcW658jm3JzC8brKuS7mJ-LrB0lUDp_Rr2cpn04Wy81WtDCRB0jeDiKwLLcB7rIduvqt2FXIF7q9", "name": "Brantängsvägens fotbollsplan", "lat": 59.24100500000000, "lon": 18.57178200000000, "team_id": 1, "available_slots": 5, "bs": 0, "bc": 0, "rs": 0, "rc": 0, "ys": 0, "yc": 0},{"id": "99f75603e27e4b07917cf792bd9735fa.16", "url": "https://lh3.googleusercontent.com/281XArqRYj_z2ndHxuJnZZXDyguu6RP8KoHJhTPAF1Iv_7JAywa5OkZHIdFDmfGseme0Jqc8NYjRII49rCUTVLVmkD79", "name": "Havsörn", "lat": 59.44900000000000, "lon": 18.79810900000000, "team_id": 1, "available_slots": 3, "bs": 0, "bc": 0, "rs": 0, "rc": 0, "ys": 8614, "yc": 1},{"id": "9af1ff4f8c27436f87213a082f659213.16", "url": "http://lh3.googleusercontent.com/cXQEKOeU7fe4xgwSw-PGNfm4_gsMfe-dgESe_AUTGCn4IIq9dCHsweHXQS9Gq_--UCeXoKDhDZ8GaQ4wkIlpQ-7wpQ", "name": "Fotbollsplan i Rosenlund.", "lat": 59.27905200000000, "lon": 18.44952400000000, "team_id": 1, "available_slots": 4, "bs": 0, "bc": 0, "rs": 0, "rc": 0, "ys": 0, "yc": 0},{"id": "9b194455005f48b988d792f0722d8695.16", "url": "http://lh3.googleusercontent.com/ThVe6zd9aqNuODSglyrvy6qrRpWRB6qSV5HW0TsVm3V-7uR7aoW9u5ZDwpwvyfS8pL3vpsI2Eoue0Ol5zH-8KKfRPaMV", "name": "Stavsnäs lekplats", "lat": 59.28553900000000, "lon": 18.69022600000000, "team_id": 2, "available_slots": 4, "bs": 0, "bc": 0, "rs": 0, "rc": 0, "ys": 0, "yc": 0},{"id": "9b9932aeb3b947d3a11820d7401cc476.16", "url": "http://lh3.googleusercontent.com/gECb7sI2bhFLTgJGgWFHsBIawJU5qRUAUSgGG5DPgpg7qRcUerchCCsmlKeXCFqb-fot3Ify8JptZH9pTPBFD07eeQ", "name": "Harö brygga", "lat": 59.33900300000000, "lon": 18.90028900000000, "team_id": 1, "available_slots": 5, "bs": 0, "bc": 0, "rs": 0, "rc": 0, "ys": 0, "yc": 0},{"id": "9c28112ab081425dbf0ba3cc0ad67ae1.16", "url": "http://lh3.googleusercontent.com/9tgFWStueD8u5lu0n3a0IbnNbFd47eRfDwIY76r9ukw06VSYomKd2xUbQXBYVXKMCEQsroLcGnuytoau_FiiXOpxzOE", "name": "Farstavik", "lat": 59.32253600000000, "lon": 18.37062400000000, "team_id": 1, "available_slots": 0, "bs": 0, "bc": 0, "rs": 0, "rc": 0, "ys": 0, "yc": 0},{"id": "9efcdeda593446e79e51f6d82b441437.16", "url": "http://lh3.googleusercontent.com/IIknd3FEYFvdGXkKiuWSTfqSPgeDsKSO5jU907t0fCIiyUGvO4j8tVI77o_lauJnHWV_scGnlAF5UH83e4ESfpa59w", "name": "Skyttevägen 9s lekplats", "lat": 59.33275000000000, "lon": 18.39707800000000, "team_id": 1, "available_slots": 2, "bs": 0, "bc": 0, "rs": 0, "rc": 0, "ys": 0, "yc": 0},{"id": "a0596c688a3040b0a4ea11918c957625.16", "url": "http://lh3.googleusercontent.com/lGuSwkJ7q5t9bL1YeRL8u4T6_eQLRbeTtaH1gVnpnL7yu8yl4ttp0xAS-a4IR76hjY5MtPvYRTPcF_vZQ8t_uyOOrLQ", "name": "Grönskärs Fyr", "lat": 59.27796300000000, "lon": 19.02454400000000, "team_id": 3, "available_slots": 5, "bs": 0, "bc": 0, "rs": 0, "rc": 0, "ys": 0, "yc": 0},{"id": "a0a507f20930470d9b9f20824253aabb.16", "url": "https://lh3.googleusercontent.com/YYKR5hP3rTYinVM3hhk2ll2Rb_6K2tSvNzH6AIhMXc_ynqLd0mCJI7RsBYPZRHeywH7trpw_KfSx1dR_plOl6sftTW2h", "name": "Ängen vid Ölviken", "lat": 59.41351100000000, "lon": 18.56629800000000, "team_id": 1, "available_slots": 2, "bs": 2579, "bc": 2, "rs": 413, "rc": 3, "ys": 1019, "yc": 3},{"id": "a0ad54efd89e4b8c81615611731e31d4.16", "url": "http://lh3.googleusercontent.com/zUa4MiqU60_EAnymJeKaxrYS1HEeNi5InKGr_39RtUHnVH6TePuPnPfoHtyJXDQtI7wb7cbwgFphSv3rEKFgSF5R7-F0", "name": "Djuröparken", "lat": 59.31337200000000, "lon": 18.70220100000000, "team_id": 3, "available_slots": 4, "bs": 0, "bc": 0, "rs": 0, "rc": 0, "ys": 0, "yc": 0},{"id": "a1242459cdc34203bf9c3833b4318ea2.16", "url": "http://lh3.googleusercontent.com/aCULoG2dynsBP39MA_PeiwiqzMEMas4neHxpg3-2l-353T1QXVOI2j5i_jqBNULe6xAZCNZ1m1P_jHarz6Bl0UU6HJoT1KCBIi5PLFo", "name": "Farsta Gårds Gravfält", "lat": 59.32293400000000, "lon": 18.37643000000000, "team_id": 1, "available_slots": 0, "bs": 0, "bc": 0, "rs": 0, "rc": 0, "ys": 0, "yc": 0},{"id": "a1b72288a797485da8421d2f76852e68.16", "url": "https://lh3.googleusercontent.com/9quSNQPn5XTuj6UiovyBH91IN9Vh5upJAoj_5SuJJKeXY0bnaZCRkEu-o18iEKb07bdBDcyRVkUeXmg_rJDEcrA8ew", "name": "Dansbana Löknäs IP", "lat": 59.36844800000000, "lon": 18.66006200000000, "team_id": 2, "available_slots": 5, "bs": 664, "bc": 9, "rs": 65, "rc": 2, "ys": 411, "yc": 8},{"id": "a23689ab070b4997b63d4393540f676c.16", "url": "http://lh3.googleusercontent.com/cNd0QIKAg_aYlPa2Ptf2LdHmMscEneHkQhBuX54ig124GHqblUAmCA5Ej5T0REOtCtzJd_FdAQ38e_I4g5G_RTOu4KpP", "name": "Mulle 5", "lat": 59.22262800000000, "lon": 18.54659400000000, "team_id": 1, "available_slots": 1, "bs": 0, "bc": 0, "rs": 0, "rc": 0, "ys": 0, "yc": 0},{"id": "a24bf02e1d594d66b1f076fb9e172a53.16", "url": "http://lh3.googleusercontent.com/lZAis4d6n6eCX7UOiRKiXPb3Ytj6fyJXPwQC4BRdcnmqXdfdvOFv1YbOUqvxGnQYiSXBoXTCaJNmZAGRpOnfuf_sqA", "name": "Naturreservat Storängsudd", "lat": 59.29881300000000, "lon": 18.35420200000000, "team_id": 3, "available_slots": 5, "bs": 0, "bc": 0, "rs": 0, "rc": 0, "ys": 0, "yc": 0},{"id": "a2d3a59121a841d1b2f1043ff548ebf6.16", "url": "http://lh3.googleusercontent.com/0u8G0HuI89ROf-90G4lkkVM1mnfTOkclP3elsFCs7dmZqafqqc9r6ZobxFivXGDoXCcTb_-5DL6eyUnVMrNwFZdGD7Y", "name": "Skogens Träd", "lat": 59.30915400000000, "lon": 18.71349000000000, "team_id": 0, "available_slots": 6, "bs": 0, "bc": 0, "rs": 0, "rc": 0, "ys": 0, "yc": 0},{"id": "a36a01fda1b74f0c94835ce5096fdd67.16", "url": "https://lh3.googleusercontent.com/iYh7IqQBqNgSuaVL91dsCOhYKqXoBdUUS2TsfFeBgr-CzJy6d33VQmDFCNnfY2VA2iHiTN-J4VrL_50fVsWOFav_VEyT", "name": "The Old Retired Iron Pump", "lat": 59.43663100000000, "lon": 18.43870700000000, "team_id": 1, "available_slots": 5, "bs": 83, "bc": 20, "rs": 286, "rc": 23, "ys": 170, "yc": 10},{"id": "a39495e3c11a4c7fb1d0fa121b31fe00.16", "url": "http://lh3.googleusercontent.com/T0x02wfyQF6JpJKTVcv2lFm6KPU5Gr6FRLySNth9JUFcc25HjiJK917OBxXxwY3Y5c4-5Q2Q9wwjjoCzAs-mJDeIag0", "name": "Big Balls", "lat": 59.31277200000000, "lon": 18.42994800000000, "team_id": 1, "available_slots": 0, "bs": 0, "bc": 0, "rs": 0, "rc": 0, "ys": 0, "yc": 0},{"id": "a49416f13f6941d8a937b9f34a430077.16", "url": "http://lh3.googleusercontent.com/dUMoZHuruvsms4sYqloXZYUvta6OYdrDmXtRTASiAkq62QGkDXdTwApebokTPyMUwUtP8kLpzTvPuNOuJq8L1spnBuk", "name": "Farsta Slott", "lat": 59.32200400000000, "lon": 18.36872400000000, "team_id": 1, "available_slots": 0, "bs": 0, "bc": 0, "rs": 0, "rc": 0, "ys": 0, "yc": 0},{"id": "a520840e20604ff1bd03aa83309d1038.16", "url": "https://lh3.googleusercontent.com/KPm8uZDpQe1kiGw3pipcvuQpYs-cj0MGoNn_zc2KVu1X_fO5rRR6IV8-O2mkN_X5xkQtnm1wUiYgxuNhZd9eYO2A4tQ0", "name": "Eken", "lat": 59.44599100000000, "lon": 18.79276600000000, "team_id": 3, "available_slots": 4, "bs": 1970, "bc": 4, "rs": 65, "rc": 1, "ys": 618, "yc": 2},{"id": "a7cba13fc607382a8b2c2a8874c2b045.16", "url": "https://lh3.googleusercontent.com/uTdtspQlNMaWDBxuKV_2tpBDBCZtJVzur17p9z2qUZHAslrPxqipTjJ4R0yGVjcxQ_BhVZhVZOs13gCciasdgi7OWFhexAEnrlW_frj1", "name": "Gula vindövarvet vid korsningen till jessens backe och överbyvägen", "lat": 59.36086400000000, "lon": 18.67046800000000, "team_id": 1, "available_slots": 0, "bs": 693, "bc": 5, "rs": 1001, "rc": 1, "ys": 842, "yc": 5},{"id": "a868c8aeecae4cb0880df25b72449ba0.16", "url": "http://lh3.googleusercontent.com/CJBLNBZA7VzH7-morpQvLpew9GNG4VIX3GFnA8Gc_4p5W-Eyfd5q45FGiTETa3Gt0QaQpoFbYaNpp6YR8wYdyrgo2A", "name": "Big and Round", "lat": 59.31199500000000, "lon": 18.42570700000000, "team_id": 1, "available_slots": 0, "bs": 0, "bc": 0, "rs": 0, "rc": 0, "ys": 0, "yc": 0},{"id": "a94680e68c2e4db6a8d5488b237cb853.16", "url": "https://lh3.googleusercontent.com/s6Xfm46ndJpx3obPCYfUy5mzHQOze1OX-cgJfFxRtFRHneb6Sgc7HCtXe08ULLi_i5zJHYQnccF6nUjUs2k7p1Y1PZg", "name": "Fyrbåken", "lat": 59.43320800000000, "lon": 18.69119200000000, "team_id": 2, "available_slots": 2, "bs": 4053, "bc": 1, "rs": 0, "rc": 0, "ys": 0, "yc": 0},{"id": "ab220ebee1414f99b5deb8b69bec7f58.16", "url": "http://lh3.googleusercontent.com/ThR38SpUFViYWtB8gC0exB3d74C_osVnqcdQ0qREJXr6CiepF5tgF5StAnY-N2JVYatwM2Y_MWaXK0CKGSbwQBOFEMs", "name": "Ingaröklockor", "lat": 59.28908000000000, "lon": 18.41071400000000, "team_id": 3, "available_slots": 5, "bs": 0, "bc": 0, "rs": 0, "rc": 0, "ys": 0, "yc": 0},{"id": "abea9dbf75ca3baea1836d85186efb89.16", "url": "https://lh3.googleusercontent.com/9GJxnFqfnbycx5tCLStVGzIyx9K2jJHSw0rsqLXUJsu8ny8isYAtuVP8_oJnmVW1O_ncFee9mPgAbv5WS2Lq_44haMvIh_IB4HAeJGyP-A", "name": "Välkommen till Gällnö", "lat": 59.39897500000000, "lon": 18.64458200000000, "team_id": 1, "available_slots": 4, "bs": 822, "bc": 9, "rs": 90, "rc": 5, "ys": 268, "yc": 6},{"id": "ad1e9aa0c5104f70aeecd71d05b3f914.16", "url": "https://lh3.googleusercontent.com/GIEPQKCfBLuqUnWLGGy__Pxls0s3LF2a4Dqwg2zrbvr87HQRaql-XfdJozx7UUrQqweBAzD_Cqrb-GCIdWrb5-k0KRA6_Na_O6RpGPaS", "name": "Texaco-skylten", "lat": 59.36989600000000, "lon": 18.60476900000000, "team_id": 1, "available_slots": 5, "bs": 64, "bc": 43, "rs": 89, "rc": 53, "ys": 84, "yc": 31},{"id": "ae83d5eeee3148a793b2cb98908727a3.16", "url": "http://lh3.googleusercontent.com/wKhWI63ae7asIUkxmZW1VcSZsjUmubnOSc0i1Zb_8sPNroUICn6IVyOvWcRM9Ki4QLT05D8YQiddpicO0KtVuLOlTQ", "name": "Församlingens pastorsexpedition", "lat": 59.31120200000000, "lon": 18.69739200000000, "team_id": 2, "available_slots": 2, "bs": 0, "bc": 0, "rs": 0, "rc": 0, "ys": 0, "yc": 0},{"id": "aeb5e7335a0930dea4bbd9b5956e02d3.16", "url": "http://lh3.googleusercontent.com/QyA3Nu_dxkMqSsVrSO7IZFTzF1PaQO_5-fzUJfzza72rX3GOlkxbZ9nFdw6_L5qXt9Nq_aLifHLAvPXSv4juFhuD0yTSIU4LPL4sKEZz", "name": "Björnö utkikstorn", "lat": 59.22320200000000, "lon": 18.57566400000000, "team_id": 2, "available_slots": 3, "bs": 0, "bc": 0, "rs": 0, "rc": 0, "ys": 0, "yc": 0},{"id": "aef3b4969d4b4852af44b7adb04d32bf.16", "url": "https://lh3.googleusercontent.com/WtWVz650cFUq7j9gEyqSd1teKEGyqEGlDVh5oSX7Rs_8Yx1srX7B9dU4FwNnssughCbnbxjDvz_dm5yD5PLYz7YL-g", "name": "Örsholmens Dansbana", "lat": 59.41075700000000, "lon": 18.62500300000000, "team_id": 2, "available_slots": 3, "bs": 51, "bc": 1, "rs": 712, "rc": 2, "ys": 3313, "yc": 2},{"id": "afc5d85ab5904679a1d46aacf55b7c2f.16", "url": "http://lh3.googleusercontent.com/RStBorAGvXthSWrCj1v4FIEfDz0LIhP8E35RXf6jmRI8MHxOiWkZAAQQMkM1D6L5UoKlzCz-QlRQnJnkpaiKFEErjQbD", "name": "Skogens Skafferi", "lat": 59.31193500000000, "lon": 18.71729200000000, "team_id": 2, "available_slots": 2, "bs": 0, "bc": 0, "rs": 0, "rc": 0, "ys": 0, "yc": 0},{"id": "b14b75d0ad324583af7cb6cf6963d596.16", "url": "http://lh3.googleusercontent.com/jKoEuf7ImECI0XpapCdSLSgdQaeoiqt2IjzWgiI_QPyFv5-NzZP60PICrlFfsI0THtCLITVpKvnsmjb9qR3Rk3WNamR_", "name": "Utomhusgym", "lat": 59.33232800000000, "lon": 18.37256600000000, "team_id": 2, "available_slots": 3, "bs": 0, "bc": 0, "rs": 0, "rc": 0, "ys": 0, "yc": 0},{"id": "b16ed5cd254f4186852c1a538384eeeb.16", "url": "https://lh3.googleusercontent.com/Pz0ElQeYHG-K0Wj783IrTCkNYD6F-pNVmW3K-5fL9QQbvq34fYbfgDD_v1ExA4_7kHn4cv_-_kFd5aO8vUpelfEy3Kc", "name": "Alsviks Brygga, Svartsö", "lat": 59.43795300000000, "lon": 18.65712000000000, "team_id": 3, "available_slots": 3, "bs": 106, "bc": 21, "rs": 163, "rc": 18, "ys": 208, "yc": 21},{"id": "b4d780787c443659b953915455e4bc96.16", "url": "http://lh3.googleusercontent.com/x12ZGFnfu2e9NSULAOdmyCSwHqp7kIDS47q_hm3QAkdSuPqCRsLA7kemQDcQ_CRC4wbftYRkxTZeqrChaCC_Kx3rzM7Nllzo-r1Yr6GY", "name": "Storö naturreservat Dyviken", "lat": 59.34626700000000, "lon": 18.87832800000000, "team_id": 2, "available_slots": 5, "bs": 0, "bc": 0, "rs": 0, "rc": 0, "ys": 0, "yc": 0},{"id": "b6bd98f9d92e42c8abe07f021967c02b.16", "url": "https://lh3.googleusercontent.com/D0VN6cOINogcS2fyFifSXBnsCR7G_BhnGBFGVry5CL89IoQ_clAJzUWpgOtuSGhT__JNxQ9RDtFCXpBczRh4VFveHlo", "name": "Statue on Concrete Pillar", "lat": 59.38015700000000, "lon": 18.67348700000000, "team_id": 1, "available_slots": 1, "bs": 0, "bc": 0, "rs": 0, "rc": 0, "ys": 0, "yc": 0},{"id": "b763d09b7b624281b550a1bf364734c4.16", "url": "http://lh3.googleusercontent.com/kPzVwndqxUvf7vySDwATRCkpt-arjtiNRtHocAaiJHilivzTFFvlicyT5-ntZFmV_38XhJNyEHcIQjv0GPt_Om5hGBU", "name": "Gudstjänst varje söndag", "lat": 59.32019800000000, "lon": 18.47910100000000, "team_id": 3, "available_slots": 4, "bs": 0, "bc": 0, "rs": 0, "rc": 0, "ys": 0, "yc": 0},{"id": "b76ebde129084ed899b2fecd75208cbe.16", "url": "http://lh3.googleusercontent.com/ZqWeNnJXaQqJEvvqbgeS_4o4AM4yeLpnhkRvaeZHoVZ1iaNrxUuMjVEnZEqO1Rpui9pABXYlaHo6tkhpyUpKcx1rhYWy", "name": "Krokodilgrundet", "lat": 59.16243900000000, "lon": 18.58552800000000, "team_id": 1, "available_slots": 5, "bs": 0, "bc": 0, "rs": 0, "rc": 0, "ys": 0, "yc": 0},{"id": "b8bc0e2680374f1db86f4fa331f50c43.16", "url": "http://lh3.googleusercontent.com/dX_CIN9x0bc1M3Vf9BBEcy3YMrMg-CxSQUy30upl-stDhaVJmY4DIMPPUzftJSdYvskCEp151UPkdo2KxWpqEgFOn84", "name": "Gurra Lighthouse", "lat": 59.32707700000000, "lon": 18.38924600000000, "team_id": 1, "available_slots": 0, "bs": 0, "bc": 0, "rs": 0, "rc": 0, "ys": 0, "yc": 0},{"id": "ba55c96a14cd3519ae981655c2cf47d2.16", "url": "http://lh3.googleusercontent.com/r5Vc_napXODV7b4nKmUXI3jMKwI8vpBk2yqrDzYnNgaPuDvGoWp2soatRh__hXWXNtLD2TUD3_KkztFmXiZoxIzlbtSPE5re7aDzjzHl", "name": "Näsuddens informationstavla", "lat": 59.29872900000000, "lon": 18.77861900000000, "team_id": 0, "available_slots": 6, "bs": 0, "bc": 0, "rs": 0, "rc": 0, "ys": 0, "yc": 0},{"id": "bc70f4ec980f473aa99ec0e426266e49.16", "url": "http://lh3.googleusercontent.com/8vKVxgHtdaaebN_cOCeJuZWWsXtZKVQnn7ClrINBe3g710Vm4woRpCUbsoEUDng8Oo0Ad1S0UUJxxIDn4EyTluG02lc", "name": "Kanholmsfjärdens marina information", "lat": 59.34784600000000, "lon": 18.72713300000000, "team_id": 3, "available_slots": 4, "bs": 0, "bc": 0, "rs": 0, "rc": 0, "ys": 0, "yc": 0},{"id": "bc9b13d6a4f5489788efb8c800371185.16", "url": "http://lh3.googleusercontent.com/Rv5-7jX4DfjTnHqD_JrdTI1eIoHeyxHCNHmRIbbVxjRwLdmXYFpI7vEWftkPL3IKeofTnw5zpVHXUeBy-jym8bbOz9jjI88VtwpcwxmZjA", "name": "Fotbollsplanen på Hjortens Odling koloniområde", "lat": 59.26985300000000, "lon": 18.59603700000000, "team_id": 3, "available_slots": 5, "bs": 0, "bc": 0, "rs": 0, "rc": 0, "ys": 0, "yc": 0},{"id": "bcc3741099d8342d86531ca58cf335a8.16", "url": "http://lh3.googleusercontent.com/NeVXnZFuoHA7jFigUu7fBNHgam95uqt3HBg369ns-r2G8lfoPoUFcd9qqxrlIvXuy_2P9FjjW1yea_Eztpes2zrB2-JMQUz_srSTGXE-", "name": "Karta", "lat": 59.29059900000000, "lon": 18.92820300000000, "team_id": 1, "available_slots": 0, "bs": 0, "bc": 0, "rs": 0, "rc": 0, "ys": 0, "yc": 0},{"id": "bce80f9dd85f42f8a4875c72cb76ccb4.16", "url": "http://lh3.googleusercontent.com/5WJy4QEvFqRwjIg19fN4jXDmF8rqX2M83vk3TS4SnjyQrY1o7elyvligXHNS1MGkc8v1W_WsjdwimjVHZKBYO1d2sp9e", "name": "Rysslämningar", "lat": 59.29736700000000, "lon": 18.34597200000000, "team_id": 1, "available_slots": 2, "bs": 0, "bc": 0, "rs": 0, "rc": 0, "ys": 0, "yc": 0},{"id": "bd8de04649214f138d03a9ea24cd6b34.16", "url": "http://lh3.googleusercontent.com/3pMPVtlzbCC24P3u7S1tem1XoYVj9JqKtg-IM0RMmjzq1LfqMke6phbHhliot7zEfhbEDVvXmhGRQBiqNSzBR0aR7Qs", "name": "Metal Flower At Artipelag", "lat": 59.30678500000000, "lon": 18.34772400000000, "team_id": 2, "available_slots": 2, "bs": 0, "bc": 0, "rs": 0, "rc": 0, "ys": 0, "yc": 0},{"id": "c093151a6e4b4513a12a161b929d38eb.16", "url": "http://lh3.googleusercontent.com/8Yo6GAC6UPRoO7vbk_E8qxlIChkY5VMAzoN8hJo43leOSYPHYp49tDeahKHOz-467T9nLZ2iDsoqDlJuwbR2CFlOvg", "name": "Strandpromenaden", "lat": 59.30764800000000, "lon": 18.35385300000000, "team_id": 2, "available_slots": 4, "bs": 0, "bc": 0, "rs": 0, "rc": 0, "ys": 0, "yc": 0},{"id": "c134a99c454341289379e61b3106ec85.16", "url": "http://lh3.googleusercontent.com/S42uT4soNuQrDxioQvM6udaywx2WrbqhdVsW9_1QeA-5zMQtN7VY2_Id8VRpQfgE-jtcB2SH_-7qxjtq31n9yC1Sexw", "name": "Röda stigens informationsskylt", "lat": 59.29257600000000, "lon": 18.52440000000000, "team_id": 3, "available_slots": 4, "bs": 0, "bc": 0, "rs": 0, "rc": 0, "ys": 0, "yc": 0},{"id": "c22830cb3cf2445b99912d35fffe750a.16", "url": "https://lh3.googleusercontent.com/wKAm4yzIcw3xaGIAKCIivPcHsXZUbmM3g3cO64ki99B9f9Xm3TnzOQRuL3tSj0utSEW683c1I02tj9QzUx1nPTT6yHi-l7kr1OxprDT4rw", "name": "Skärgårdsstiftelsen Grinda", "lat": 59.41881600000000, "lon": 18.55883500000000, "team_id": 2, "available_slots": 2, "bs": 201, "bc": 10, "rs": 159, "rc": 12, "ys": 689, "yc": 8},{"id": "c56b2ed1085c30df957ca0f4a92caae0.16", "url": "http://lh3.googleusercontent.com/Ro9PqENhy3rSDfyTheaq3JpBO3IUcpTK-D3xI5B4I7jmi6zeO4cPXJvolT_7IKe9KnwCygaTJomkGgg5SYlr9bPK1UP2wB47XV212_uxhQ", "name": "Välkommen till Björnö naturreservat", "lat": 59.23252600000000, "lon": 18.57189300000000, "team_id": 0, "available_slots": 6, "bs": 0, "bc": 0, "rs": 0, "rc": 0, "ys": 0, "yc": 0},{"id": "c66d5b07d5414d49af263c092121d958.16", "url": "https://lh3.googleusercontent.com/i8zjhp90EH-4tPei_aKAVVMS6q3bT7axUMwBunaq3xZ_pZjuNMStnx0ZY8TEXOwAVdmaWJNZIliT59BJyA_P0sx1N39T", "name": "Skärgårdsmålning", "lat": 59.36067500000000, "lon": 18.64742300000000, "team_id": 1, "available_slots": 1, "bs": 1477, "bc": 5, "rs": 295, "rc": 6, "ys": 100, "yc": 2},{"id": "c6c003bb78b84f57a6353064a961dc3e.16", "url": "http://lh3.googleusercontent.com/FwpThWsbzZWtA61F9EhGFpKgvGTz0AetrdyMdUSHUcZ5jd-LolrT-yOK4xQdhOgNuw9YYF-GA6MSwOxVchIP7HGGFAeZ", "name": "Ingemans kula", "lat": 59.20854500000000, "lon": 18.74466100000000, "team_id": 1, "available_slots": 4, "bs": 0, "bc": 0, "rs": 0, "rc": 0, "ys": 0, "yc": 0},{"id": "c8f5705a03304a75aa4056bf64062423.16", "url": "https://lh3.googleusercontent.com/DbA5QdaWyR-0tQNTjORYkTmz4kaGzbCraNEnOh1BrJYVlLzzwNSl015qp3SO9IMc2aNKoV6hMUTIAXiC1-w9A6mHoORzBAp5FBm0Ehc", "name": "Boda bystuga", "lat": 59.36738500000000, "lon": 18.60180100000000, "team_id": 1, "available_slots": 5, "bs": 72, "bc": 2, "rs": 907, "rc": 9, "ys": 256, "yc": 7},{"id": "c93bb6f32f284717b519be87bc3ab3f4.16", "url": "http://lh3.googleusercontent.com/EMLCqpQ6oVuc_5ADse5qjbaw9cUy8tq-RV2YErw8K_fdtocXniM4cJef6qpbOfXzhBVJo-SrODS78SgCrvVPo5pO2Rc", "name": "Röd Drake", "lat": 59.28050200000000, "lon": 18.43851200000000, "team_id": 3, "available_slots": 4, "bs": 0, "bc": 0, "rs": 0, "rc": 0, "ys": 0, "yc": 0},{"id": "c95b40fa0b824a9fa35586ec6da79920.16", "url": "http://lh3.googleusercontent.com/3hyBxemEUmRxIlgnz1AqOm9RbWKKwjiN0sWF3OGkRWQdFtqO62p319AjFgMumU88sUG1ey_d_SWQ0MQ-fUZxfqy1Vtk", "name": "Haghultas Lekplats", "lat": 59.32042300000000, "lon": 18.47232200000000, "team_id": 1, "available_slots": 5, "bs": 0, "bc": 0, "rs": 0, "rc": 0, "ys": 0, "yc": 0},{"id": "ca45d9e85ec949a086166df3bd88a622.16", "url": "http://lh3.googleusercontent.com/JRqXqXxs_qYz0zbwsDV0SNNH4Kd-QM6o9cqAQjMv_qxY-3Ghj1AvUeY0uSCSwhcib7s1w4AdeGuxl2W4qcX7AdrbUg", "name": "Gubben Som Målar Fönstret", "lat": 59.31197100000000, "lon": 18.38573400000000, "team_id": 3, "available_slots": 0, "bs": 0, "bc": 0, "rs": 0, "rc": 0, "ys": 0, "yc": 0},{"id": "ca9df1fd424342508a5672c88349c00c.16", "url": "http://lh3.googleusercontent.com/x2MkjGB9YcsxwOlphu9-TxfO6X8T0OkydWVXjQs5em_Ed7JcW2xgYUM8qbxkENvndEgKEFL2dh3qcFxnxB4taG_FNvE", "name": "Lugnets lilla lekplats", "lat": 59.33364900000000, "lon": 18.39080400000000, "team_id": 1, "available_slots": 0, "bs": 0, "bc": 0, "rs": 0, "rc": 0, "ys": 0, "yc": 0},{"id": "cafca8f764774f1bb97c21b864a0711a.16", "url": "http://lh3.googleusercontent.com/qCJ6xaBnVDyPa1UUlENT0wOyehB6fxAf6W-NRu7OtDebTnn2y-AzfkTOwqNAfnveyX6cQJerCYhfB-s6NEBsNJKH7m7H", "name": "DVIF Fotbollsplan", "lat": 59.31194300000000, "lon": 18.69694400000000, "team_id": 3, "available_slots": 5, "bs": 0, "bc": 0, "rs": 0, "rc": 0, "ys": 0, "yc": 0},{"id": "cb310864617040dfa910d8669affc444.16", "url": "http://lh3.googleusercontent.com/Iq2JdWvqDlRt1QxnpO5CnPzv9l91JJU76-p4wYCFCe48k1bh9fl5mQXq7Op3Ik_DET2czEscRX4qydfOE-myF0i25LlZ_hFu9Pa-oQfg", "name": "Gungbräda", "lat": 59.33899400000000, "lon": 18.57432500000000, "team_id": 2, "available_slots": 5, "bs": 0, "bc": 0, "rs": 0, "rc": 0, "ys": 0, "yc": 0},{"id": "cc15e00891994b67a10229eae9228493.16", "url": "http://lh3.googleusercontent.com/cQ8Q3AtwLJAR5XBWEsXAt9BqWDOjbKXpN8zvbKZnqBRyALD3xvuxe3HLN3tgrqxz6Ffd7zjt0ajDccD8l4rMYS4brh4", "name": "Blixs kyrka", "lat": 59.19188000000000, "lon": 18.71640200000000, "team_id": 3, "available_slots": 4, "bs": 0, "bc": 0, "rs": 0, "rc": 0, "ys": 0, "yc": 0},{"id": "cc5d59421ab341d79f489c14d69ddcf3.16", "url": "http://lh3.googleusercontent.com/TG8TjM0I8eqrrJBP3CIaYurGEoQCbNrQUKT_vsY7yPUDyZEPIAf8ov2GXVV2MU9Cldq5d0mNsdBoJ5TgzuizmTJJqGe9", "name": "Fyren", "lat": 59.31835700000000, "lon": 18.40864900000000, "team_id": 1, "available_slots": 0, "bs": 0, "bc": 0, "rs": 0, "rc": 0, "ys": 0, "yc": 0},{"id": "cc7e9c945bb7308681dfa81c8803fc5c.16", "url": "https://lh3.googleusercontent.com/MNvgoZ4I67SzVo2r3PY9bN3LBJ0Wx2vVGqsVK11rTsJKjzEiLPxsw5FEH1TG3OTY14PFpeBpRCyp2za2M4B4ZS0uAdEi2z5OUXChobE", "name": "Trollet Ture", "lat": 59.36902900000000, "lon": 18.61533600000000, "team_id": 2, "available_slots": 5, "bs": 0, "bc": 0, "rs": 5572, "rc": 1, "ys": 21, "yc": 1},{"id": "ccee263d21fd40f6ae73adf1f08e9731.16", "url": "http://lh3.googleusercontent.com/fMedyoSTDz5Nw0JXHJwsGzST7BOc1VDuUZoKEIL1gkB0rTtsVK2uBTvTw5qMiWbXu6nkIlY6UVThHk4FyxwMmm0zYg", "name": "Stavsnäs Vinterhamn", "lat": 59.28682400000000, "lon": 18.70338900000000, "team_id": 2, "available_slots": 4, "bs": 0, "bc": 0, "rs": 0, "rc": 0, "ys": 0, "yc": 0},{"id": "cd9ce202a1bb471f9bc541244eb6170b.16", "url": "http://lh3.googleusercontent.com/iYsEQ7bNlJRH7f7Dek7arAyu0_2tM62t6BMsG-s1D_zVC_NeNGpSagZRFoHnWiVHcqo2yMjXYOEjGt-5qYoqrx6FP_0z7I_rIugoEsic", "name": "Hesselmara båthamn", "lat": 59.28510000000000, "lon": 18.63258700000000, "team_id": 0, "available_slots": 6, "bs": 0, "bc": 0, "rs": 0, "rc": 0, "ys": 0, "yc": 0},{"id": "cdbb845972184914a68c5dd15e481c32.16", "url": "http://lh3.googleusercontent.com/PTzhwlTQMv2cb8g3A2B6hRoNCY1ZLzeCfSEpbqHheYh9lyM99VKtk88elgwmA4p8GcxeiFjSpnqgHngcHVYJrYz8WA", "name": "Klockstapel", "lat": 59.44471900000000, "lon": 19.50198100000000, "team_id": 2, "available_slots": 4, "bs": 0, "bc": 0, "rs": 0, "rc": 0, "ys": 0, "yc": 0},{"id": "cf1616e4ea754a45895cdf5d21c7566a.16", "url": "http://lh3.googleusercontent.com/1qWLwV6rv1TygTqa5Bit1qkjbs18uKrsA9r09xlfWhG8Pp6fYAf7gHUrXMt0ETZsg5VWf5rF6MBXcQqO6Qhh_ydCseA", "name": "Lillsved Folkhögskola", "lat": 59.41122700000000, "lon": 18.49685900000000, "team_id": 3, "available_slots": 5, "bs": 0, "bc": 0, "rs": 0, "rc": 0, "ys": 0, "yc": 0},{"id": "cf2a7327670043669f9ef07109a705e8.16", "url": "https://lh3.googleusercontent.com/YRa5LAbbe7Adzg9DNl8iGTo_wMc1ZLGUQ-sWlCGwgx-4xTzMvrrObeP70kVuKlSvhcrUTiP_4HkLTwP64xq4ad-WiNg", "name": "Dansbanan", "lat": 59.35232600000000, "lon": 18.41396400000000, "team_id": 1, "available_slots": 3, "bs": 0, "bc": 0, "rs": 0, "rc": 0, "ys": 0, "yc": 0},{"id": "d03420221a2c44238c36d0d2edb50c39.16", "url": "http://lh3.googleusercontent.com/YAXk0LMtM7R9YQR0lRfQ6pgGTx0ZF-NKGnk6BVk5sdV9G_HojMki6PAAYGvDwdjuXUILoZcMG7zzeTxTRPQgrxAtXh-1", "name": "Siggesta Gård (alpaca)", "lat": 59.37396200000000, "lon": 18.52878600000000, "team_id": 2, "available_slots": 5, "bs": 0, "bc": 0, "rs": 0, "rc": 0, "ys": 0, "yc": 0},{"id": "d09dae3824a64e6ca087733f411c336f.16", "url": "http://lh3.googleusercontent.com/DVHDMNsav575E0iVQLvRnrUC92lIYBAp-lUoi2cT_1Fx08Aj5hWg_3fMbbQC8zz4ll7t5yQKW4VPblOSJDdDwJK2n-E", "name": "Styrmannen", "lat": 59.33812100000000, "lon": 18.39391100000000, "team_id": 1, "available_slots": 5, "bs": 0, "bc": 0, "rs": 0, "rc": 0, "ys": 0, "yc": 0},{"id": "d0e24c46f6c14f1a831a3ff1e57c2185.16", "url": "http://lh3.googleusercontent.com/qgVFAZ3ki27CuiSMRV2PBhxun1RMyW9lbb6c6Nvpd-2EUA4z8M5vwHh5swyzoAz9G1EP8m489J1xBrgOd8tPXTBC9Lvm", "name": "Djurönäset Ankare", "lat": 59.30029200000000, "lon": 18.67675400000000, "team_id": 1, "available_slots": 3, "bs": 0, "bc": 0, "rs": 0, "rc": 0, "ys": 0, "yc": 0},{"id": "d21b56c1608149078352022e1858e79d.16", "url": "http://lh3.googleusercontent.com/r2JdTfzBCK4cLHB_ee7KR61cSFNM_r3-rroKTVRdmsuAbFI0W08ejm6ZRNpU8dj1E7Gak2isE797ZcMqllXu0eit0vs", "name": "Djurö Kyrka", "lat": 59.30519800000000, "lon": 18.68907700000000, "team_id": 1, "available_slots": 5, "bs": 0, "bc": 0, "rs": 0, "rc": 0, "ys": 0, "yc": 0},{"id": "d254b412ca554173b12210d697a4d6ad.16", "url": "http://lh3.googleusercontent.com/dPT6TcRSVOybZgCwFJEqUiyTXXs212bAL2nfnyHb7uvQqWBTG2p1dBhjanS55hqoAf4pkGNwl-7syPnJw24PLwuLBnpu", "name": "Ålstäketstenen", "lat": 59.31296000000000, "lon": 18.45801600000000, "team_id": 1, "available_slots": 0, "bs": 0, "bc": 0, "rs": 0, "rc": 0, "ys": 0, "yc": 0},{"id": "d27131d023cf49c0bdc177a9ae6ae65e.16", "url": "http://lh3.googleusercontent.com/2syPAF8bkztxuOWWolHX6ErpT-eSD25j4peTsiZWWJOOlAidgsjTA8PTjtdXGF139UzFgzpdnGc4nEqnGOK9SazD8qST", "name": "Bosses Backe Tree Tent", "lat": 59.31379800000000, "lon": 18.48427800000000, "team_id": 1, "available_slots": 4, "bs": 0, "bc": 0, "rs": 0, "rc": 0, "ys": 0, "yc": 0},{"id": "d279dba6a50539a2a73b985dfbedca96.16", "url": "http://lh3.googleusercontent.com/ggARG5Mi6mJFTUTiBZBBojGwNUUs5ORKD2TsO0CpG42Hj6SSCwSB-70IP2WdfNBWHbeOvFpapF6xZkCXPOyhx9E9jyIDrZ_o9ER54VgCRg", "name": "Ostholmen Naturreservat", "lat": 59.39166100000000, "lon": 18.89550300000000, "team_id": 0, "available_slots": 6, "bs": 0, "bc": 0, "rs": 0, "rc": 0, "ys": 0, "yc": 0},{"id": "d6908e856d2a44498b0ed1b541973710.16", "url": "http://lh3.googleusercontent.com/KhsFTS1LmyiHC9MkwCRLQcfNXvMh2T5auG5t0TF6QxMh3c-rFk-wlA3DzaeSuO_6SajKRfCDMiZMn73VpBtRZRcHpS4", "name": "Svarta fisken", "lat": 59.28750400000000, "lon": 18.67242800000000, "team_id": 1, "available_slots": 5, "bs": 0, "bc": 0, "rs": 0, "rc": 0, "ys": 0, "yc": 0},{"id": "d83ffefcc86b4a01a51571637b8d11d9.16", "url": "http://lh3.googleusercontent.com/CzE2fP5WdtDbDGzW_XcG46Bw6NAQig2CyI2XR7F7MKSdqbtqLUx9rmgFDvaaTMuUVSk3A4D36k5uwlqSmZCA9v1JgX4", "name": "Höjdhagen Och Ekedalsskolan", "lat": 59.32789400000000, "lon": 18.38023000000000, "team_id": 3, "available_slots": 0, "bs": 0, "bc": 0, "rs": 0, "rc": 0, "ys": 0, "yc": 0},{"id": "d842da64f3654b48a6d4d2269016842f.16", "url": "http://lh3.googleusercontent.com/0ljHUFqHFnfjhftwe3OqJAjQcZ5DDyJK5o85nolX8ixlZ8YGgZF9SqvPvtQ3R4vPhfdLupgPCTOyX0xp4IAi_d6-jpk", "name": "Järnålderns Hemmesta", "lat": 59.32629000000000, "lon": 18.50023400000000, "team_id": 3, "available_slots": 0, "bs": 0, "bc": 0, "rs": 0, "rc": 0, "ys": 0, "yc": 0},{"id": "dae9345687543dc6a2cdcf892626d82e.16", "url": "https://lh3.googleusercontent.com/RkrjuYQlYlNv3L0Dz-TDNgdJgo5VZJEq6mjTJJSArelsMF3TR_z9YnPjIOS1yQFfQ_2W5ofH7DWCVpqblG9MNhuj7nyOIAHlk0Boh7g", "name": null, "lat": 59.35853800000000, "lon": 18.45779100000000, "team_id": 2, "available_slots": 3, "bs": 0, "bc": 0, "rs": 0, "rc": 0, "ys": 0, "yc": 0},{"id": "db77887fb61d4c5eb010bad9bc5643f8.16", "url": "http://lh3.googleusercontent.com/sI4v2MKBQg8r30_EBq5I-CA0dclEb0Q7J5mm1Uv5DCwcfukCgY7QSpjvglT1uUvvBhF5hPHx8rU_UESXk99iC7zPls8B", "name": "Friden Anslagstavla", "lat": 59.27193400000000, "lon": 18.62774100000000, "team_id": 1, "available_slots": 0, "bs": 0, "bc": 0, "rs": 0, "rc": 0, "ys": 0, "yc": 0},{"id": "dce581edaf863b81b6713b943b3b8847.16", "url": "https://lh3.googleusercontent.com/3i-zbBhSu_Tx2G7Jmgr_2QuWJDqMlRxTT1gx_YkOg5py4wMxKGz7G2yhlDt7HuUDE5xLH_svrEDbOI9TROnmHi3z62IJ2d8vIyE9eTY", "name": "Hästholmen Naturreservat", "lat": 59.40447800000000, "lon": 18.57368300000000, "team_id": 1, "available_slots": 5, "bs": 1435, "bc": 1, "rs": 0, "rc": 0, "ys": 5515, "yc": 1},{"id": "dde6ab47396f4f8f800a4d6f15ee1612.16", "url": "http://lh3.googleusercontent.com/w2LCZ3g8oSHFoVgeTdshSCNgtbo0wugkjjA-zKwvOk-NvQnAYzDbKXL5_Uwwv8hem6Dl7jJ6U5M05jDy1bGVG7dHt38Y", "name": "Lövhamragravfältet", "lat": 59.28605600000000, "lon": 18.42062200000000, "team_id": 3, "available_slots": 4, "bs": 0, "bc": 0, "rs": 0, "rc": 0, "ys": 0, "yc": 0},{"id": "de99da025bb53ac795ba62eaccd72ae2.16", "url": "https://lh3.googleusercontent.com/QUNo7WhXhPn8Q1CsPvUKE9JUnLdzdTQqL6flFKpZlZEZ1fk6HuTgC1J-tuEf7JfeXR5giLS8FfR3UuOrVzrUNsXT3HI", "name": "Gula Vindövarvet vid vändplatsen på timmerdalsvägen", "lat": 59.37066300000000, "lon": 18.65809800000000, "team_id": 2, "available_slots": 5, "bs": 452, "bc": 11, "rs": 111, "rc": 5, "ys": 501, "yc": 7},{"id": "decb7d4c07d4442aaff743d47e83f7d6.16", "url": "http://lh3.googleusercontent.com/Vs6KO6ugEsVliTbiWELZew6RXa9u-ZmlMf0PxwEiu3N86jZJlM4CSr9HmKmcb1ERbipG_sYRZmVOkP9o_Fm1Hkq0TTQcJ3nd5U6QInae", "name": "Ankhuset", "lat": 59.32190900000000, "lon": 18.37325200000000, "team_id": 1, "available_slots": 0, "bs": 0, "bc": 0, "rs": 0, "rc": 0, "ys": 0, "yc": 0},{"id": "df6ef5d539314762a7f67edd5aa68027.16", "url": "http://lh3.googleusercontent.com/N73pp58-BBvijCtJ-GqyZyRdcxR8HVtxZC3v9d0P7idq9U0Pg-Bxryf5o5vduoHx-wNyNe33u-qjlmJXyUuN16imikw", "name": "Välkommen Till Värmdö", "lat": 59.32722500000000, "lon": 18.37176900000000, "team_id": 1, "available_slots": 1, "bs": 0, "bc": 0, "rs": 0, "rc": 0, "ys": 0, "yc": 0},{"id": "e1365c65bc074893b0c28fde3fe7140f.16", "url": "http://lh3.googleusercontent.com/fya6ODQ6HkhwCkLtu6CyOj24kL1u_K5iB2CWtzW8Y7PaQAyBZBhPiTijM13ut0w-Nd1_wa03ncep3Yqfwz-nh802ayA", "name": "Björnö Infotavla", "lat": 59.22298300000000, "lon": 18.54422500000000, "team_id": 2, "available_slots": 0, "bs": 0, "bc": 0, "rs": 0, "rc": 0, "ys": 0, "yc": 0},{"id": "e186663f112b4f39a775fa9af00b2c89.16", "url": "http://lh3.googleusercontent.com/t0m7EgyZKN5DYYyyRAxzHWNEd6fVRSP815VCa5eLphd_K0XjDWH296AB0q2vOlX28IppqzbgE91oX2DCRYIu5oC4XThz", "name": "Gammeleken Med Trollet Gyttje", "lat": 59.37083600000000, "lon": 18.53280400000000, "team_id": 2, "available_slots": 5, "bs": 0, "bc": 0, "rs": 0, "rc": 0, "ys": 0, "yc": 0},{"id": "e2ba176bee2c4851b62cd3c6716b0a93.16", "url": "http://lh3.googleusercontent.com/UT79ir50-LYolbPwf-N6I52LeZ1wv6yf2N_8jxvyy4RJJIAI8575trMnfXncFOqhz3U7Lh71SClxJCPKK_S8q8Xs8QI7", "name": "Footbollsplan vid Skogshyddan", "lat": 59.36211000000000, "lon": 18.70516400000000, "team_id": 3, "available_slots": 5, "bs": 0, "bc": 0, "rs": 0, "rc": 0, "ys": 0, "yc": 0},{"id": "e2ba9b0e09824f1eb2a045ac9330a519.16", "url": "http://lh3.googleusercontent.com/rTXVmQtRXrC2bV5Fplvfol7LtTpV8YO1VK1BbaCD74N6FsDyca4CtV_ClGK5I_mw5YtOSfAHAw5k7f040QwNQlgpCTzb", "name": "Välkommen till Skeppsdalsström", "lat": 59.30486300000000, "lon": 18.48472500000000, "team_id": 2, "available_slots": 2, "bs": 0, "bc": 0, "rs": 0, "rc": 0, "ys": 0, "yc": 0},{"id": "e366dba40013475d8e6f27c6f79e782f.16", "url": "http://lh3.googleusercontent.com/yX2IXtQSIk9q9a9sO5erZfu5t9HnOKkOIYcgSiHk7oonntA_iyob5doQ65jKaVAqX0WdgJ3sdQ1ndA7fBc8ag3M0Ig", "name": "Trollstigen", "lat": 59.28954200000000, "lon": 18.69971000000000, "team_id": 2, "available_slots": 5, "bs": 0, "bc": 0, "rs": 0, "rc": 0, "ys": 0, "yc": 0},{"id": "e44322c353f9420c8d362d513b7ae276.16", "url": "http://lh3.googleusercontent.com/JShC2DA5swBXYUvcoji97O_kBVsYomA1uLJpiw0kkbPHtY77Q-LqN62GLbPnPunj-7KF_OBQFusxxQAnWTi9iYuzmCY", "name": "Nämdö Bibliotek", "lat": 59.18256100000000, "lon": 18.68768900000000, "team_id": 3, "available_slots": 0, "bs": 0, "bc": 0, "rs": 0, "rc": 0, "ys": 0, "yc": 0},{"id": "e5076aeb2a2742298528a281c8720838.16", "url": "http://lh3.googleusercontent.com/FnHTdkz7XUqj9RYCs7o7sVDUb3MSu4fyxdXKyngqVgEd_cmGUF6JZaBYlDcQcrAB8mSVnAhEAtc9HnpHBAR9odd0Qw", "name": "Hemmesta Sporthall", "lat": 59.31940900000000, "lon": 18.48723000000000, "team_id": 1, "available_slots": 4, "bs": 0, "bc": 0, "rs": 0, "rc": 0, "ys": 0, "yc": 0},{"id": "e6536201e4264daf90a100fa72b12401.16", "url": "https://lh3.googleusercontent.com/rUywnigQTKydLmPzQ5YCx8vaPMS8L4aIlpkoERpRhA9R8R9cs15xt2H_C3iHJnlZutf2JJ9KZM9wOcsm1MnunPxhyPs", "name": "Kruthuset", "lat": 59.40004500000000, "lon": 18.44041300000000, "team_id": 3, "available_slots": 2, "bs": 474, "bc": 11, "rs": 167, "rc": 7, "ys": 415, "yc": 6},{"id": "e7cb7e07ede048f3a11aa2320ab73883.16", "url": "http://lh3.googleusercontent.com/N3egKhTMoQTYL36MQx9na_UAutcSM32_Ymbaonz1C0r8a3uvN6O1G6ErGP-_IsAhHt6WiS1hNYnbFUL6-LHyt9UanB4", "name": "Strömma Hembygdsgård", "lat": 59.28499100000000, "lon": 18.55159500000000, "team_id": 1, "available_slots": 2, "bs": 0, "bc": 0, "rs": 0, "rc": 0, "ys": 0, "yc": 0},{"id": "e834684510ed40028ac33d52e390dbc9.16", "url": "http://lh3.googleusercontent.com/mdqIaMo7aARYgkRxrhODXyW5taPN9zXoJkkV7YxFdQN-MsnJhQ7jaauMrkrPY7MdX_Q62GhbUS6GkMlaZ6mkksNcnaGQaLCKWvFgL82BTA", "name": "Torsby tennisplan", "lat": 59.33600000000000, "lon": 18.49452900000000, "team_id": 1, "available_slots": 5, "bs": 0, "bc": 0, "rs": 0, "rc": 0, "ys": 0, "yc": 0},{"id": "e89a2ed5de853832b63f95dd3c81d733.16", "url": "https://lh3.googleusercontent.com/TGVoCTv1lgfBWNqoxpksmUjAoTPzGuR5XduW8GROoQ2x9SBCuyguztHNR7B_A1MGLbypvcWPqeBoPaBcJuVfa4d_DmzC", "name": "Gula Vindövarvet mot kerstins väg", "lat": 59.37225300000000, "lon": 18.67141500000000, "team_id": 2, "available_slots": 5, "bs": 877, "bc": 4, "rs": 1005, "rc": 5, "ys": 364, "yc": 3},{"id": "ea1914dd7b074e37ad2765d17c3492ee.16", "url": "http://lh3.googleusercontent.com/e-1vh6vK8dOssYlS0pAbTAr7i8hdWLLcVD3WKQZ9lbYHH5qLk5I0LFH6RuDgLsxUuNssBZ94fJ0woPuo9-aPn7OxLw", "name": "Föreningensinformation", "lat": 59.31074500000000, "lon": 18.69808500000000, "team_id": 1, "available_slots": 4, "bs": 0, "bc": 0, "rs": 0, "rc": 0, "ys": 0, "yc": 0},{"id": "ea4d7ee4cc63300d9fe8e193b52be32f.16", "url": "http://lh3.googleusercontent.com/b_p9D8IbADhAkpEoojr7Wz-SW5qG2yoN4KryucGVWtEEdfg8dCpfDQGSxpOwxdU124eGRNtRAAyjd70E9ASSmPlv8krAzRLl7nHKlgMI", "name": "Storskogsvägens samfällighetsförening", "lat": 59.28270700000000, "lon": 18.68019800000000, "team_id": 2, "available_slots": 3, "bs": 0, "bc": 0, "rs": 0, "rc": 0, "ys": 0, "yc": 0},{"id": "eaee443df25f3c69ae03e37eb71dd8ac.16", "url": "http://lh3.googleusercontent.com/Libck0lg4U3oBXtR9vW7GkZ8YobJ0EO1ZWw9nnDiYH-8gPTbLs63FHR4FZaY3XotV1vdh6EnvOtqMhNWPxIk4Ur6ApsmBEEHoC9KBQ3Riw", "name": "Storö naturreservat Norra Hagedeviken", "lat": 59.34885800000000, "lon": 18.88986500000000, "team_id": 1, "available_slots": 4, "bs": 0, "bc": 0, "rs": 0, "rc": 0, "ys": 0, "yc": 0},{"id": "eb48aa4956e54de5a15516090aefd979.16", "url": "http://lh3.googleusercontent.com/Twb992dSp68YhMo4_H715F8rO9CTsLD_abCENGS7iaPusfoxhVQbCjFt2xw9Ni98i58bt6Wc11HXhKC2qMoCH1kfSz5z", "name": "Naturreservat", "lat": 59.22252500000000, "lon": 18.54945300000000, "team_id": 3, "available_slots": 3, "bs": 0, "bc": 0, "rs": 0, "rc": 0, "ys": 0, "yc": 0},{"id": "eb588aa641043b40a968f0acc53c0bfc.16", "url": "http://lh3.googleusercontent.com/2iw33WG8N0yQ9X9xe12A21yLtv54M7iYQi240sf940hytF7sw2EgLCZlSNiGgk-CBNQ_aT7M35SGH_d1zZsw7lT4hlfCjqZ1Iz63qghL8Q", "name": "Dalängens lek och rastplats.", "lat": 59.29121600000000, "lon": 18.55205900000000, "team_id": 1, "available_slots": 4, "bs": 0, "bc": 0, "rs": 0, "rc": 0, "ys": 0, "yc": 0},{"id": "ecbca33237a34d289e99aa01df9e02da.16", "url": "http://lh3.googleusercontent.com/9a6cMgSRY0HfodW_WpQHrPaukIoyFe4T_BhSlTj5H_eQC5BYsT-TuMKD0hOo_okb8flcxca8PP2c16bNwBMqainLKmzc", "name": "Bevakande uggla", "lat": 59.29757100000000, "lon": 18.67268800000000, "team_id": 3, "available_slots": 5, "bs": 0, "bc": 0, "rs": 0, "rc": 0, "ys": 0, "yc": 0},{"id": "ed5dd4e7afd240b18022a25a4cbf3226.16", "url": "http://lh3.googleusercontent.com/ZIpem749dZfVIyGslT6sZvKMFXMrXT4PiUZPDaTjUHQWcShGcaHHD9MlofeCgk7Au5gmXhsJ_yNPjiWUFYpiL7ubhA", "name": "Värmdö Trail Sign", "lat": 59.31455300000000, "lon": 18.47853900000000, "team_id": 3, "available_slots": 5, "bs": 0, "bc": 0, "rs": 0, "rc": 0, "ys": 0, "yc": 0},{"id": "ed9be9ec31ed45ef9168ad378c136cda.16", "url": "http://lh3.googleusercontent.com/2V0AW0iM-ytUVPHYT2OU7Ro_TAoDGMuu2EBEHgit0rgVx46ECy2o3iRCYei2bxm0tjl8SoCkq85i8QQe20ATBZQ_SBeM", "name": "Vindskydd med havsvy", "lat": 59.35036200000000, "lon": 18.56655600000000, "team_id": 0, "available_slots": 0, "bs": 0, "bc": 0, "rs": 0, "rc": 0, "ys": 0, "yc": 0},{"id": "ee555af6d4914e63a4669b5996aedfdd.16", "url": "http://lh3.googleusercontent.com/6YmI0np93HJc95hNUD7oafZERmeNcFUuxDfiadSZy0q4BXX1dArqwoNd32ZtqQ6SU4qrdxcSFeV887QYR-amWvfBq1Ne", "name": "Hagabergs Fotbollsplan", "lat": 59.31384600000000, "lon": 18.47938100000000, "team_id": 3, "available_slots": 4, "bs": 0, "bc": 0, "rs": 0, "rc": 0, "ys": 0, "yc": 0},{"id": "ee7a6822520446448c4c856c53d7d468.16", "url": "http://lh3.googleusercontent.com/Mas2p5SGyH07S912dKaleGNGhugOIsGBLwCcA_QwdBqOVWEYqufbu-ZpFELH_czE1wksEA2pG3OmTjSC9derDvbCT5s", "name": "Värmdöleden", "lat": 59.30270700000000, "lon": 18.50420300000000, "team_id": 3, "available_slots": 5, "bs": 0, "bc": 0, "rs": 0, "rc": 0, "ys": 0, "yc": 0},{"id": "eefa1f625bee4e6e8b36d2f810abb5f8.16", "url": "http://lh3.googleusercontent.com/jMZLmCPJYN4vO6JEjFR93fWgjB8Gr_YkwHHYyeJILmz00wMn7vww5NMKfIE6xZA36AoR8GE2_bl1V8o2XFZAcotzyZjmSIDAW8k-hmE", "name": "Runor", "lat": 59.31913700000000, "lon": 18.71380500000000, "team_id": 3, "available_slots": 5, "bs": 0, "bc": 0, "rs": 0, "rc": 0, "ys": 0, "yc": 0},{"id": "ef01d276726d4ba9a6e7d541cb3197f1.16", "url": "http://lh3.googleusercontent.com/A89tj29qyaNOfExJBL_CkiL2kobUL4Bkh6R8H18fSW3bL_AdSO0qWbjZXNHTyOBxvzmhLRhRiTGtXJAutO2hfd5wxiA", "name": "Trident of Neptune", "lat": 59.28615300000000, "lon": 18.92197400000000, "team_id": 1, "available_slots": 5, "bs": 0, "bc": 0, "rs": 0, "rc": 0, "ys": 0, "yc": 0},{"id": "f572e9cbea0149d29e79defd7086e28a.16", "url": "https://lh3.googleusercontent.com/zUejOg_UkJd38xO0XCvLRgRowfZBl2DgRR5LGlLG6Az_cM-OjuirYOUNivlCf447w-NTO3MH2LTUXS5pGp2JSlmRYjk", "name": "Ängarnas Artrikedom", "lat": 59.40837900000000, "lon": 18.57437000000000, "team_id": 2, "available_slots": 5, "bs": 3164, "bc": 2, "rs": 728, "rc": 3, "ys": 331, "yc": 2},{"id": "f79a84a51c4c45e880ac348ddc24114a.16", "url": "https://lh3.googleusercontent.com/CMh0Tb1es9WW2Ug3HTBoYNVPCS4ZSHon6jM8sa07vYQ3segAU6ONmIeSkmmZ7kZHxUKv_N2aDEaMqb_qOQvjfdATMoA", "name": "Gällnö Sjöbod", "lat": 59.39681200000000, "lon": 18.64438500000000, "team_id": 1, "available_slots": 5, "bs": 214, "bc": 21, "rs": 58, "rc": 7, "ys": 290, "yc": 18},{"id": "f8b249a84f0244fca7a6f94253b9a368.16", "url": "https://lh3.googleusercontent.com/suYx-LSMWyrEECl0lKJtevpQykcYdf-VE9SdriJRqhytPiPJrqKKL3ZxzzKAze0pO3XkWRDu9YbjHXHGoamrInVa4mA", "name": "Mossor och Lavar", "lat": 59.44909500000000, "lon": 18.80072900000000, "team_id": 1, "available_slots": 3, "bs": 1209, "bc": 1, "rs": 0, "rc": 0, "ys": 7404, "yc": 1},{"id": "f96ad70930e546d094ef4b6dfd373477.16", "url": "http://lh3.googleusercontent.com/SZ7HMbbElIq6lzLbF4pIxnQA0Iac8F6wjcp-GiqmeYxV0RFE5ptDSrbiqteluJDU1YZXSMBRLkll3V6U44KpDFUFZ2As", "name": "Gustavsbergs Centrum Entrén 2", "lat": 59.32668400000000, "lon": 18.39150300000000, "team_id": 1, "available_slots": 0, "bs": 0, "bc": 0, "rs": 0, "rc": 0, "ys": 0, "yc": 0},{"id": "f9a42871cb1248d894bd05d32aba7c0c.16", "url": "http://lh3.googleusercontent.com/L0thmziV2z9vBHqnED4rbldz4JRWKXyNFQMHucVIfETVWrNG7QW_lXBnzr4d71Mk0EkMZWyea6-MsZ0yeQSS2nu3-kfCGg5iyFGYh2RaAw", "name": "Måsskärsbryggan", "lat": 59.32267600000000, "lon": 18.70981400000000, "team_id": 1, "available_slots": 5, "bs": 0, "bc": 0, "rs": 0, "rc": 0, "ys": 0, "yc": 0},{"id": "fa557ea3340647b8850f6921bf8baa5e.16", "url": "http://lh3.googleusercontent.com/J1U15pU6ts04C79ShctvYma-YVlsXfz1wTHdPOYvPmDj9EXtYgkfhRmo9PxTYOboRXqKMmy2A3wMSkvU5MKtLLryJA", "name": "Finska Klubben", "lat": 59.32195900000000, "lon": 18.39685800000000, "team_id": 1, "available_slots": 0, "bs": 0, "bc": 0, "rs": 0, "rc": 0, "ys": 0, "yc": 0},{"id": "fb5184b57eb43c58a8065c57e5aa74ea.16", "url": "http://lh3.googleusercontent.com/wZVLxzNOVjXPLRXBdXfiEipr_O5B5bTTELIC2ki2NgoiYcXHRkHjn8X0g2N4OZYT-VkecJAJRrT5mOtFw2vYzyIA3iEciS66xC4ug3o", "name": "Information board, Tranarövägen", "lat": 59.27959900000000, "lon": 18.49491000000000, "team_id": 3, "available_slots": 4, "bs": 0, "bc": 0, "rs": 0, "rc": 0, "ys": 0, "yc": 0},{"id": "fc91b037796a459f9e8ee04c17821309.16", "url": "http://lh3.googleusercontent.com/YR2vkhW7n2g5mcO0y91ArOo5HV3PK4WKyTEu1xyxGjQ2CHT6tO01iVAJE2Ix2PIQOC7S2UuymVe0bKnRcR7Sc0B-eag", "name": "Hål 4 - Ingarö golf klubb", "lat": 59.28384200000000, "lon": 18.44844000000000, "team_id": 0, "available_slots": 6, "bs": 0, "bc": 0, "rs": 0, "rc": 0, "ys": 0, "yc": 0},